{"line_cd":11110,"line_name":"JR石勝線","line_lon":142.12081034323,"line_lat":42.977609672951,"line_zoom":9,"station_l":[{"station_cd":1111001,"station_g_cd":1110906,"station_name":"南千歳","lon":141.675388,"lat":42.80804},{"station_cd":1111002,"station_g_cd":1110506,"station_name":"追分","lon":141.810678,"lat":42.873316},{"station_cd":1111004,"station_g_cd":1111004,"station_name":"川端","lon":141.894791,"lat":42.914721},{"station_cd":1111005,"station_g_cd":1111005,"station_name":"滝ノ上","lon":141.97628,"lat":42.910244},{"station_cd":1111007,"station_g_cd":1111007,"station_name":"新夕張","lon":142.03657,"lat":42.936611},{"station_cd":1111013,"station_g_cd":1111013,"station_name":"占冠","lon":142.400078,"lat":42.993088},{"station_cd":1111014,"station_g_cd":1111014,"station_name":"トマム","lon":142.610937,"lat":43.055913},{"station_cd":1111015,"station_g_cd":1110618,"station_name":"新得","lon":142.832432,"lat":43.082501}]}
