<?xml version="1.0" encoding="UTF-8"?>
<ekidata version="ekidata.jp line api 1.0">
	<line>
		<line_cd>11116</line_cd>
		<line_name>JR石北本線</line_name>
		<line_lon>143.36294609598</line_lon>
		<line_lat>43.961387698578</line_lat>
		<line_zoom>8</line_zoom>
	</line>
	<station>
		<station_cd>1111601</station_cd>
		<station_g_cd>1110342</station_g_cd>
		<station_name>旭川</station_name>
		<lon>142.357803</lon>
		<lat>43.763492</lat>
	</station>
	<station>
		<station_cd>1111602</station_cd>
		<station_g_cd>1111502</station_g_cd>
		<station_name>旭川四条</station_name>
		<lon>142.375815</lon>
		<lat>43.764056</lat>
	</station>
	<station>
		<station_cd>1111603</station_cd>
		<station_g_cd>1111503</station_g_cd>
		<station_name>新旭川</station_name>
		<lon>142.384789</lon>
		<lat>43.780174</lat>
	</station>
	<station>
		<station_cd>1111604</station_cd>
		<station_g_cd>1111604</station_g_cd>
		<station_name>南永山</station_name>
		<lon>142.40853</lon>
		<lat>43.78055</lat>
	</station>
	<station>
		<station_cd>1111605</station_cd>
		<station_g_cd>1111605</station_g_cd>
		<station_name>東旭川</station_name>
		<lon>142.441544</lon>
		<lat>43.776571</lat>
	</station>
	<station>
		<station_cd>1111606</station_cd>
		<station_g_cd>1111606</station_g_cd>
		<station_name>北日ノ出</station_name>
		<lon>142.466127</lon>
		<lat>43.781813</lat>
	</station>
	<station>
		<station_cd>1111607</station_cd>
		<station_g_cd>1111607</station_g_cd>
		<station_name>桜岡</station_name>
		<lon>142.486968</lon>
		<lat>43.801812</lat>
	</station>
	<station>
		<station_cd>1111608</station_cd>
		<station_g_cd>1111608</station_g_cd>
		<station_name>当麻</station_name>
		<lon>142.516987</lon>
		<lat>43.825477</lat>
	</station>
	<station>
		<station_cd>1111609</station_cd>
		<station_g_cd>1111609</station_g_cd>
		<station_name>将軍山</station_name>
		<lon>142.521559</lon>
		<lat>43.857455</lat>
	</station>
	<station>
		<station_cd>1111610</station_cd>
		<station_g_cd>1111610</station_g_cd>
		<station_name>伊香牛</station_name>
		<lon>142.525227</lon>
		<lat>43.876025</lat>
	</station>
	<station>
		<station_cd>1111611</station_cd>
		<station_g_cd>1111611</station_g_cd>
		<station_name>愛別</station_name>
		<lon>142.582176</lon>
		<lat>43.898635</lat>
	</station>
	<station>
		<station_cd>1111612</station_cd>
		<station_g_cd>1111612</station_g_cd>
		<station_name>中愛別</station_name>
		<lon>142.655424</lon>
		<lat>43.896216</lat>
	</station>
	<station>
		<station_cd>1111613</station_cd>
		<station_g_cd>1111613</station_g_cd>
		<station_name>愛山</station_name>
		<lon>142.680699</lon>
		<lat>43.866442</lat>
	</station>
	<station>
		<station_cd>1111614</station_cd>
		<station_g_cd>1111614</station_g_cd>
		<station_name>安足間</station_name>
		<lon>142.693868</lon>
		<lat>43.852011</lat>
	</station>
	<station>
		<station_cd>1111615</station_cd>
		<station_g_cd>1111615</station_g_cd>
		<station_name>東雲</station_name>
		<lon>142.716544</lon>
		<lat>43.843693</lat>
	</station>
	<station>
		<station_cd>1111616</station_cd>
		<station_g_cd>1111616</station_g_cd>
		<station_name>上川</station_name>
		<lon>142.766895</lon>
		<lat>43.848508</lat>
	</station>
	<station>
		<station_cd>1111618</station_cd>
		<station_g_cd>1111618</station_g_cd>
		<station_name>白滝</station_name>
		<lon>143.180795</lon>
		<lat>43.884435</lat>
	</station>
	<station>
		<station_cd>1111621</station_cd>
		<station_g_cd>1111621</station_g_cd>
		<station_name>丸瀬布</station_name>
		<lon>143.335817</lon>
		<lat>44.006354</lat>
	</station>
	<station>
		<station_cd>1111622</station_cd>
		<station_g_cd>1111622</station_g_cd>
		<station_name>瀬戸瀬</station_name>
		<lon>143.420937</lon>
		<lat>44.008753</lat>
	</station>
	<station>
		<station_cd>1111623</station_cd>
		<station_g_cd>1111623</station_g_cd>
		<station_name>遠軽</station_name>
		<lon>143.520667</lon>
		<lat>44.060278</lat>
	</station>
	<station>
		<station_cd>1111624</station_cd>
		<station_g_cd>1111624</station_g_cd>
		<station_name>安国</station_name>
		<lon>143.535762</lon>
		<lat>43.993322</lat>
	</station>
	<station>
		<station_cd>1111625</station_cd>
		<station_g_cd>1111625</station_g_cd>
		<station_name>生野</station_name>
		<lon>143.532945</lon>
		<lat>43.959928</lat>
	</station>
	<station>
		<station_cd>1111626</station_cd>
		<station_g_cd>1111626</station_g_cd>
		<station_name>生田原</station_name>
		<lon>143.534627</lon>
		<lat>43.923674</lat>
	</station>
	<station>
		<station_cd>1111628</station_cd>
		<station_g_cd>1111628</station_g_cd>
		<station_name>西留辺蘂</station_name>
		<lon>143.603257</lon>
		<lat>43.785345</lat>
	</station>
	<station>
		<station_cd>1111629</station_cd>
		<station_g_cd>1111629</station_g_cd>
		<station_name>留辺蘂</station_name>
		<lon>143.621394</lon>
		<lat>43.785534</lat>
	</station>
	<station>
		<station_cd>1111630</station_cd>
		<station_g_cd>1111630</station_g_cd>
		<station_name>相内</station_name>
		<lon>143.756449</lon>
		<lat>43.795948</lat>
	</station>
	<station>
		<station_cd>1111631</station_cd>
		<station_g_cd>1111631</station_g_cd>
		<station_name>東相内</station_name>
		<lon>143.809499</lon>
		<lat>43.805466</lat>
	</station>
	<station>
		<station_cd>1111632</station_cd>
		<station_g_cd>1111632</station_g_cd>
		<station_name>西北見</station_name>
		<lon>143.841586</lon>
		<lat>43.803114</lat>
	</station>
	<station>
		<station_cd>1111633</station_cd>
		<station_g_cd>1111633</station_g_cd>
		<station_name>北見</station_name>
		<lon>143.898167</lon>
		<lat>43.805504</lat>
	</station>
	<station>
		<station_cd>1111634</station_cd>
		<station_g_cd>1111634</station_g_cd>
		<station_name>柏陽</station_name>
		<lon>143.916737</lon>
		<lat>43.824911</lat>
	</station>
	<station>
		<station_cd>1111635</station_cd>
		<station_g_cd>1111635</station_g_cd>
		<station_name>愛し野</station_name>
		<lon>143.932962</lon>
		<lat>43.841426</lat>
	</station>
	<station>
		<station_cd>1111636</station_cd>
		<station_g_cd>1111636</station_g_cd>
		<station_name>端野</station_name>
		<lon>143.942336</lon>
		<lat>43.851172</lat>
	</station>
	<station>
		<station_cd>1111637</station_cd>
		<station_g_cd>1111637</station_g_cd>
		<station_name>緋牛内</station_name>
		<lon>143.999887</lon>
		<lat>43.880431</lat>
	</station>
	<station>
		<station_cd>1111638</station_cd>
		<station_g_cd>1111638</station_g_cd>
		<station_name>美幌</station_name>
		<lon>144.10563</lon>
		<lat>43.836967</lat>
	</station>
	<station>
		<station_cd>1111639</station_cd>
		<station_g_cd>1111639</station_g_cd>
		<station_name>西女満別</station_name>
		<lon>144.148372</lon>
		<lat>43.880057</lat>
	</station>
	<station>
		<station_cd>1111640</station_cd>
		<station_g_cd>1111640</station_g_cd>
		<station_name>女満別</station_name>
		<lon>144.170665</lon>
		<lat>43.915886</lat>
	</station>
	<station>
		<station_cd>1111641</station_cd>
		<station_g_cd>1111641</station_g_cd>
		<station_name>呼人</station_name>
		<lon>144.218945</lon>
		<lat>43.963695</lat>
	</station>
	<station>
		<station_cd>1111642</station_cd>
		<station_g_cd>1111642</station_g_cd>
		<station_name>網走</station_name>
		<lon>144.254156</lon>
		<lat>44.019873</lat>
	</station>
</ekidata>
