{"line_cd":11218,"line_name":"フルーツライン左沢線","line_lon":140.28080951726,"line_lat":38.335650729484,"line_zoom":12,"station_l":[{"station_cd":1121801,"station_g_cd":1121618,"station_name":"山形","lon":140.327253,"lat":38.248098},{"station_cd":1121802,"station_g_cd":1121619,"station_name":"北山形","lon":140.332658,"lat":38.265902},{"station_cd":1121803,"station_g_cd":1121803,"station_name":"東金井","lon":140.302666,"lat":38.277058},{"station_cd":1121804,"station_g_cd":1121804,"station_name":"羽前山辺","lon":140.271571,"lat":38.294756},{"station_cd":1121805,"station_g_cd":1121805,"station_name":"羽前金沢","lon":140.270516,"lat":38.320837},{"station_cd":1121806,"station_g_cd":1121806,"station_name":"羽前長崎","lon":140.273018,"lat":38.332969},{"station_cd":1121807,"station_g_cd":1121807,"station_name":"南寒河江","lon":140.27767,"lat":38.356033},{"station_cd":1121808,"station_g_cd":1121808,"station_name":"寒河江","lon":140.274487,"lat":38.372548},{"station_cd":1121809,"station_g_cd":1121809,"station_name":"西寒河江","lon":140.26662,"lat":38.379627},{"station_cd":1121810,"station_g_cd":1121810,"station_name":"羽前高松","lon":140.248666,"lat":38.397494},{"station_cd":1121811,"station_g_cd":1121811,"station_name":"柴橋","lon":140.22582,"lat":38.380874},{"station_cd":1121812,"station_g_cd":1121812,"station_name":"左沢","lon":140.208132,"lat":38.382223}]}
