<?xml version="1.0" encoding="UTF-8"?>
<ekidata version="ekidata.jp line api 1.0">
	<line>
		<line_cd>11307</line_cd>
		<line_name>JR根岸線</line_name>
		<line_lon>139.59867881738</line_lon>
		<line_lat>35.414845593462</line_lat>
		<line_zoom>12</line_zoom>
	</line>
	<station>
		<station_cd>1130701</station_cd>
		<station_g_cd>1130105</station_g_cd>
		<station_name>横浜</station_name>
		<lon>139.622704</lon>
		<lat>35.466195</lat>
	</station>
	<station>
		<station_cd>1130702</station_cd>
		<station_g_cd>1130702</station_g_cd>
		<station_name>桜木町</station_name>
		<lon>139.630881</lon>
		<lat>35.451112</lat>
	</station>
	<station>
		<station_cd>1130703</station_cd>
		<station_g_cd>1130703</station_g_cd>
		<station_name>関内</station_name>
		<lon>139.636984</lon>
		<lat>35.443336</lat>
	</station>
	<station>
		<station_cd>1130704</station_cd>
		<station_g_cd>1130704</station_g_cd>
		<station_name>石川町</station_name>
		<lon>139.642934</lon>
		<lat>35.438808</lat>
	</station>
	<station>
		<station_cd>1130705</station_cd>
		<station_g_cd>1130705</station_g_cd>
		<station_name>山手</station_name>
		<lon>139.646425</lon>
		<lat>35.426891</lat>
	</station>
	<station>
		<station_cd>1130706</station_cd>
		<station_g_cd>1130706</station_g_cd>
		<station_name>根岸</station_name>
		<lon>139.636034</lon>
		<lat>35.415887</lat>
	</station>
	<station>
		<station_cd>1130707</station_cd>
		<station_g_cd>1130707</station_g_cd>
		<station_name>磯子</station_name>
		<lon>139.617916</lon>
		<lat>35.399881</lat>
	</station>
	<station>
		<station_cd>1130708</station_cd>
		<station_g_cd>1130708</station_g_cd>
		<station_name>新杉田</station_name>
		<lon>139.619483</lon>
		<lat>35.386863</lat>
	</station>
	<station>
		<station_cd>1130709</station_cd>
		<station_g_cd>1130709</station_g_cd>
		<station_name>洋光台</station_name>
		<lon>139.596852</lon>
		<lat>35.378785</lat>
	</station>
	<station>
		<station_cd>1130710</station_cd>
		<station_g_cd>1130710</station_g_cd>
		<station_name>港南台</station_name>
		<lon>139.576243</lon>
		<lat>35.375183</lat>
	</station>
	<station>
		<station_cd>1130711</station_cd>
		<station_g_cd>1130711</station_g_cd>
		<station_name>本郷台</station_name>
		<lon>139.550159</lon>
		<lat>35.36787</lat>
	</station>
	<station>
		<station_cd>1130712</station_cd>
		<station_g_cd>1130107</station_g_cd>
		<station_name>大船</station_name>
		<lon>139.531127</lon>
		<lat>35.353466</lat>
	</station>
</ekidata>
