{"line_cd":11337,"line_name":"JR信越本線","line_lon":138.88077508398,"line_lat":36.330382339568,"line_zoom":11,"station_l":[{"station_cd":1133701,"station_g_cd":1131816,"station_name":"高崎","lon":139.012354,"lat":36.322239},{"station_cd":1133702,"station_g_cd":1133702,"station_name":"北高崎","lon":139.001076,"lat":36.338791},{"station_cd":1133703,"station_g_cd":1133703,"station_name":"群馬八幡","lon":138.957433,"lat":36.337641},{"station_cd":1133704,"station_g_cd":1133704,"station_name":"安中","lon":138.914368,"lat":36.331657},{"station_cd":1133705,"station_g_cd":1133705,"station_name":"磯部","lon":138.84965,"lat":36.298397},{"station_cd":1133706,"station_g_cd":1133706,"station_name":"松井田","lon":138.797705,"lat":36.309151},{"station_cd":1133707,"station_g_cd":1133707,"station_name":"西松井田","lon":138.786675,"lat":36.316067},{"station_cd":1133708,"station_g_cd":1133708,"station_name":"横川","lon":138.737926,"lat":36.336009}]}
