<?xml version="1.0" encoding="UTF-8"?>
<ekidata version="ekidata.jp line api 1.0">
	<line>
		<line_cd>11705</line_cd>
		<line_name>JR境線</line_name>
		<line_lon>133.26253975684</line_lon>
		<line_lat>35.488057984264</line_lat>
		<line_zoom>12</line_zoom>
	</line>
	<station>
		<station_cd>1170501</station_cd>
		<station_g_cd>1161642</station_g_cd>
		<station_name>米子</station_name>
		<lon>133.33657</lon>
		<lat>35.42327</lat>
	</station>
	<station>
		<station_cd>1170502</station_cd>
		<station_g_cd>1170502</station_g_cd>
		<station_name>博労町</station_name>
		<lon>133.339619</lon>
		<lat>35.43168</lat>
	</station>
	<station>
		<station_cd>1170503</station_cd>
		<station_g_cd>1170503</station_g_cd>
		<station_name>富士見町</station_name>
		<lon>133.336627</lon>
		<lat>35.434602</lat>
	</station>
	<station>
		<station_cd>1170504</station_cd>
		<station_g_cd>1170504</station_g_cd>
		<station_name>後藤</station_name>
		<lon>133.331264</lon>
		<lat>35.440026</lat>
	</station>
	<station>
		<station_cd>1170505</station_cd>
		<station_g_cd>1170505</station_g_cd>
		<station_name>三本松口</station_name>
		<lon>133.323072</lon>
		<lat>35.446159</lat>
	</station>
	<station>
		<station_cd>1170506</station_cd>
		<station_g_cd>1170506</station_g_cd>
		<station_name>河崎口</station_name>
		<lon>133.305407</lon>
		<lat>35.45676</lat>
	</station>
	<station>
		<station_cd>1170507</station_cd>
		<station_g_cd>1170507</station_g_cd>
		<station_name>弓ケ浜</station_name>
		<lon>133.288527</lon>
		<lat>35.466757</lat>
	</station>
	<station>
		<station_cd>1170508</station_cd>
		<station_g_cd>1170508</station_g_cd>
		<station_name>和田浜</station_name>
		<lon>133.265496</lon>
		<lat>35.480541</lat>
	</station>
	<station>
		<station_cd>1170509</station_cd>
		<station_g_cd>1170509</station_g_cd>
		<station_name>大篠津町</station_name>
		<lon>133.255891</lon>
		<lat>35.4889</lat>
	</station>
	<station>
		<station_cd>1170510</station_cd>
		<station_g_cd>1170510</station_g_cd>
		<station_name>米子空港</station_name>
		<lon>133.247372</lon>
		<lat>35.502321</lat>
	</station>
	<station>
		<station_cd>1170511</station_cd>
		<station_g_cd>1170511</station_g_cd>
		<station_name>中浜</station_name>
		<lon>133.24518</lon>
		<lat>35.506165</lat>
	</station>
	<station>
		<station_cd>1170512</station_cd>
		<station_g_cd>1170512</station_g_cd>
		<station_name>高松町</station_name>
		<lon>133.23985</lon>
		<lat>35.515408</lat>
	</station>
	<station>
		<station_cd>1170513</station_cd>
		<station_g_cd>1170513</station_g_cd>
		<station_name>余子</station_name>
		<lon>133.236464</lon>
		<lat>35.521216</lat>
	</station>
	<station>
		<station_cd>1170514</station_cd>
		<station_g_cd>1170514</station_g_cd>
		<station_name>上道</station_name>
		<lon>133.230748</lon>
		<lat>35.531148</lat>
	</station>
	<station>
		<station_cd>1170515</station_cd>
		<station_g_cd>1170515</station_g_cd>
		<station_name>馬場崎町</station_name>
		<lon>133.2265</lon>
		<lat>35.538461</lat>
	</station>
	<station>
		<station_cd>1170516</station_cd>
		<station_g_cd>1170516</station_g_cd>
		<station_name>境港</station_name>
		<lon>133.222762</lon>
		<lat>35.545002</lat>
	</station>
</ekidata>
