<?xml version="1.0" encoding="UTF-8"?>
<ekidata version="ekidata.jp line api 1.0">
	<line>
		<line_cd>11905</line_cd>
		<line_name>JR長崎本線(鳥栖～長崎)</line_name>
		<line_lon>130.15215055841</line_lon>
		<line_lat>33.121360170575</line_lat>
		<line_zoom>10</line_zoom>
	</line>
	<station>
		<station_cd>1190501</station_cd>
		<station_g_cd>1190316</station_g_cd>
		<station_name>鳥栖</station_name>
		<lon>130.519374</lon>
		<lat>33.373864</lat>
	</station>
	<station>
		<station_cd>1190542</station_cd>
		<station_g_cd>1190542</station_g_cd>
		<station_name>新鳥栖</station_name>
		<lon>130.491111</lon>
		<lat>33.370278</lat>
	</station>
	<station>
		<station_cd>1190502</station_cd>
		<station_g_cd>1190502</station_g_cd>
		<station_name>肥前麓</station_name>
		<lon>130.477499</lon>
		<lat>33.36578</lat>
	</station>
	<station>
		<station_cd>1190503</station_cd>
		<station_g_cd>1190503</station_g_cd>
		<station_name>中原</station_name>
		<lon>130.440046</lon>
		<lat>33.346241</lat>
	</station>
	<station>
		<station_cd>1190504</station_cd>
		<station_g_cd>1190504</station_g_cd>
		<station_name>吉野ケ里公園</station_name>
		<lon>130.399553</lon>
		<lat>33.324917</lat>
	</station>
	<station>
		<station_cd>1190505</station_cd>
		<station_g_cd>1190505</station_g_cd>
		<station_name>神埼</station_name>
		<lon>130.374446</lon>
		<lat>33.315851</lat>
	</station>
	<station>
		<station_cd>1190506</station_cd>
		<station_g_cd>1190506</station_g_cd>
		<station_name>伊賀屋</station_name>
		<lon>130.336753</lon>
		<lat>33.290195</lat>
	</station>
	<station>
		<station_cd>1190507</station_cd>
		<station_g_cd>1190507</station_g_cd>
		<station_name>佐賀</station_name>
		<lon>130.297608</lon>
		<lat>33.264212</lat>
	</station>
	<station>
		<station_cd>1190508</station_cd>
		<station_g_cd>1190508</station_g_cd>
		<station_name>鍋島</station_name>
		<lon>130.265702</lon>
		<lat>33.259062</lat>
	</station>
	<station>
		<station_cd>1190509</station_cd>
		<station_g_cd>1190509</station_g_cd>
		<station_name>バルーンさが</station_name>
		<lon>130.248942</lon>
		<lat>33.257795</lat>
	</station>
	<station>
		<station_cd>1190510</station_cd>
		<station_g_cd>1190510</station_g_cd>
		<station_name>久保田</station_name>
		<lon>130.229594</lon>
		<lat>33.255717</lat>
	</station>
	<station>
		<station_cd>1190511</station_cd>
		<station_g_cd>1190511</station_g_cd>
		<station_name>牛津</station_name>
		<lon>130.201016</lon>
		<lat>33.247859</lat>
	</station>
	<station>
		<station_cd>1190512</station_cd>
		<station_g_cd>1190512</station_g_cd>
		<station_name>肥前山口</station_name>
		<lon>130.160858</lon>
		<lat>33.21919</lat>
	</station>
	<station>
		<station_cd>1190513</station_cd>
		<station_g_cd>1190513</station_g_cd>
		<station_name>肥前白石</station_name>
		<lon>130.135952</lon>
		<lat>33.186679</lat>
	</station>
	<station>
		<station_cd>1190514</station_cd>
		<station_g_cd>1190514</station_g_cd>
		<station_name>肥前竜王</station_name>
		<lon>130.12042</lon>
		<lat>33.146663</lat>
	</station>
	<station>
		<station_cd>1190515</station_cd>
		<station_g_cd>1190515</station_g_cd>
		<station_name>肥前鹿島</station_name>
		<lon>130.097805</lon>
		<lat>33.114445</lat>
	</station>
	<station>
		<station_cd>1190516</station_cd>
		<station_g_cd>1190516</station_g_cd>
		<station_name>肥前浜</station_name>
		<lon>130.117079</lon>
		<lat>33.095103</lat>
	</station>
	<station>
		<station_cd>1190517</station_cd>
		<station_g_cd>1190517</station_g_cd>
		<station_name>肥前七浦</station_name>
		<lon>130.145245</lon>
		<lat>33.070931</lat>
	</station>
	<station>
		<station_cd>1190518</station_cd>
		<station_g_cd>1190518</station_g_cd>
		<station_name>肥前飯田</station_name>
		<lon>130.158754</lon>
		<lat>33.055701</lat>
	</station>
	<station>
		<station_cd>1190519</station_cd>
		<station_g_cd>1190519</station_g_cd>
		<station_name>多良</station_name>
		<lon>130.176049</lon>
		<lat>33.02524</lat>
	</station>
	<station>
		<station_cd>1190520</station_cd>
		<station_g_cd>1190520</station_g_cd>
		<station_name>肥前大浦</station_name>
		<lon>130.207159</lon>
		<lat>32.975043</lat>
	</station>
	<station>
		<station_cd>1190521</station_cd>
		<station_g_cd>1190521</station_g_cd>
		<station_name>小長井</station_name>
		<lon>130.186386</lon>
		<lat>32.924075</lat>
	</station>
	<station>
		<station_cd>1190522</station_cd>
		<station_g_cd>1190522</station_g_cd>
		<station_name>長里</station_name>
		<lon>130.165484</lon>
		<lat>32.91526</lat>
	</station>
	<station>
		<station_cd>1190523</station_cd>
		<station_g_cd>1190523</station_g_cd>
		<station_name>湯江</station_name>
		<lon>130.140614</lon>
		<lat>32.904811</lat>
	</station>
	<station>
		<station_cd>1190524</station_cd>
		<station_g_cd>1190524</station_g_cd>
		<station_name>小江</station_name>
		<lon>130.112282</lon>
		<lat>32.891351</lat>
	</station>
	<station>
		<station_cd>1190525</station_cd>
		<station_g_cd>1190525</station_g_cd>
		<station_name>肥前長田</station_name>
		<lon>130.079971</lon>
		<lat>32.861773</lat>
	</station>
	<station>
		<station_cd>1190526</station_cd>
		<station_g_cd>1190526</station_g_cd>
		<station_name>東諫早</station_name>
		<lon>130.061675</lon>
		<lat>32.852823</lat>
	</station>
	<station>
		<station_cd>1190527</station_cd>
		<station_g_cd>1190527</station_g_cd>
		<station_name>諫早</station_name>
		<lon>130.041596</lon>
		<lat>32.851018</lat>
	</station>
	<station>
		<station_cd>1190528</station_cd>
		<station_g_cd>1190528</station_g_cd>
		<station_name>西諫早</station_name>
		<lon>130.021269</lon>
		<lat>32.839632</lat>
	</station>
	<station>
		<station_cd>1190529</station_cd>
		<station_g_cd>1190529</station_g_cd>
		<station_name>喜々津</station_name>
		<lon>129.98627</lon>
		<lat>32.832743</lat>
	</station>
	<station>
		<station_cd>1190530</station_cd>
		<station_g_cd>1190530</station_g_cd>
		<station_name>市布</station_name>
		<lon>129.965831</lon>
		<lat>32.818986</lat>
	</station>
	<station>
		<station_cd>1190531</station_cd>
		<station_g_cd>1190531</station_g_cd>
		<station_name>肥前古賀</station_name>
		<lon>129.951571</lon>
		<lat>32.798463</lat>
	</station>
	<station>
		<station_cd>1190532</station_cd>
		<station_g_cd>1190532</station_g_cd>
		<station_name>現川</station_name>
		<lon>129.926453</lon>
		<lat>32.79118</lat>
	</station>
	<station>
		<station_cd>1190533</station_cd>
		<station_g_cd>1190533</station_g_cd>
		<station_name>東園</station_name>
		<lon>129.962591</lon>
		<lat>32.847091</lat>
	</station>
	<station>
		<station_cd>1190534</station_cd>
		<station_g_cd>1190534</station_g_cd>
		<station_name>大草</station_name>
		<lon>129.938972</lon>
		<lat>32.860232</lat>
	</station>
	<station>
		<station_cd>1190535</station_cd>
		<station_g_cd>1190535</station_g_cd>
		<station_name>本川内</station_name>
		<lon>129.899916</lon>
		<lat>32.831792</lat>
	</station>
	<station>
		<station_cd>1190536</station_cd>
		<station_g_cd>1190536</station_g_cd>
		<station_name>長与</station_name>
		<lon>129.879434</lon>
		<lat>32.818981</lat>
	</station>
	<station>
		<station_cd>1190537</station_cd>
		<station_g_cd>1190537</station_g_cd>
		<station_name>高田</station_name>
		<lon>129.869457</lon>
		<lat>32.819475</lat>
	</station>
	<station>
		<station_cd>1190538</station_cd>
		<station_g_cd>1190538</station_g_cd>
		<station_name>道ノ尾</station_name>
		<lon>129.852997</lon>
		<lat>32.804329</lat>
	</station>
	<station>
		<station_cd>1190539</station_cd>
		<station_g_cd>1190539</station_g_cd>
		<station_name>西浦上</station_name>
		<lon>129.859206</lon>
		<lat>32.790245</lat>
	</station>
	<station>
		<station_cd>1190540</station_cd>
		<station_g_cd>1190540</station_g_cd>
		<station_name>浦上</station_name>
		<lon>129.863304</lon>
		<lat>32.765767</lat>
	</station>
	<station>
		<station_cd>1190541</station_cd>
		<station_g_cd>1190541</station_g_cd>
		<station_name>長崎</station_name>
		<lon>129.870515</lon>
		<lat>32.753085</lat>
	</station>
</ekidata>
