<?xml version="1.0" encoding="UTF-8"?>
<ekidata version="ekidata.jp line api 1.0">
	<line>
		<line_cd>21003</line_cd>
		<line_name>東武日光線</line_name>
		<line_lon>139.69116016166</line_lon>
		<line_lat>36.445797404992</line_lat>
		<line_zoom>9</line_zoom>
	</line>
	<station>
		<station_cd>2100301</station_cd>
		<station_g_cd>2100230</station_g_cd>
		<station_name>東武動物公園</station_name>
		<lon>139.726901</lon>
		<lat>36.024604</lat>
	</station>
	<station>
		<station_cd>2100302</station_cd>
		<station_g_cd>2100302</station_g_cd>
		<station_name>杉戸高野台</station_name>
		<lon>139.714582</lon>
		<lat>36.051536</lat>
	</station>
	<station>
		<station_cd>2100303</station_cd>
		<station_g_cd>2100303</station_g_cd>
		<station_name>幸手</station_name>
		<lon>139.714937</lon>
		<lat>36.074297</lat>
	</station>
	<station>
		<station_cd>2100304</station_cd>
		<station_g_cd>2100304</station_g_cd>
		<station_name>南栗橋</station_name>
		<lon>139.713004</lon>
		<lat>36.113157</lat>
	</station>
	<station>
		<station_cd>2100305</station_cd>
		<station_g_cd>1131914</station_g_cd>
		<station_name>栗橋</station_name>
		<lon>139.693855</lon>
		<lat>36.137034</lat>
	</station>
	<station>
		<station_cd>2100306</station_cd>
		<station_g_cd>2100306</station_g_cd>
		<station_name>新古河</station_name>
		<lon>139.686904</lon>
		<lat>36.192686</lat>
	</station>
	<station>
		<station_cd>2100307</station_cd>
		<station_g_cd>2100307</station_g_cd>
		<station_name>柳生</station_name>
		<lon>139.659645</lon>
		<lat>36.206756</lat>
	</station>
	<station>
		<station_cd>2100308</station_cd>
		<station_g_cd>2100308</station_g_cd>
		<station_name>板倉東洋大前</station_name>
		<lon>139.648493</lon>
		<lat>36.222404</lat>
	</station>
	<station>
		<station_cd>2100309</station_cd>
		<station_g_cd>2100309</station_g_cd>
		<station_name>藤岡</station_name>
		<lon>139.64555</lon>
		<lat>36.255628</lat>
	</station>
	<station>
		<station_cd>2100310</station_cd>
		<station_g_cd>2100310</station_g_cd>
		<station_name>静和</station_name>
		<lon>139.684864</lon>
		<lat>36.31651</lat>
	</station>
	<station>
		<station_cd>2100311</station_cd>
		<station_g_cd>2100311</station_g_cd>
		<station_name>新大平下</station_name>
		<lon>139.701886</lon>
		<lat>36.339024</lat>
	</station>
	<station>
		<station_cd>2100312</station_cd>
		<station_g_cd>1134119</station_g_cd>
		<station_name>栃木</station_name>
		<lon>139.731037</lon>
		<lat>36.371912</lat>
	</station>
	<station>
		<station_cd>2100313</station_cd>
		<station_g_cd>2100313</station_g_cd>
		<station_name>新栃木</station_name>
		<lon>139.742308</lon>
		<lat>36.390149</lat>
	</station>
	<station>
		<station_cd>2100314</station_cd>
		<station_g_cd>2100314</station_g_cd>
		<station_name>合戦場</station_name>
		<lon>139.741057</lon>
		<lat>36.407647</lat>
	</station>
	<station>
		<station_cd>2100315</station_cd>
		<station_g_cd>2100315</station_g_cd>
		<station_name>家中</station_name>
		<lon>139.747344</lon>
		<lat>36.429783</lat>
	</station>
	<station>
		<station_cd>2100316</station_cd>
		<station_g_cd>2100316</station_g_cd>
		<station_name>東武金崎</station_name>
		<lon>139.749468</lon>
		<lat>36.466288</lat>
	</station>
	<station>
		<station_cd>2100317</station_cd>
		<station_g_cd>2100317</station_g_cd>
		<station_name>楡木</station_name>
		<lon>139.745164</lon>
		<lat>36.507497</lat>
	</station>
	<station>
		<station_cd>2100318</station_cd>
		<station_g_cd>2100318</station_g_cd>
		<station_name>樅山</station_name>
		<lon>139.741875</lon>
		<lat>36.532667</lat>
	</station>
	<station>
		<station_cd>2100319</station_cd>
		<station_g_cd>2100319</station_g_cd>
		<station_name>新鹿沼</station_name>
		<lon>139.74478</lon>
		<lat>36.556998</lat>
	</station>
	<station>
		<station_cd>2100320</station_cd>
		<station_g_cd>2100320</station_g_cd>
		<station_name>北鹿沼</station_name>
		<lon>139.737646</lon>
		<lat>36.580811</lat>
	</station>
	<station>
		<station_cd>2100321</station_cd>
		<station_g_cd>2100321</station_g_cd>
		<station_name>板荷</station_name>
		<lon>139.707739</lon>
		<lat>36.619476</lat>
	</station>
	<station>
		<station_cd>2100322</station_cd>
		<station_g_cd>2100322</station_g_cd>
		<station_name>下小代</station_name>
		<lon>139.713849</lon>
		<lat>36.651303</lat>
	</station>
	<station>
		<station_cd>2100323</station_cd>
		<station_g_cd>2100323</station_g_cd>
		<station_name>明神</station_name>
		<lon>139.712301</lon>
		<lat>36.676566</lat>
	</station>
	<station>
		<station_cd>2100324</station_cd>
		<station_g_cd>2100324</station_g_cd>
		<station_name>下今市</station_name>
		<lon>139.692666</lon>
		<lat>36.72563</lat>
	</station>
	<station>
		<station_cd>2100325</station_cd>
		<station_g_cd>2100325</station_g_cd>
		<station_name>上今市</station_name>
		<lon>139.681026</lon>
		<lat>36.727962</lat>
	</station>
	<station>
		<station_cd>2100326</station_cd>
		<station_g_cd>1134007</station_g_cd>
		<station_name>東武日光</station_name>
		<lon>139.61975</lon>
		<lat>36.748233</lat>
	</station>
</ekidata>
