<?xml version="1.0" encoding="UTF-8"?>
<ekidata version="ekidata.jp line api 1.0">
	<line>
		<line_cd>22001</line_cd>
		<line_name>西武池袋線</line_name>
		<line_lon>139.46789285918</line_lon>
		<line_lat>35.791261736069</line_lat>
		<line_zoom>10</line_zoom>
	</line>
	<station>
		<station_cd>2200101</station_cd>
		<station_g_cd>1130212</station_g_cd>
		<station_name>池袋</station_name>
		<lon>139.711461</lon>
		<lat>35.72913</lat>
	</station>
	<station>
		<station_cd>2200102</station_cd>
		<station_g_cd>2200102</station_g_cd>
		<station_name>椎名町</station_name>
		<lon>139.694363</lon>
		<lat>35.726572</lat>
	</station>
	<station>
		<station_cd>2200103</station_cd>
		<station_g_cd>2200103</station_g_cd>
		<station_name>東長崎</station_name>
		<lon>139.683294</lon>
		<lat>35.73003</lat>
	</station>
	<station>
		<station_cd>2200104</station_cd>
		<station_g_cd>2200104</station_g_cd>
		<station_name>江古田</station_name>
		<lon>139.672814</lon>
		<lat>35.737557</lat>
	</station>
	<station>
		<station_cd>2200105</station_cd>
		<station_g_cd>2200105</station_g_cd>
		<station_name>桜台</station_name>
		<lon>139.662602</lon>
		<lat>35.738797</lat>
	</station>
	<station>
		<station_cd>2200106</station_cd>
		<station_g_cd>2200106</station_g_cd>
		<station_name>練馬</station_name>
		<lon>139.654368</lon>
		<lat>35.737893</lat>
	</station>
	<station>
		<station_cd>2200107</station_cd>
		<station_g_cd>2200107</station_g_cd>
		<station_name>中村橋</station_name>
		<lon>139.637456</lon>
		<lat>35.736767</lat>
	</station>
	<station>
		<station_cd>2200108</station_cd>
		<station_g_cd>2200108</station_g_cd>
		<station_name>富士見台</station_name>
		<lon>139.62969</lon>
		<lat>35.735867</lat>
	</station>
	<station>
		<station_cd>2200109</station_cd>
		<station_g_cd>2200109</station_g_cd>
		<station_name>練馬高野台</station_name>
		<lon>139.616749</lon>
		<lat>35.740622</lat>
	</station>
	<station>
		<station_cd>2200110</station_cd>
		<station_g_cd>2200110</station_g_cd>
		<station_name>石神井公園</station_name>
		<lon>139.606981</lon>
		<lat>35.743563</lat>
	</station>
	<station>
		<station_cd>2200111</station_cd>
		<station_g_cd>2200111</station_g_cd>
		<station_name>大泉学園</station_name>
		<lon>139.586732</lon>
		<lat>35.749406</lat>
	</station>
	<station>
		<station_cd>2200112</station_cd>
		<station_g_cd>2200112</station_g_cd>
		<station_name>保谷</station_name>
		<lon>139.567753</lon>
		<lat>35.748222</lat>
	</station>
	<station>
		<station_cd>2200113</station_cd>
		<station_g_cd>2200113</station_g_cd>
		<station_name>ひばりヶ丘</station_name>
		<lon>139.545852</lon>
		<lat>35.751485</lat>
	</station>
	<station>
		<station_cd>2200114</station_cd>
		<station_g_cd>2200114</station_g_cd>
		<station_name>東久留米</station_name>
		<lon>139.533739</lon>
		<lat>35.760445</lat>
	</station>
	<station>
		<station_cd>2200115</station_cd>
		<station_g_cd>2200115</station_g_cd>
		<station_name>清瀬</station_name>
		<lon>139.519917</lon>
		<lat>35.772221</lat>
	</station>
	<station>
		<station_cd>2200116</station_cd>
		<station_g_cd>2200116</station_g_cd>
		<station_name>秋津</station_name>
		<lon>139.496539</lon>
		<lat>35.778614</lat>
	</station>
	<station>
		<station_cd>2200131</station_cd>
		<station_g_cd>2200131</station_g_cd>
		<station_name>所沢</station_name>
		<lon>139.473324</lon>
		<lat>35.786627</lat>
	</station>
	<station>
		<station_cd>2200117</station_cd>
		<station_g_cd>2200117</station_g_cd>
		<station_name>西所沢</station_name>
		<lon>139.455959</lon>
		<lat>35.789303</lat>
	</station>
	<station>
		<station_cd>2200118</station_cd>
		<station_g_cd>2200118</station_g_cd>
		<station_name>小手指</station_name>
		<lon>139.438016</lon>
		<lat>35.800535</lat>
	</station>
	<station>
		<station_cd>2200119</station_cd>
		<station_g_cd>2200119</station_g_cd>
		<station_name>狭山ヶ丘</station_name>
		<lon>139.416975</lon>
		<lat>35.810445</lat>
	</station>
	<station>
		<station_cd>2200120</station_cd>
		<station_g_cd>2200120</station_g_cd>
		<station_name>武蔵藤沢</station_name>
		<lon>139.412736</lon>
		<lat>35.820963</lat>
	</station>
	<station>
		<station_cd>2200121</station_cd>
		<station_g_cd>2200121</station_g_cd>
		<station_name>稲荷山公園</station_name>
		<lon>139.39842</lon>
		<lat>35.845112</lat>
	</station>
	<station>
		<station_cd>2200122</station_cd>
		<station_g_cd>2200122</station_g_cd>
		<station_name>入間市</station_name>
		<lon>139.390294</lon>
		<lat>35.842904</lat>
	</station>
	<station>
		<station_cd>2200123</station_cd>
		<station_g_cd>2200123</station_g_cd>
		<station_name>仏子</station_name>
		<lon>139.360115</lon>
		<lat>35.83769</lat>
	</station>
	<station>
		<station_cd>2200124</station_cd>
		<station_g_cd>2200124</station_g_cd>
		<station_name>元加治</station_name>
		<lon>139.345316</lon>
		<lat>35.84058</lat>
	</station>
	<station>
		<station_cd>2200125</station_cd>
		<station_g_cd>2200125</station_g_cd>
		<station_name>飯能</station_name>
		<lon>139.318824</lon>
		<lat>35.851189</lat>
	</station>
	<station>
		<station_cd>2200126</station_cd>
		<station_g_cd>1131708</station_g_cd>
		<station_name>東飯能</station_name>
		<lon>139.325965</lon>
		<lat>35.852928</lat>
	</station>
	<station>
		<station_cd>2200127</station_cd>
		<station_g_cd>2200127</station_g_cd>
		<station_name>高麗</station_name>
		<lon>139.304414</lon>
		<lat>35.881982</lat>
	</station>
	<station>
		<station_cd>2200128</station_cd>
		<station_g_cd>2200128</station_g_cd>
		<station_name>武蔵横手</station_name>
		<lon>139.280667</lon>
		<lat>35.885256</lat>
	</station>
	<station>
		<station_cd>2200129</station_cd>
		<station_g_cd>2200129</station_g_cd>
		<station_name>東吾野</station_name>
		<lon>139.260281</lon>
		<lat>35.892439</lat>
	</station>
	<station>
		<station_cd>2200130</station_cd>
		<station_g_cd>2200130</station_g_cd>
		<station_name>吾野</station_name>
		<lon>139.226787</lon>
		<lat>35.908502</lat>
	</station>
</ekidata>
