<?xml version="1.0" encoding="UTF-8"?>
<ekidata version="ekidata.jp line api 1.0">
	<line>
		<line_cd>24006</line_cd>
		<line_name>京王井の頭線</line_name>
		<line_lon>139.63498783283</line_lon>
		<line_lat>35.676684994126</line_lat>
		<line_zoom>12</line_zoom>
	</line>
	<station>
		<station_cd>2400601</station_cd>
		<station_g_cd>1130205</station_g_cd>
		<station_name>渋谷</station_name>
		<lon>139.700872</lon>
		<lat>35.6587</lat>
	</station>
	<station>
		<station_cd>2400602</station_cd>
		<station_g_cd>2400602</station_g_cd>
		<station_name>神泉</station_name>
		<lon>139.693579</lon>
		<lat>35.657244</lat>
	</station>
	<station>
		<station_cd>2400603</station_cd>
		<station_g_cd>2400603</station_g_cd>
		<station_name>駒場東大前</station_name>
		<lon>139.684308</lon>
		<lat>35.65868</lat>
	</station>
	<station>
		<station_cd>2400604</station_cd>
		<station_g_cd>2400604</station_g_cd>
		<station_name>池ノ上</station_name>
		<lon>139.67344</lon>
		<lat>35.660402</lat>
	</station>
	<station>
		<station_cd>2400605</station_cd>
		<station_g_cd>2400605</station_g_cd>
		<station_name>下北沢</station_name>
		<lon>139.66691</lon>
		<lat>35.661539</lat>
	</station>
	<station>
		<station_cd>2400606</station_cd>
		<station_g_cd>2400606</station_g_cd>
		<station_name>新代田</station_name>
		<lon>139.660524</lon>
		<lat>35.662593</lat>
	</station>
	<station>
		<station_cd>2400607</station_cd>
		<station_g_cd>2400607</station_g_cd>
		<station_name>東松原</station_name>
		<lon>139.655535</lon>
		<lat>35.662634</lat>
	</station>
	<station>
		<station_cd>2400608</station_cd>
		<station_g_cd>2400106</station_g_cd>
		<station_name>明大前</station_name>
		<lon>139.650352</lon>
		<lat>35.668758</lat>
	</station>
	<station>
		<station_cd>2400609</station_cd>
		<station_g_cd>2400609</station_g_cd>
		<station_name>永福町</station_name>
		<lon>139.642733</lon>
		<lat>35.67629</lat>
	</station>
	<station>
		<station_cd>2400610</station_cd>
		<station_g_cd>2400610</station_g_cd>
		<station_name>西永福</station_name>
		<lon>139.634936</lon>
		<lat>35.678918</lat>
	</station>
	<station>
		<station_cd>2400611</station_cd>
		<station_g_cd>2400611</station_g_cd>
		<station_name>浜田山</station_name>
		<lon>139.627528</lon>
		<lat>35.681603</lat>
	</station>
	<station>
		<station_cd>2400612</station_cd>
		<station_g_cd>2400612</station_g_cd>
		<station_name>高井戸</station_name>
		<lon>139.615115</lon>
		<lat>35.683253</lat>
	</station>
	<station>
		<station_cd>2400613</station_cd>
		<station_g_cd>2400613</station_g_cd>
		<station_name>富士見ヶ丘</station_name>
		<lon>139.607072</lon>
		<lat>35.684805</lat>
	</station>
	<station>
		<station_cd>2400614</station_cd>
		<station_g_cd>2400614</station_g_cd>
		<station_name>久我山</station_name>
		<lon>139.599211</lon>
		<lat>35.688138</lat>
	</station>
	<station>
		<station_cd>2400615</station_cd>
		<station_g_cd>2400615</station_g_cd>
		<station_name>三鷹台</station_name>
		<lon>139.589298</lon>
		<lat>35.692046</lat>
	</station>
	<station>
		<station_cd>2400616</station_cd>
		<station_g_cd>2400616</station_g_cd>
		<station_name>井の頭公園</station_name>
		<lon>139.583112</lon>
		<lat>35.697304</lat>
	</station>
	<station>
		<station_cd>2400617</station_cd>
		<station_g_cd>1131104</station_g_cd>
		<station_name>吉祥寺</station_name>
		<lon>139.580306</lon>
		<lat>35.702291</lat>
	</station>
</ekidata>
