<?xml version="1.0" encoding="UTF-8"?>
<ekidata version="ekidata.jp line api 1.0">
	<line>
		<line_cd>25001</line_cd>
		<line_name>小田急線</line_name>
		<line_lon>139.43477539316</line_lon>
		<line_lat>35.528535238628</line_lat>
		<line_zoom>11</line_zoom>
	</line>
	<station>
		<station_cd>2500101</station_cd>
		<station_g_cd>1130208</station_g_cd>
		<station_name>新宿</station_name>
		<lon>139.699574</lon>
		<lat>35.691435</lat>
	</station>
	<station>
		<station_cd>2500102</station_cd>
		<station_g_cd>2500102</station_g_cd>
		<station_name>南新宿</station_name>
		<lon>139.69867</lon>
		<lat>35.683483</lat>
	</station>
	<station>
		<station_cd>2500103</station_cd>
		<station_g_cd>2500103</station_g_cd>
		<station_name>参宮橋</station_name>
		<lon>139.693568</lon>
		<lat>35.678586</lat>
	</station>
	<station>
		<station_cd>2500104</station_cd>
		<station_g_cd>2500104</station_g_cd>
		<station_name>代々木八幡</station_name>
		<lon>139.688913</lon>
		<lat>35.669715</lat>
	</station>
	<station>
		<station_cd>2500105</station_cd>
		<station_g_cd>2500105</station_g_cd>
		<station_name>代々木上原</station_name>
		<lon>139.680153</lon>
		<lat>35.669159</lat>
	</station>
	<station>
		<station_cd>2500106</station_cd>
		<station_g_cd>2500106</station_g_cd>
		<station_name>東北沢</station_name>
		<lon>139.673014</lon>
		<lat>35.665379</lat>
	</station>
	<station>
		<station_cd>2500107</station_cd>
		<station_g_cd>2400605</station_g_cd>
		<station_name>下北沢</station_name>
		<lon>139.667516</lon>
		<lat>35.661655</lat>
	</station>
	<station>
		<station_cd>2500108</station_cd>
		<station_g_cd>2500108</station_g_cd>
		<station_name>世田谷代田</station_name>
		<lon>139.661557</lon>
		<lat>35.65834</lat>
	</station>
	<station>
		<station_cd>2500109</station_cd>
		<station_g_cd>2500109</station_g_cd>
		<station_name>梅ヶ丘</station_name>
		<lon>139.653628</lon>
		<lat>35.656024</lat>
	</station>
	<station>
		<station_cd>2500110</station_cd>
		<station_g_cd>2500110</station_g_cd>
		<station_name>豪徳寺</station_name>
		<lon>139.647381</lon>
		<lat>35.653807</lat>
	</station>
	<station>
		<station_cd>2500111</station_cd>
		<station_g_cd>2500111</station_g_cd>
		<station_name>経堂</station_name>
		<lon>139.635993</lon>
		<lat>35.650991</lat>
	</station>
	<station>
		<station_cd>2500112</station_cd>
		<station_g_cd>2500112</station_g_cd>
		<station_name>千歳船橋</station_name>
		<lon>139.624544</lon>
		<lat>35.647616</lat>
	</station>
	<station>
		<station_cd>2500113</station_cd>
		<station_g_cd>2500113</station_g_cd>
		<station_name>祖師ヶ谷大蔵</station_name>
		<lon>139.609659</lon>
		<lat>35.643236</lat>
	</station>
	<station>
		<station_cd>2500114</station_cd>
		<station_g_cd>2500114</station_g_cd>
		<station_name>成城学園前</station_name>
		<lon>139.598958</lon>
		<lat>35.640114</lat>
	</station>
	<station>
		<station_cd>2500115</station_cd>
		<station_g_cd>2500115</station_g_cd>
		<station_name>喜多見</station_name>
		<lon>139.587445</lon>
		<lat>35.636697</lat>
	</station>
	<station>
		<station_cd>2500116</station_cd>
		<station_g_cd>2500116</station_g_cd>
		<station_name>狛江</station_name>
		<lon>139.577127</lon>
		<lat>35.632001</lat>
	</station>
	<station>
		<station_cd>2500117</station_cd>
		<station_g_cd>2500117</station_g_cd>
		<station_name>和泉多摩川</station_name>
		<lon>139.573695</lon>
		<lat>35.627349</lat>
	</station>
	<station>
		<station_cd>2500118</station_cd>
		<station_g_cd>1130314</station_g_cd>
		<station_name>登戸</station_name>
		<lon>139.569449</lon>
		<lat>35.62115</lat>
	</station>
	<station>
		<station_cd>2500119</station_cd>
		<station_g_cd>2500119</station_g_cd>
		<station_name>向ヶ丘遊園</station_name>
		<lon>139.564719</lon>
		<lat>35.617273</lat>
	</station>
	<station>
		<station_cd>2500120</station_cd>
		<station_g_cd>2500120</station_g_cd>
		<station_name>生田</station_name>
		<lon>139.542024</lon>
		<lat>35.614954</lat>
	</station>
	<station>
		<station_cd>2500121</station_cd>
		<station_g_cd>2500121</station_g_cd>
		<station_name>読売ランド前</station_name>
		<lon>139.527903</lon>
		<lat>35.614723</lat>
	</station>
	<station>
		<station_cd>2500122</station_cd>
		<station_g_cd>2500122</station_g_cd>
		<station_name>百合ヶ丘</station_name>
		<lon>139.516121</lon>
		<lat>35.60903</lat>
	</station>
	<station>
		<station_cd>2500123</station_cd>
		<station_g_cd>2500123</station_g_cd>
		<station_name>新百合ヶ丘</station_name>
		<lon>139.507608</lon>
		<lat>35.603705</lat>
	</station>
	<station>
		<station_cd>2500124</station_cd>
		<station_g_cd>2500124</station_g_cd>
		<station_name>柿生</station_name>
		<lon>139.497614</lon>
		<lat>35.589597</lat>
	</station>
	<station>
		<station_cd>2500125</station_cd>
		<station_g_cd>2500125</station_g_cd>
		<station_name>鶴川</station_name>
		<lon>139.481759</lon>
		<lat>35.583077</lat>
	</station>
	<station>
		<station_cd>2500126</station_cd>
		<station_g_cd>2500126</station_g_cd>
		<station_name>玉川学園前</station_name>
		<lon>139.463388</lon>
		<lat>35.563486</lat>
	</station>
	<station>
		<station_cd>2500127</station_cd>
		<station_g_cd>1130611</station_g_cd>
		<station_name>町田</station_name>
		<lon>139.445236</lon>
		<lat>35.544222</lat>
	</station>
	<station>
		<station_cd>2500128</station_cd>
		<station_g_cd>2500128</station_g_cd>
		<station_name>相模大野</station_name>
		<lon>139.437836</lon>
		<lat>35.532208</lat>
	</station>
	<station>
		<station_cd>2500129</station_cd>
		<station_g_cd>2500129</station_g_cd>
		<station_name>小田急相模原</station_name>
		<lon>139.422571</lon>
		<lat>35.515134</lat>
	</station>
	<station>
		<station_cd>2500130</station_cd>
		<station_g_cd>2500130</station_g_cd>
		<station_name>相武台前</station_name>
		<lon>139.408509</lon>
		<lat>35.499294</lat>
	</station>
	<station>
		<station_cd>2500131</station_cd>
		<station_g_cd>2500131</station_g_cd>
		<station_name>座間</station_name>
		<lon>139.399899</lon>
		<lat>35.480913</lat>
	</station>
	<station>
		<station_cd>2500132</station_cd>
		<station_g_cd>1130910</station_g_cd>
		<station_name>海老名</station_name>
		<lon>139.390905</lon>
		<lat>35.452709</lat>
	</station>
	<station>
		<station_cd>2500133</station_cd>
		<station_g_cd>1130909</station_g_cd>
		<station_name>厚木</station_name>
		<lon>139.377896</lon>
		<lat>35.443081</lat>
	</station>
	<station>
		<station_cd>2500134</station_cd>
		<station_g_cd>2500134</station_g_cd>
		<station_name>本厚木</station_name>
		<lon>139.364261</lon>
		<lat>35.439338</lat>
	</station>
	<station>
		<station_cd>2500135</station_cd>
		<station_g_cd>2500135</station_g_cd>
		<station_name>愛甲石田</station_name>
		<lon>139.344098</lon>
		<lat>35.417634</lat>
	</station>
	<station>
		<station_cd>2500136</station_cd>
		<station_g_cd>2500136</station_g_cd>
		<station_name>伊勢原</station_name>
		<lon>139.313768</lon>
		<lat>35.396081</lat>
	</station>
	<station>
		<station_cd>2500137</station_cd>
		<station_g_cd>2500137</station_g_cd>
		<station_name>鶴巻温泉</station_name>
		<lon>139.277813</lon>
		<lat>35.381131</lat>
	</station>
	<station>
		<station_cd>2500138</station_cd>
		<station_g_cd>2500138</station_g_cd>
		<station_name>東海大学前</station_name>
		<lon>139.271236</lon>
		<lat>35.373151</lat>
	</station>
	<station>
		<station_cd>2500139</station_cd>
		<station_g_cd>2500139</station_g_cd>
		<station_name>秦野</station_name>
		<lon>139.226009</lon>
		<lat>35.370075</lat>
	</station>
	<station>
		<station_cd>2500140</station_cd>
		<station_g_cd>2500140</station_g_cd>
		<station_name>渋沢</station_name>
		<lon>139.184405</lon>
		<lat>35.374032</lat>
	</station>
	<station>
		<station_cd>2500141</station_cd>
		<station_g_cd>2500141</station_g_cd>
		<station_name>新松田</station_name>
		<lon>139.139848</lon>
		<lat>35.345082</lat>
	</station>
	<station>
		<station_cd>2500142</station_cd>
		<station_g_cd>2500142</station_g_cd>
		<station_name>開成</station_name>
		<lon>139.135785</lon>
		<lat>35.326532</lat>
	</station>
	<station>
		<station_cd>2500143</station_cd>
		<station_g_cd>2500143</station_g_cd>
		<station_name>栢山</station_name>
		<lon>139.14258</lon>
		<lat>35.310679</lat>
	</station>
	<station>
		<station_cd>2500144</station_cd>
		<station_g_cd>2500144</station_g_cd>
		<station_name>富水</station_name>
		<lon>139.145166</lon>
		<lat>35.296759</lat>
	</station>
	<station>
		<station_cd>2500145</station_cd>
		<station_g_cd>2500145</station_g_cd>
		<station_name>螢田</station_name>
		<lon>139.152036</lon>
		<lat>35.285055</lat>
	</station>
	<station>
		<station_cd>2500146</station_cd>
		<station_g_cd>2500146</station_g_cd>
		<station_name>足柄</station_name>
		<lon>139.15447</lon>
		<lat>35.271763</lat>
	</station>
	<station>
		<station_cd>2500147</station_cd>
		<station_g_cd>1130116</station_g_cd>
		<station_name>小田原</station_name>
		<lon>139.155396</lon>
		<lat>35.256229</lat>
	</station>
</ekidata>
