<?xml version="1.0" encoding="UTF-8"?>
<ekidata version="ekidata.jp line api 1.0">
	<line>
		<line_cd>27003</line_cd>
		<line_name>京急大師線</line_name>
		<line_lon>139.7232999894</line_lon>
		<line_lat>35.535690499872</line_lat>
		<line_zoom>14</line_zoom>
	</line>
	<station>
		<station_cd>2700301</station_cd>
		<station_g_cd>2700115</station_g_cd>
		<station_name>京急川崎</station_name>
		<lon>139.700893</lon>
		<lat>35.53285</lat>
	</station>
	<station>
		<station_cd>2700302</station_cd>
		<station_g_cd>2700302</station_g_cd>
		<station_name>港町</station_name>
		<lon>139.712578</lon>
		<lat>35.535014</lat>
	</station>
	<station>
		<station_cd>2700303</station_cd>
		<station_g_cd>2700303</station_g_cd>
		<station_name>鈴木町</station_name>
		<lon>139.720655</lon>
		<lat>35.53535</lat>
	</station>
	<station>
		<station_cd>2700304</station_cd>
		<station_g_cd>2700304</station_g_cd>
		<station_name>川崎大師</station_name>
		<lon>139.725946</lon>
		<lat>35.535711</lat>
	</station>
	<station>
		<station_cd>2700305</station_cd>
		<station_g_cd>2700305</station_g_cd>
		<station_name>東門前</station_name>
		<lon>139.734298</lon>
		<lat>35.536566</lat>
	</station>
	<station>
		<station_cd>2700306</station_cd>
		<station_g_cd>2700306</station_g_cd>
		<station_name>大師橋</station_name>
		<lon>139.740381</lon>
		<lat>35.536611</lat>
	</station>
	<station>
		<station_cd>2700307</station_cd>
		<station_g_cd>2700307</station_g_cd>
		<station_name>小島新田</station_name>
		<lon>139.747575</lon>
		<lat>35.534798</lat>
	</station>
</ekidata>
