<?xml version="1.0" encoding="UTF-8"?>
<ekidata version="ekidata.jp line api 1.0">
	<line>
		<line_cd>29002</line_cd>
		<line_name>相鉄いずみ野線</line_name>
		<line_lon>139.49649288818</line_lon>
		<line_lat>35.431541345898</line_lat>
		<line_zoom>13</line_zoom>
	</line>
	<station>
		<station_cd>2900201</station_cd>
		<station_g_cd>2900110</station_g_cd>
		<station_name>二俣川</station_name>
		<lon>139.532207</lon>
		<lat>35.463335</lat>
	</station>
	<station>
		<station_cd>2900202</station_cd>
		<station_g_cd>2900202</station_g_cd>
		<station_name>南万騎が原</station_name>
		<lon>139.526344</lon>
		<lat>35.452522</lat>
	</station>
	<station>
		<station_cd>2900203</station_cd>
		<station_g_cd>2900203</station_g_cd>
		<station_name>緑園都市</station_name>
		<lon>139.521841</lon>
		<lat>35.439502</lat>
	</station>
	<station>
		<station_cd>2900204</station_cd>
		<station_g_cd>2900204</station_g_cd>
		<station_name>弥生台</station_name>
		<lon>139.506615</lon>
		<lat>35.429933</lat>
	</station>
	<station>
		<station_cd>2900205</station_cd>
		<station_g_cd>2900205</station_g_cd>
		<station_name>いずみ野</station_name>
		<lon>139.495135</lon>
		<lat>35.429434</lat>
	</station>
	<station>
		<station_cd>2900206</station_cd>
		<station_g_cd>2900206</station_g_cd>
		<station_name>いずみ中央</station_name>
		<lon>139.48727</lon>
		<lat>35.415385</lat>
	</station>
	<station>
		<station_cd>2900207</station_cd>
		<station_g_cd>2900207</station_g_cd>
		<station_name>ゆめが丘</station_name>
		<lon>139.482192</lon>
		<lat>35.405436</lat>
	</station>
	<station>
		<station_cd>2900208</station_cd>
		<station_g_cd>2500210</station_g_cd>
		<station_name>湘南台</station_name>
		<lon>139.467031</lon>
		<lat>35.396642</lat>
	</station>
</ekidata>
