<?xml version="1.0" encoding="UTF-8"?>
<ekidata version="ekidata.jp line api 1.0">
	<line>
		<line_cd>29001</line_cd>
		<line_name>相鉄本線</line_name>
		<line_lon>139.50914329351</line_lon>
		<line_lat>35.46560374998</line_lat>
		<line_zoom>11</line_zoom>
	</line>
	<station>
		<station_cd>2900101</station_cd>
		<station_g_cd>1130105</station_g_cd>
		<station_name>横浜</station_name>
		<lon>139.621768</lon>
		<lat>35.465852</lat>
	</station>
	<station>
		<station_cd>2900102</station_cd>
		<station_g_cd>2900102</station_g_cd>
		<station_name>平沼橋</station_name>
		<lon>139.616897</lon>
		<lat>35.460355</lat>
	</station>
	<station>
		<station_cd>2900103</station_cd>
		<station_g_cd>2900103</station_g_cd>
		<station_name>西横浜</station_name>
		<lon>139.608745</lon>
		<lat>35.453437</lat>
	</station>
	<station>
		<station_cd>2900104</station_cd>
		<station_g_cd>2900104</station_g_cd>
		<station_name>天王町</station_name>
		<lon>139.602554</lon>
		<lat>35.453984</lat>
	</station>
	<station>
		<station_cd>2900105</station_cd>
		<station_g_cd>2900105</station_g_cd>
		<station_name>星川</station_name>
		<lon>139.594816</lon>
		<lat>35.458634</lat>
	</station>
	<station>
		<station_cd>2900106</station_cd>
		<station_g_cd>2900106</station_g_cd>
		<station_name>和田町</station_name>
		<lon>139.586786</lon>
		<lat>35.463597</lat>
	</station>
	<station>
		<station_cd>2900107</station_cd>
		<station_g_cd>2900107</station_g_cd>
		<station_name>上星川</station_name>
		<lon>139.580078</lon>
		<lat>35.467694</lat>
	</station>
	<station>
		<station_cd>2900108</station_cd>
		<station_g_cd>2900108</station_g_cd>
		<station_name>西谷</station_name>
		<lon>139.565721</lon>
		<lat>35.478092</lat>
	</station>
	<station>
		<station_cd>2900109</station_cd>
		<station_g_cd>2900109</station_g_cd>
		<station_name>鶴ヶ峰</station_name>
		<lon>139.549586</lon>
		<lat>35.475031</lat>
	</station>
	<station>
		<station_cd>2900110</station_cd>
		<station_g_cd>2900110</station_g_cd>
		<station_name>二俣川</station_name>
		<lon>139.532207</lon>
		<lat>35.463335</lat>
	</station>
	<station>
		<station_cd>2900111</station_cd>
		<station_g_cd>2900111</station_g_cd>
		<station_name>希望ヶ丘</station_name>
		<lon>139.5143</lon>
		<lat>35.460399</lat>
	</station>
	<station>
		<station_cd>2900112</station_cd>
		<station_g_cd>2900112</station_g_cd>
		<station_name>三ツ境</station_name>
		<lon>139.502662</lon>
		<lat>35.467779</lat>
	</station>
	<station>
		<station_cd>2900113</station_cd>
		<station_g_cd>2900113</station_g_cd>
		<station_name>瀬谷</station_name>
		<lon>139.482574</lon>
		<lat>35.470412</lat>
	</station>
	<station>
		<station_cd>2900114</station_cd>
		<station_g_cd>2500206</station_g_cd>
		<station_name>大和</station_name>
		<lon>139.461383</lon>
		<lat>35.469924</lat>
	</station>
	<station>
		<station_cd>2900115</station_cd>
		<station_g_cd>2900115</station_g_cd>
		<station_name>相模大塚</station_name>
		<lon>139.441232</lon>
		<lat>35.470666</lat>
	</station>
	<station>
		<station_cd>2900116</station_cd>
		<station_g_cd>2900116</station_g_cd>
		<station_name>さがみ野</station_name>
		<lon>139.429055</lon>
		<lat>35.471485</lat>
	</station>
	<station>
		<station_cd>2900117</station_cd>
		<station_g_cd>2900117</station_g_cd>
		<station_name>かしわ台</station_name>
		<lon>139.415851</lon>
		<lat>35.466744</lat>
	</station>
	<station>
		<station_cd>2900118</station_cd>
		<station_g_cd>1130910</station_g_cd>
		<station_name>海老名</station_name>
		<lon>139.392074</lon>
		<lat>35.453381</lat>
	</station>
</ekidata>
