{"line_cd":30001,"line_name":"名鉄名古屋本線","line_lon":137.0464890931,"line_lat":35.090244655301,"line_zoom":10,"station_l":[{"station_cd":3000101,"station_g_cd":1141301,"station_name":"豊橋","lon":137.382128,"lat":34.762734},{"station_cd":3000102,"station_g_cd":3000102,"station_name":"伊奈","lon":137.354743,"lat":34.802857},{"station_cd":3000103,"station_g_cd":3000103,"station_name":"小田渕","lon":137.34559,"lat":34.814739},{"station_cd":3000104,"station_g_cd":3000104,"station_name":"国府","lon":137.328101,"lat":34.83752},{"station_cd":3000105,"station_g_cd":3000105,"station_name":"御油","lon":137.321443,"lat":34.846113},{"station_cd":3000106,"station_g_cd":3000106,"station_name":"名電赤坂","lon":137.311152,"lat":34.859331},{"station_cd":3000107,"station_g_cd":3000107,"station_name":"名電長沢","lon":137.288298,"lat":34.871623},{"station_cd":3000108,"station_g_cd":3000108,"station_name":"本宿","lon":137.260014,"lat":34.893025},{"station_cd":3000109,"station_g_cd":3000109,"station_name":"名電山中","lon":137.242829,"lat":34.899474},{"station_cd":3000110,"station_g_cd":3000110,"station_name":"藤川","lon":137.218428,"lat":34.913304},{"station_cd":3000111,"station_g_cd":3000111,"station_name":"美合","lon":137.196317,"lat":34.923763},{"station_cd":3000112,"station_g_cd":3000112,"station_name":"男川","lon":137.183296,"lat":34.937461},{"station_cd":3000113,"station_g_cd":3000113,"station_name":"東岡崎","lon":137.167333,"lat":34.951904},{"station_cd":3000114,"station_g_cd":3000114,"station_name":"岡崎公園前","lon":137.153309,"lat":34.954984},{"station_cd":3000115,"station_g_cd":3000115,"station_name":"矢作橋","lon":137.139957,"lat":34.961149},{"station_cd":3000116,"station_g_cd":3000116,"station_name":"宇頭","lon":137.118103,"lat":34.971367},{"station_cd":3000117,"station_g_cd":3000117,"station_name":"新安城","lon":137.085443,"lat":34.986885},{"station_cd":3000118,"station_g_cd":3000118,"station_name":"牛田","lon":137.060946,"lat":34.999294},{"station_cd":3000119,"station_g_cd":3000119,"station_name":"知立","lon":137.039628,"lat":35.006198},{"station_cd":3000120,"station_g_cd":3000120,"station_name":"一ツ木","lon":137.02551,"lat":35.01367},{"station_cd":3000121,"station_g_cd":3000121,"station_name":"富士松","lon":137.016508,"lat":35.029759},{"station_cd":3000122,"station_g_cd":3000122,"station_name":"豊明","lon":137.008161,"lat":35.041127},{"station_cd":3000123,"station_g_cd":3000123,"station_name":"前後","lon":136.995665,"lat":35.05227},{"station_cd":3000124,"station_g_cd":3000124,"station_name":"中京競馬場前","lon":136.98158,"lat":35.061302},{"station_cd":3000125,"station_g_cd":3000125,"station_name":"有松","lon":136.971084,"lat":35.067687},{"station_cd":3000126,"station_g_cd":3000126,"station_name":"左京山","lon":136.960301,"lat":35.070553},{"station_cd":3000127,"station_g_cd":3000127,"station_name":"鳴海","lon":136.950096,"lat":35.079149},{"station_cd":3000128,"station_g_cd":3000128,"station_name":"本星崎","lon":136.937378,"lat":35.087392},{"station_cd":3000129,"station_g_cd":3000129,"station_name":"本笠寺","lon":136.933409,"lat":35.099199},{"station_cd":3000130,"station_g_cd":3000130,"station_name":"桜","lon":136.934586,"lat":35.106062},{"station_cd":3000131,"station_g_cd":3000131,"station_name":"呼続","lon":136.930387,"lat":35.114722},{"station_cd":3000132,"station_g_cd":3000132,"station_name":"堀田","lon":136.919839,"lat":35.120251},{"station_cd":3000133,"station_g_cd":3000133,"station_name":"神宮前","lon":136.912485,"lat":35.125857},{"station_cd":3000134,"station_g_cd":1141102,"station_name":"金山","lon":136.9013,"lat":35.142871},{"station_cd":3000135,"station_g_cd":3000135,"station_name":"山王","lon":136.888461,"lat":35.15233},{"station_cd":3000136,"station_g_cd":1141101,"station_name":"名鉄名古屋","lon":136.884187,"lat":35.169252},{"station_cd":3000137,"station_g_cd":3000137,"station_name":"栄生","lon":136.873051,"lat":35.183687},{"station_cd":3000138,"station_g_cd":3000138,"station_name":"東枇杷島","lon":136.870168,"lat":35.189808},{"station_cd":3000139,"station_g_cd":3000139,"station_name":"西枇杷島","lon":136.865685,"lat":35.195015},{"station_cd":3000140,"station_g_cd":3000140,"station_name":"二ツ杁","lon":136.859583,"lat":35.194646},{"station_cd":3000141,"station_g_cd":3000141,"station_name":"新川橋","lon":136.851989,"lat":35.195701},{"station_cd":3000142,"station_g_cd":3000142,"station_name":"須ヶ口","lon":136.846229,"lat":35.198684},{"station_cd":3000143,"station_g_cd":3000143,"station_name":"丸ノ内","lon":136.841927,"lat":35.204742},{"station_cd":3000144,"station_g_cd":3000144,"station_name":"新清洲","lon":136.835607,"lat":35.211249},{"station_cd":3000145,"station_g_cd":3000145,"station_name":"大里","lon":136.818428,"lat":35.226216},{"station_cd":3000146,"station_g_cd":3000146,"station_name":"奥田","lon":136.810917,"lat":35.235412},{"station_cd":3000147,"station_g_cd":3000147,"station_name":"国府宮","lon":136.802963,"lat":35.254218},{"station_cd":3000148,"station_g_cd":3000148,"station_name":"島氏永","lon":136.800987,"lat":35.270777},{"station_cd":3000149,"station_g_cd":3000149,"station_name":"妙興寺","lon":136.798231,"lat":35.287178},{"station_cd":3000150,"station_g_cd":1150237,"station_name":"名鉄一宮","lon":136.797225,"lat":35.30154},{"station_cd":3000151,"station_g_cd":3000151,"station_name":"今伊勢","lon":136.789273,"lat":35.31836},{"station_cd":3000152,"station_g_cd":3000152,"station_name":"石刀","lon":136.785407,"lat":35.326204},{"station_cd":3000153,"station_g_cd":3000153,"station_name":"新木曽川","lon":136.779421,"lat":35.342047},{"station_cd":3000154,"station_g_cd":3000154,"station_name":"黒田","lon":136.777502,"lat":35.350213},{"station_cd":3000155,"station_g_cd":3000155,"station_name":"木曽川堤","lon":136.770486,"lat":35.365067},{"station_cd":3000156,"station_g_cd":3000156,"station_name":"笠松","lon":136.764664,"lat":35.37466},{"station_cd":3000157,"station_g_cd":3000157,"station_name":"岐南","lon":136.769165,"lat":35.389716},{"station_cd":3000158,"station_g_cd":3000158,"station_name":"茶所","lon":136.768917,"lat":35.402048},{"station_cd":3000159,"station_g_cd":3000159,"station_name":"加納","lon":136.765984,"lat":35.405209},{"station_cd":3000160,"station_g_cd":3000160,"station_name":"名鉄岐阜","lon":136.760066,"lat":35.411136}]}
