<?xml version="1.0" encoding="UTF-8"?>
<ekidata version="ekidata.jp line api 1.0">
	<line>
		<line_cd>30015</line_cd>
		<line_name>名鉄犬山線</line_name>
		<line_lon>136.88986472695</line_lon>
		<line_lat>35.311657113672</line_lat>
		<line_zoom>11</line_zoom>
	</line>
	<station>
		<station_cd>3001501</station_cd>
		<station_g_cd>1141101</station_g_cd>
		<station_name>名鉄名古屋</station_name>
		<lon>136.884187</lon>
		<lat>35.169252</lat>
	</station>
	<station>
		<station_cd>3001502</station_cd>
		<station_g_cd>3000137</station_g_cd>
		<station_name>栄生</station_name>
		<lon>136.873051</lon>
		<lat>35.183687</lat>
	</station>
	<station>
		<station_cd>3001503</station_cd>
		<station_g_cd>3000138</station_g_cd>
		<station_name>東枇杷島</station_name>
		<lon>136.870168</lon>
		<lat>35.189808</lat>
	</station>
	<station>
		<station_cd>3001504</station_cd>
		<station_g_cd>3001504</station_g_cd>
		<station_name>下小田井</station_name>
		<lon>136.870638</lon>
		<lat>35.201878</lat>
	</station>
	<station>
		<station_cd>3001505</station_cd>
		<station_g_cd>3001505</station_g_cd>
		<station_name>中小田井</station_name>
		<lon>136.876772</lon>
		<lat>35.214647</lat>
	</station>
	<station>
		<station_cd>3001506</station_cd>
		<station_g_cd>3001506</station_g_cd>
		<station_name>上小田井</station_name>
		<lon>136.876941</lon>
		<lat>35.223482</lat>
	</station>
	<station>
		<station_cd>3001507</station_cd>
		<station_g_cd>3001507</station_g_cd>
		<station_name>西春</station_name>
		<lon>136.871235</lon>
		<lat>35.244627</lat>
	</station>
	<station>
		<station_cd>3001508</station_cd>
		<station_g_cd>3001508</station_g_cd>
		<station_name>徳重・名古屋芸大</station_name>
		<lon>136.873384</lon>
		<lat>35.256045</lat>
	</station>
	<station>
		<station_cd>3001509</station_cd>
		<station_g_cd>3001509</station_g_cd>
		<station_name>大山寺</station_name>
		<lon>136.874748</lon>
		<lat>35.263508</lat>
	</station>
	<station>
		<station_cd>3001510</station_cd>
		<station_g_cd>3001510</station_g_cd>
		<station_name>岩倉</station_name>
		<lon>136.873511</lon>
		<lat>35.277972</lat>
	</station>
	<station>
		<station_cd>3001511</station_cd>
		<station_g_cd>3001511</station_g_cd>
		<station_name>石仏</station_name>
		<lon>136.871144</lon>
		<lat>35.295545</lat>
	</station>
	<station>
		<station_cd>3001512</station_cd>
		<station_g_cd>3001512</station_g_cd>
		<station_name>布袋</station_name>
		<lon>136.872987</lon>
		<lat>35.317135</lat>
	</station>
	<station>
		<station_cd>3001513</station_cd>
		<station_g_cd>3001513</station_g_cd>
		<station_name>江南</station_name>
		<lon>136.872109</lon>
		<lat>35.33475</lat>
	</station>
	<station>
		<station_cd>3001514</station_cd>
		<station_g_cd>3001514</station_g_cd>
		<station_name>柏森</station_name>
		<lon>136.900181</lon>
		<lat>35.344807</lat>
	</station>
	<station>
		<station_cd>3001515</station_cd>
		<station_g_cd>3001515</station_g_cd>
		<station_name>扶桑</station_name>
		<lon>136.91597</lon>
		<lat>35.359557</lat>
	</station>
	<station>
		<station_cd>3001516</station_cd>
		<station_g_cd>3001516</station_g_cd>
		<station_name>木津用水</station_name>
		<lon>136.925977</lon>
		<lat>35.366914</lat>
	</station>
	<station>
		<station_cd>3001517</station_cd>
		<station_g_cd>3001517</station_g_cd>
		<station_name>犬山口</station_name>
		<lon>136.939945</lon>
		<lat>35.374212</lat>
	</station>
	<station>
		<station_cd>3001518</station_cd>
		<station_g_cd>3001518</station_g_cd>
		<station_name>犬山</station_name>
		<lon>136.945536</lon>
		<lat>35.379871</lat>
	</station>
	<station>
		<station_cd>3001519</station_cd>
		<station_g_cd>3001519</station_g_cd>
		<station_name>犬山遊園</station_name>
		<lon>136.946894</lon>
		<lat>35.390331</lat>
	</station>
	<station>
		<station_cd>3001520</station_cd>
		<station_g_cd>1141606</station_g_cd>
		<station_name>新鵜沼</station_name>
		<lon>136.944314</lon>
		<lat>35.396799</lat>
	</station>
</ekidata>
