{"line_cd":33002,"line_name":"京阪宇治線","line_lon":135.78688991797,"line_lat":34.918987375,"line_zoom":13,"station_l":[{"station_cd":3300201,"station_g_cd":3300113,"station_name":"中書島","lon":135.760174,"lat":34.926875},{"station_cd":3300202,"station_g_cd":3300202,"station_name":"観月橋","lon":135.768642,"lat":34.928103},{"station_cd":3300203,"station_g_cd":3300203,"station_name":"桃山南口","lon":135.783683,"lat":34.931056},{"station_cd":3300204,"station_g_cd":3300204,"station_name":"六地蔵","lon":135.793322,"lat":34.932017},{"station_cd":3300205,"station_g_cd":3300205,"station_name":"木幡","lon":135.796047,"lat":34.925859},{"station_cd":3300206,"station_g_cd":1161808,"station_name":"黄檗","lon":135.802656,"lat":34.914335},{"station_cd":3300207,"station_g_cd":3300207,"station_name":"三室戸","lon":135.806339,"lat":34.898976},{"station_cd":3300208,"station_g_cd":3300208,"station_name":"宇治","lon":135.806229,"lat":34.894678}]}
