<?xml version="1.0" encoding="UTF-8"?>
<ekidata version="ekidata.jp line api 1.0">
	<line>
		<line_cd>99108</line_cd>
		<line_name>道南いさりび鉄道線</line_name>
		<line_lon>140.58586120605</line_lon>
		<line_lat>41.729305174526</line_lat>
		<line_zoom>11</line_zoom>
	</line>
	<station>
		<station_cd>1111910</station_cd>
		<station_g_cd>1111806</station_g_cd>
		<station_name>木古内</station_name>
		<lon>140.434004</lon>
		<lat>41.677642</lat>
	</station>
	<station>
		<station_cd>1111911</station_cd>
		<station_g_cd>1111911</station_g_cd>
		<station_name>札苅</station_name>
		<lon>140.468097</lon>
		<lat>41.699271</lat>
	</station>
	<station>
		<station_cd>1111912</station_cd>
		<station_g_cd>1111912</station_g_cd>
		<station_name>泉沢</station_name>
		<lon>140.506797</lon>
		<lat>41.700867</lat>
	</station>
	<station>
		<station_cd>1111913</station_cd>
		<station_g_cd>1111913</station_g_cd>
		<station_name>釜谷</station_name>
		<lon>140.53718</lon>
		<lat>41.712153</lat>
	</station>
	<station>
		<station_cd>1111914</station_cd>
		<station_g_cd>1111914</station_g_cd>
		<station_name>渡島当別</station_name>
		<lon>140.579109</lon>
		<lat>41.737309</lat>
	</station>
	<station>
		<station_cd>1111915</station_cd>
		<station_g_cd>1111915</station_g_cd>
		<station_name>茂辺地</station_name>
		<lon>140.600561</lon>
		<lat>41.766604</lat>
	</station>
	<station>
		<station_cd>1111916</station_cd>
		<station_g_cd>1111916</station_g_cd>
		<station_name>上磯</station_name>
		<lon>140.640599</lon>
		<lat>41.81956</lat>
	</station>
	<station>
		<station_cd>1111917</station_cd>
		<station_g_cd>1111917</station_g_cd>
		<station_name>清川口</station_name>
		<lon>140.652906</lon>
		<lat>41.824615</lat>
	</station>
	<station>
		<station_cd>1111918</station_cd>
		<station_g_cd>1111918</station_g_cd>
		<station_name>久根別</station_name>
		<lon>140.666468</lon>
		<lat>41.826727</lat>
	</station>
	<station>
		<station_cd>1111919</station_cd>
		<station_g_cd>1111919</station_g_cd>
		<station_name>東久根別</station_name>
		<lon>140.679731</lon>
		<lat>41.826005</lat>
	</station>
	<station>
		<station_cd>1111920</station_cd>
		<station_g_cd>1111920</station_g_cd>
		<station_name>七重浜</station_name>
		<lon>140.707957</lon>
		<lat>41.817643</lat>
	</station>
	<station>
		<station_cd>1111921</station_cd>
		<station_g_cd>1110102</station_g_cd>
		<station_name>五稜郭</station_name>
		<lon>140.733539</lon>
		<lat>41.803557</lat>
	</station>
	<station>
		<station_cd>1111922</station_cd>
		<station_g_cd>1110101</station_g_cd>
		<station_name>函館</station_name>
		<lon>140.726413</lon>
		<lat>41.773709</lat>
	</station>
</ekidata>
