<?xml version="1.0" encoding="UTF-8"?>
<ekidata version="ekidata.jp line api 1.0">
	<line>
		<line_cd>99202</line_cd>
		<line_name>弘南鉄道弘南線</line_name>
		<line_lon>140.5487134987</line_lon>
		<line_lat>40.611754816711</line_lat>
		<line_zoom>12</line_zoom>
	</line>
	<station>
		<station_cd>9920201</station_cd>
		<station_g_cd>1120257</station_g_cd>
		<station_name>弘前</station_name>
		<lon>140.485708</lon>
		<lat>40.59899</lat>
	</station>
	<station>
		<station_cd>9920202</station_cd>
		<station_g_cd>9920202</station_g_cd>
		<station_name>弘前東高前</station_name>
		<lon>140.488529</lon>
		<lat>40.592301</lat>
	</station>
	<station>
		<station_cd>9920203</station_cd>
		<station_g_cd>9920203</station_g_cd>
		<station_name>運動公園前</station_name>
		<lon>140.502875</lon>
		<lat>40.589527</lat>
	</station>
	<station>
		<station_cd>9920204</station_cd>
		<station_g_cd>9920204</station_g_cd>
		<station_name>新里</station_name>
		<lon>140.519879</lon>
		<lat>40.587445</lat>
	</station>
	<station>
		<station_cd>9920205</station_cd>
		<station_g_cd>9920205</station_g_cd>
		<station_name>館田</station_name>
		<lon>140.538617</lon>
		<lat>40.585135</lat>
	</station>
	<station>
		<station_cd>9920206</station_cd>
		<station_g_cd>9920206</station_g_cd>
		<station_name>平賀</station_name>
		<lon>140.561048</lon>
		<lat>40.585044</lat>
	</station>
	<station>
		<station_cd>9920207</station_cd>
		<station_g_cd>9920207</station_g_cd>
		<station_name>柏農高校前</station_name>
		<lon>140.564367</lon>
		<lat>40.601867</lat>
	</station>
	<station>
		<station_cd>9920208</station_cd>
		<station_g_cd>9920208</station_g_cd>
		<station_name>津軽尾上</station_name>
		<lon>140.576068</lon>
		<lat>40.613869</lat>
	</station>
	<station>
		<station_cd>9920209</station_cd>
		<station_g_cd>9920209</station_g_cd>
		<station_name>尾上高校前</station_name>
		<lon>140.576806</lon>
		<lat>40.627634</lat>
	</station>
	<station>
		<station_cd>9920213</station_cd>
		<station_g_cd>9920213</station_g_cd>
		<station_name>田んぼアート</station_name>
		<lon>140.573694</lon>
		<lat>40.632833</lat>
	</station>
	<station>
		<station_cd>9920210</station_cd>
		<station_g_cd>9920210</station_g_cd>
		<station_name>田舎館</station_name>
		<lon>140.57097</lon>
		<lat>40.637274</lat>
	</station>
	<station>
		<station_cd>9920211</station_cd>
		<station_g_cd>9920211</station_g_cd>
		<station_name>境松</station_name>
		<lon>140.575691</lon>
		<lat>40.648609</lat>
	</station>
	<station>
		<station_cd>9920212</station_cd>
		<station_g_cd>9920212</station_g_cd>
		<station_name>黒石</station_name>
		<lon>140.591045</lon>
		<lat>40.648342</lat>
	</station>
</ekidata>
