{"line_cd":99214,"line_name":"仙台市営地下鉄南北線","line_lon":140.87999335139,"line_lat":38.276251680301,"line_zoom":12,"station_l":[{"station_cd":9921401,"station_g_cd":9921401,"station_name":"泉中央","lon":140.880796,"lat":38.323167},{"station_cd":9921402,"station_g_cd":9921402,"station_name":"八乙女","lon":140.884037,"lat":38.312899},{"station_cd":9921403,"station_g_cd":9921403,"station_name":"黒松","lon":140.886285,"lat":38.303142},{"station_cd":9921404,"station_g_cd":9921404,"station_name":"旭ヶ丘","lon":140.883633,"lat":38.295593},{"station_cd":9921405,"station_g_cd":9921405,"station_name":"台原","lon":140.878512,"lat":38.288524},{"station_cd":9921406,"station_g_cd":1121703,"station_name":"北仙台","lon":140.868899,"lat":38.28245},{"station_cd":9921407,"station_g_cd":9921407,"station_name":"北四番丁","lon":140.86907,"lat":38.272137},{"station_cd":9921408,"station_g_cd":9921408,"station_name":"勾当台公園","lon":140.871292,"lat":38.266304},{"station_cd":9921409,"station_g_cd":9921409,"station_name":"広瀬通","lon":140.875736,"lat":38.262971},{"station_cd":9921410,"station_g_cd":1122201,"station_name":"仙台","lon":140.879928,"lat":38.259901},{"station_cd":9921411,"station_g_cd":9921411,"station_name":"五橋","lon":140.881014,"lat":38.251861},{"station_cd":9921412,"station_g_cd":9921412,"station_name":"愛宕橋","lon":140.882036,"lat":38.24729},{"station_cd":9921413,"station_g_cd":9921413,"station_name":"河原町","lon":140.887702,"lat":38.241112},{"station_cd":9921414,"station_g_cd":9921414,"station_name":"長町一丁目","lon":140.887402,"lat":38.234085},{"station_cd":9921415,"station_g_cd":1123142,"station_name":"長町","lon":140.884842,"lat":38.228244},{"station_cd":9921416,"station_g_cd":9921416,"station_name":"長町南","lon":140.87657,"lat":38.224642},{"station_cd":9921417,"station_g_cd":9921417,"station_name":"富沢","lon":140.87046,"lat":38.214087}]}
