<?xml version="1.0" encoding="UTF-8"?>
<ekidata version="ekidata.jp line api 1.0">
	<line>
		<line_cd>99304</line_cd>
		<line_name>都営新宿線</line_name>
		<line_lon>139.80940398417</line_lon>
		<line_lat>35.689174794942</line_lat>
		<line_zoom>11</line_zoom>
	</line>
	<station>
		<station_cd>9930401</station_cd>
		<station_g_cd>1130208</station_g_cd>
		<station_name>新宿</station_name>
		<lon>139.698812</lon>
		<lat>35.68869</lat>
	</station>
	<station>
		<station_cd>9930402</station_cd>
		<station_g_cd>2800217</station_g_cd>
		<station_name>新宿三丁目</station_name>
		<lon>139.706271</lon>
		<lat>35.690616</lat>
	</station>
	<station>
		<station_cd>9930403</station_cd>
		<station_g_cd>9930403</station_g_cd>
		<station_name>曙橋</station_name>
		<lon>139.722881</lon>
		<lat>35.692402</lat>
	</station>
	<station>
		<station_cd>9930404</station_cd>
		<station_g_cd>1131315</station_g_cd>
		<station_name>市ヶ谷</station_name>
		<lon>139.737639</lon>
		<lat>35.691556</lat>
	</station>
	<station>
		<station_cd>9930405</station_cd>
		<station_g_cd>2800407</station_g_cd>
		<station_name>九段下</station_name>
		<lon>139.751948</lon>
		<lat>35.695589</lat>
	</station>
	<station>
		<station_cd>9930406</station_cd>
		<station_g_cd>2800807</station_g_cd>
		<station_name>神保町</station_name>
		<lon>139.757606</lon>
		<lat>35.695966</lat>
	</station>
	<station>
		<station_cd>9930407</station_cd>
		<station_g_cd>2800207</station_g_cd>
		<station_name>小川町</station_name>
		<lon>139.767551</lon>
		<lat>35.695487</lat>
	</station>
	<station>
		<station_cd>9930408</station_cd>
		<station_g_cd>9930408</station_g_cd>
		<station_name>岩本町</station_name>
		<lon>139.775866</lon>
		<lat>35.695534</lat>
	</station>
	<station>
		<station_cd>9930409</station_cd>
		<station_g_cd>1131403</station_g_cd>
		<station_name>馬喰横山</station_name>
		<lon>139.782768</lon>
		<lat>35.69212</lat>
	</station>
	<station>
		<station_cd>9930410</station_cd>
		<station_g_cd>9930410</station_g_cd>
		<station_name>浜町</station_name>
		<lon>139.788154</lon>
		<lat>35.688516</lat>
	</station>
	<station>
		<station_cd>9930411</station_cd>
		<station_g_cd>9930114</station_g_cd>
		<station_name>森下</station_name>
		<lon>139.797042</lon>
		<lat>35.68796</lat>
	</station>
	<station>
		<station_cd>9930412</station_cd>
		<station_g_cd>9930412</station_g_cd>
		<station_name>菊川</station_name>
		<lon>139.806016</lon>
		<lat>35.688379</lat>
	</station>
	<station>
		<station_cd>9930413</station_cd>
		<station_g_cd>2800814</station_g_cd>
		<station_name>住吉</station_name>
		<lon>139.815681</lon>
		<lat>35.689073</lat>
	</station>
	<station>
		<station_cd>9930414</station_cd>
		<station_g_cd>9930414</station_g_cd>
		<station_name>西大島</station_name>
		<lon>139.826206</lon>
		<lat>35.689349</lat>
	</station>
	<station>
		<station_cd>9930415</station_cd>
		<station_g_cd>9930415</station_g_cd>
		<station_name>大島</station_name>
		<lon>139.83565</lon>
		<lat>35.689905</lat>
	</station>
	<station>
		<station_cd>9930416</station_cd>
		<station_g_cd>9930416</station_g_cd>
		<station_name>東大島</station_name>
		<lon>139.845963</lon>
		<lat>35.690355</lat>
	</station>
	<station>
		<station_cd>9930417</station_cd>
		<station_g_cd>9930417</station_g_cd>
		<station_name>船堀</station_name>
		<lon>139.864258</lon>
		<lat>35.683795</lat>
	</station>
	<station>
		<station_cd>9930418</station_cd>
		<station_g_cd>9930418</station_g_cd>
		<station_name>一之江</station_name>
		<lon>139.882934</lon>
		<lat>35.686055</lat>
	</station>
	<station>
		<station_cd>9930419</station_cd>
		<station_g_cd>9930419</station_g_cd>
		<station_name>瑞江</station_name>
		<lon>139.89761</lon>
		<lat>35.693318</lat>
	</station>
	<station>
		<station_cd>9930420</station_cd>
		<station_g_cd>9930420</station_g_cd>
		<station_name>篠崎</station_name>
		<lon>139.903698</lon>
		<lat>35.706017</lat>
	</station>
	<station>
		<station_cd>9930421</station_cd>
		<station_g_cd>1131328</station_g_cd>
		<station_name>本八幡</station_name>
		<lon>139.926628</lon>
		<lat>35.722929</lat>
	</station>
</ekidata>
