{"line_cd":99307,"line_name":"埼玉高速鉄道線","line_lon":139.7270159834,"line_lat":35.842332681291,"line_zoom":12,"station_l":[{"station_cd":9930701,"station_g_cd":2800901,"station_name":"赤羽岩淵","lon":139.722103,"lat":35.783417},{"station_cd":9930702,"station_g_cd":9930702,"station_name":"川口元郷","lon":139.730043,"lat":35.800187},{"station_cd":9930703,"station_g_cd":9930703,"station_name":"南鳩ヶ谷","lon":139.736059,"lat":35.816839},{"station_cd":9930704,"station_g_cd":9930704,"station_name":"鳩ヶ谷","lon":139.735967,"lat":35.830859},{"station_cd":9930705,"station_g_cd":9930705,"station_name":"新井宿","lon":139.737908,"lat":35.842974},{"station_cd":9930706,"station_g_cd":9930706,"station_name":"戸塚安行","lon":139.753689,"lat":35.858873},{"station_cd":9930707,"station_g_cd":1130513,"station_name":"東川口","lon":139.74398,"lat":35.876211},{"station_cd":9930708,"station_g_cd":9930708,"station_name":"浦和美園","lon":139.72779,"lat":35.893677}]}
