{"line_cd":99302,"line_name":"都営浅草線","line_lon":139.75860382725,"line_lat":35.662261944417,"line_zoom":12,"station_l":[{"station_cd":9930201,"station_g_cd":9930201,"station_name":"西馬込","lon":139.705942,"lat":35.586859},{"station_cd":9930202,"station_g_cd":9930202,"station_name":"馬込","lon":139.711772,"lat":35.596435},{"station_cd":9930203,"station_g_cd":2600404,"station_name":"中延","lon":139.713736,"lat":35.605769},{"station_cd":9930204,"station_g_cd":2600503,"station_name":"戸越","lon":139.716495,"lat":35.614633},{"station_cd":9930205,"station_g_cd":1130202,"station_name":"五反田","lon":139.724175,"lat":35.627102},{"station_cd":9930206,"station_g_cd":9930206,"station_name":"高輪台","lon":139.730305,"lat":35.631679},{"station_cd":9930207,"station_g_cd":2700101,"station_name":"泉岳寺","lon":139.74002,"lat":35.638692},{"station_cd":9930208,"station_g_cd":9930208,"station_name":"三田","lon":139.748775,"lat":35.64818},{"station_cd":9930209,"station_g_cd":9930121,"station_name":"大門","lon":139.75466,"lat":35.656785},{"station_cd":9930210,"station_g_cd":1130102,"station_name":"新橋","lon":139.759451,"lat":35.665577},{"station_cd":9930211,"station_g_cd":2800313,"station_name":"東銀座","lon":139.767253,"lat":35.669464},{"station_cd":9930212,"station_g_cd":2800110,"station_name":"宝町","lon":139.771767,"lat":35.675461},{"station_cd":9930213,"station_g_cd":2800109,"station_name":"日本橋","lon":139.775721,"lat":35.681688},{"station_cd":9930214,"station_g_cd":2800309,"station_name":"人形町","lon":139.782285,"lat":35.686307},{"station_cd":9930215,"station_g_cd":1131403,"station_name":"東日本橋","lon":139.784821,"lat":35.692126},{"station_cd":9930216,"station_g_cd":1131320,"station_name":"浅草橋","lon":139.786305,"lat":35.697451},{"station_cd":9930217,"station_g_cd":9930112,"station_name":"蔵前","lon":139.790931,"lat":35.703236},{"station_cd":9930218,"station_g_cd":2100201,"station_name":"浅草","lon":139.79697,"lat":35.709461},{"station_cd":9930219,"station_g_cd":9930219,"station_name":"本所吾妻橋","lon":139.804624,"lat":35.70858},{"station_cd":9930220,"station_g_cd":2100203,"station_name":"押上（スカイツリー前）","lon":139.812935,"lat":35.710702}]}
