{"line_cd":99314,"line_name":"伊豆箱根鉄道大雄山線","line_lon":139.13094741927,"line_lat":35.289398083333,"line_zoom":13,"station_l":[{"station_cd":9931401,"station_g_cd":1130116,"station_name":"小田原","lon":139.156474,"lat":35.25658},{"station_cd":9931402,"station_g_cd":9931402,"station_name":"緑町","lon":139.158578,"lat":35.259226},{"station_cd":9931403,"station_g_cd":9931403,"station_name":"井細田","lon":139.157397,"lat":35.268964},{"station_cd":9931404,"station_g_cd":9931404,"station_name":"五百羅漢","lon":139.155758,"lat":35.27519},{"station_cd":9931405,"station_g_cd":9931405,"station_name":"穴部","lon":139.148787,"lat":35.279887},{"station_cd":9931406,"station_g_cd":9931406,"station_name":"飯田岡","lon":139.139109,"lat":35.287913},{"station_cd":9931407,"station_g_cd":9931407,"station_name":"相模沼田","lon":139.133945,"lat":35.292334},{"station_cd":9931408,"station_g_cd":9931408,"station_name":"岩原","lon":139.12879,"lat":35.298825},{"station_cd":9931409,"station_g_cd":9931409,"station_name":"塚原","lon":139.126632,"lat":35.301305},{"station_cd":9931410,"station_g_cd":9931410,"station_name":"和田河原","lon":139.118684,"lat":35.31585},{"station_cd":9931411,"station_g_cd":9931411,"station_name":"富士フイルム前","lon":139.109483,"lat":35.317657},{"station_cd":9931412,"station_g_cd":9931412,"station_name":"大雄山","lon":139.10365,"lat":35.319046}]}
