{"line_cd":99337,"line_name":"りんかい線","line_lon":139.76612964282,"line_lat":35.623733011573,"line_zoom":13,"station_l":[{"station_cd":9933701,"station_g_cd":1132605,"station_name":"新木場","lon":139.827402,"lat":35.646172},{"station_cd":9933702,"station_g_cd":9933702,"station_name":"東雲","lon":139.804395,"lat":35.640987},{"station_cd":9933703,"station_g_cd":9933703,"station_name":"国際展示場","lon":139.791617,"lat":35.63441},{"station_cd":9933704,"station_g_cd":9933704,"station_name":"東京テレポート","lon":139.778896,"lat":35.62753},{"station_cd":9933705,"station_g_cd":9933602,"station_name":"天王洲アイル","lon":139.750793,"lat":35.620562},{"station_cd":9933706,"station_g_cd":9933706,"station_name":"品川シーサイド","lon":139.749549,"lat":35.608524},{"station_cd":9933707,"station_g_cd":1133228,"station_name":"大井町","lon":139.735025,"lat":35.607535},{"station_cd":9933708,"station_g_cd":1130201,"station_name":"大崎","lon":139.728439,"lat":35.619772}]}
