<?xml version="1.0" encoding="UTF-8"?>
<ekidata version="ekidata.jp line api 1.0">
	<line>
		<line_cd>99335</line_cd>
		<line_name>銚子電鉄線</line_name>
		<line_lon>140.84740317246</line_lon>
		<line_lat>35.719128212382</line_lat>
		<line_zoom>13</line_zoom>
	</line>
	<station>
		<station_cd>9933501</station_cd>
		<station_g_cd>1131431</station_g_cd>
		<station_name>銚子</station_name>
		<lon>140.827557</lon>
		<lat>35.729449</lat>
	</station>
	<station>
		<station_cd>9933502</station_cd>
		<station_g_cd>9933502</station_g_cd>
		<station_name>仲ノ町</station_name>
		<lon>140.833871</lon>
		<lat>35.728813</lat>
	</station>
	<station>
		<station_cd>9933503</station_cd>
		<station_g_cd>9933503</station_g_cd>
		<station_name>観音</station_name>
		<lon>140.840112</lon>
		<lat>35.728952</lat>
	</station>
	<station>
		<station_cd>9933504</station_cd>
		<station_g_cd>9933504</station_g_cd>
		<station_name>本銚子</station_name>
		<lon>140.847844</lon>
		<lat>35.731055</lat>
	</station>
	<station>
		<station_cd>9933505</station_cd>
		<station_g_cd>9933505</station_g_cd>
		<station_name>笠上黒生</station_name>
		<lon>140.856893</lon>
		<lat>35.728427</lat>
	</station>
	<station>
		<station_cd>9933506</station_cd>
		<station_g_cd>9933506</station_g_cd>
		<station_name>西海鹿島</station_name>
		<lon>140.860207</lon>
		<lat>35.725131</lat>
	</station>
	<station>
		<station_cd>9933507</station_cd>
		<station_g_cd>9933507</station_g_cd>
		<station_name>海鹿島</station_name>
		<lon>140.863096</lon>
		<lat>35.722089</lat>
	</station>
	<station>
		<station_cd>9933508</station_cd>
		<station_g_cd>9933508</station_g_cd>
		<station_name>君ヶ浜</station_name>
		<lon>140.860527</lon>
		<lat>35.714093</lat>
	</station>
	<station>
		<station_cd>9933509</station_cd>
		<station_g_cd>9933509</station_g_cd>
		<station_name>犬吠</station_name>
		<lon>140.860935</lon>
		<lat>35.706258</lat>
	</station>
	<station>
		<station_cd>9933510</station_cd>
		<station_g_cd>9933510</station_g_cd>
		<station_name>外川</station_name>
		<lon>140.857322</lon>
		<lat>35.699314</lat>
	</station>
</ekidata>
