{"line_cd":99339,"line_name":"箱根登山鉄道鉄道線","line_lon":139.09949102313,"line_lat":35.245979085622,"line_zoom":12,"station_l":[{"station_cd":9933901,"station_g_cd":1130116,"station_name":"小田原","lon":139.155396,"lat":35.256229},{"station_cd":9933902,"station_g_cd":9933902,"station_name":"箱根板橋","lon":139.145169,"lat":35.245169},{"station_cd":9933903,"station_g_cd":9933903,"station_name":"風祭","lon":139.129104,"lat":35.246229},{"station_cd":9933904,"station_g_cd":9933904,"station_name":"入生田","lon":139.121244,"lat":35.240894},{"station_cd":9933905,"station_g_cd":9933905,"station_name":"箱根湯本","lon":139.103743,"lat":35.233555},{"station_cd":9933906,"station_g_cd":9933906,"station_name":"塔ノ沢","lon":139.094016,"lat":35.234521},{"station_cd":9933907,"station_g_cd":9933907,"station_name":"大平台","lon":139.073849,"lat":35.238664},{"station_cd":9933908,"station_g_cd":9933908,"station_name":"宮ノ下","lon":139.063052,"lat":35.241913},{"station_cd":9933909,"station_g_cd":9933909,"station_name":"小涌谷","lon":139.053162,"lat":35.240374},{"station_cd":9933910,"station_g_cd":9933910,"station_name":"彫刻の森","lon":139.050856,"lat":35.246529},{"station_cd":9933911,"station_g_cd":9933911,"station_name":"強羅","lon":139.048162,"lat":35.25085}]}
