<?xml version="1.0" encoding="UTF-8"?>
<ekidata version="ekidata.jp line api 1.0">
	<line>
		<line_cd>99338</line_cd>
		<line_name>東葉高速線</line_name>
		<line_lon>140.03804726443</line_lon>
		<line_lat>35.719061</line_lat>
		<line_zoom>12</line_zoom>
	</line>
	<station>
		<station_cd>9933801</station_cd>
		<station_g_cd>1130524</station_g_cd>
		<station_name>西船橋</station_name>
		<lon>139.958972</lon>
		<lat>35.707127</lat>
	</station>
	<station>
		<station_cd>9933802</station_cd>
		<station_g_cd>9933802</station_g_cd>
		<station_name>東海神</station_name>
		<lon>139.980343</lon>
		<lat>35.705888</lat>
	</station>
	<station>
		<station_cd>9933803</station_cd>
		<station_g_cd>9933803</station_g_cd>
		<station_name>飯山満</station_name>
		<lon>140.0223</lon>
		<lat>35.71407</lat>
	</station>
	<station>
		<station_cd>9933804</station_cd>
		<station_g_cd>9932906</station_g_cd>
		<station_name>北習志野</station_name>
		<lon>140.04236</lon>
		<lat>35.721674</lat>
	</station>
	<station>
		<station_cd>9933805</station_cd>
		<station_g_cd>9933805</station_g_cd>
		<station_name>船橋日大前</station_name>
		<lon>140.058962</lon>
		<lat>35.726931</lat>
	</station>
	<station>
		<station_cd>9933806</station_cd>
		<station_g_cd>9933806</station_g_cd>
		<station_name>八千代緑が丘</station_name>
		<lon>140.073461</lon>
		<lat>35.728884</lat>
	</station>
	<station>
		<station_cd>9933807</station_cd>
		<station_g_cd>9933807</station_g_cd>
		<station_name>八千代中央</station_name>
		<lon>140.103713</lon>
		<lat>35.727807</lat>
	</station>
	<station>
		<station_cd>9933808</station_cd>
		<station_g_cd>9933808</station_g_cd>
		<station_name>村上</station_name>
		<lon>140.118375</lon>
		<lat>35.72371</lat>
	</station>
	<station>
		<station_cd>9933809</station_cd>
		<station_g_cd>2300131</station_g_cd>
		<station_name>東葉勝田台</station_name>
		<lon>140.126075</lon>
		<lat>35.715458</lat>
	</station>
</ekidata>
