<?xml version="1.0" encoding="UTF-8"?>
<ekidata version="ekidata.jp line api 1.0">
	<line>
		<line_cd>99408</line_cd>
		<line_name>富山地鉄本線</line_name>
		<line_lon>137.38976132823</line_lon>
		<line_lat>36.789882435974</line_lat>
		<line_zoom>11</line_zoom>
	</line>
	<station>
		<station_cd>9940801</station_cd>
		<station_g_cd>1140501</station_g_cd>
		<station_name>電鉄富山</station_name>
		<lon>137.214163</lon>
		<lat>36.700757</lat>
	</station>
	<station>
		<station_cd>9940802</station_cd>
		<station_g_cd>9940802</station_g_cd>
		<station_name>稲荷町</station_name>
		<lon>137.231247</lon>
		<lat>36.696597</lat>
	</station>
	<station>
		<station_cd>9940839</station_cd>
		<station_g_cd>9940839</station_g_cd>
		<station_name>新庄田中</station_name>
		<lon>137.241417</lon>
		<lat>36.697972</lat>
	</station>
	<station>
		<station_cd>9940803</station_cd>
		<station_g_cd>9940803</station_g_cd>
		<station_name>東新庄</station_name>
		<lon>137.253021</lon>
		<lat>36.698644</lat>
	</station>
	<station>
		<station_cd>9940804</station_cd>
		<station_g_cd>9940804</station_g_cd>
		<station_name>越中荏原</station_name>
		<lon>137.266222</lon>
		<lat>36.698978</lat>
	</station>
	<station>
		<station_cd>9940805</station_cd>
		<station_g_cd>9940805</station_g_cd>
		<station_name>越中三郷</station_name>
		<lon>137.290792</lon>
		<lat>36.703309</lat>
	</station>
	<station>
		<station_cd>9940806</station_cd>
		<station_g_cd>9940806</station_g_cd>
		<station_name>越中舟橋</station_name>
		<lon>137.306632</lon>
		<lat>36.705725</lat>
	</station>
	<station>
		<station_cd>9940807</station_cd>
		<station_g_cd>9940807</station_g_cd>
		<station_name>寺田</station_name>
		<lon>137.319145</lon>
		<lat>36.698852</lat>
	</station>
	<station>
		<station_cd>9940808</station_cd>
		<station_g_cd>9940808</station_g_cd>
		<station_name>越中泉</station_name>
		<lon>137.327245</lon>
		<lat>36.699905</lat>
	</station>
	<station>
		<station_cd>9940809</station_cd>
		<station_g_cd>9940809</station_g_cd>
		<station_name>相ノ木</station_name>
		<lon>137.335472</lon>
		<lat>36.701963</lat>
	</station>
	<station>
		<station_cd>9940840</station_cd>
		<station_g_cd>9940840</station_g_cd>
		<station_name>新相ノ木</station_name>
		<lon>137.342278</lon>
		<lat>36.703128</lat>
	</station>
	<station>
		<station_cd>9940810</station_cd>
		<station_g_cd>9940810</station_g_cd>
		<station_name>上市</station_name>
		<lon>137.357603</lon>
		<lat>36.704463</lat>
	</station>
	<station>
		<station_cd>9940811</station_cd>
		<station_g_cd>9940811</station_g_cd>
		<station_name>新宮川</station_name>
		<lon>137.351128</lon>
		<lat>36.717292</lat>
	</station>
	<station>
		<station_cd>9940812</station_cd>
		<station_g_cd>9940812</station_g_cd>
		<station_name>中加積</station_name>
		<lon>137.350947</lon>
		<lat>36.735309</lat>
	</station>
	<station>
		<station_cd>9940813</station_cd>
		<station_g_cd>9940813</station_g_cd>
		<station_name>西加積</station_name>
		<lon>137.340139</lon>
		<lat>36.746405</lat>
	</station>
	<station>
		<station_cd>9940814</station_cd>
		<station_g_cd>9940814</station_g_cd>
		<station_name>西滑川</station_name>
		<lon>137.334617</lon>
		<lat>36.755579</lat>
	</station>
	<station>
		<station_cd>9940815</station_cd>
		<station_g_cd>9940815</station_g_cd>
		<station_name>中滑川</station_name>
		<lon>137.339963</lon>
		<lat>36.761992</lat>
	</station>
	<station>
		<station_cd>9940816</station_cd>
		<station_g_cd>1140504</station_g_cd>
		<station_name>滑川</station_name>
		<lon>137.348676</lon>
		<lat>36.768955</lat>
	</station>
	<station>
		<station_cd>9940817</station_cd>
		<station_g_cd>9940817</station_g_cd>
		<station_name>浜加積</station_name>
		<lon>137.361411</lon>
		<lat>36.77743</lat>
	</station>
	<station>
		<station_cd>9940818</station_cd>
		<station_g_cd>9940818</station_g_cd>
		<station_name>早月加積</station_name>
		<lon>137.372079</lon>
		<lat>36.784082</lat>
	</station>
	<station>
		<station_cd>9940819</station_cd>
		<station_g_cd>9940819</station_g_cd>
		<station_name>越中中村</station_name>
		<lon>137.382688</lon>
		<lat>36.790673</lat>
	</station>
	<station>
		<station_cd>9940820</station_cd>
		<station_g_cd>9940820</station_g_cd>
		<station_name>西魚津</station_name>
		<lon>137.394653</lon>
		<lat>36.803775</lat>
	</station>
	<station>
		<station_cd>9940821</station_cd>
		<station_g_cd>9940821</station_g_cd>
		<station_name>電鉄魚津</station_name>
		<lon>137.400288</lon>
		<lat>36.815113</lat>
	</station>
	<station>
		<station_cd>9940822</station_cd>
		<station_g_cd>1140506</station_g_cd>
		<station_name>新魚津</station_name>
		<lon>137.405459</lon>
		<lat>36.82657</lat>
	</station>
	<station>
		<station_cd>9940823</station_cd>
		<station_g_cd>9940823</station_g_cd>
		<station_name>経田</station_name>
		<lon>137.416203</lon>
		<lat>36.848846</lat>
	</station>
	<station>
		<station_cd>9940824</station_cd>
		<station_g_cd>9940824</station_g_cd>
		<station_name>電鉄石田</station_name>
		<lon>137.423194</lon>
		<lat>36.865928</lat>
	</station>
	<station>
		<station_cd>9940825</station_cd>
		<station_g_cd>9940825</station_g_cd>
		<station_name>電鉄黒部</station_name>
		<lon>137.444125</lon>
		<lat>36.874091</lat>
	</station>
	<station>
		<station_cd>9940826</station_cd>
		<station_g_cd>9940826</station_g_cd>
		<station_name>東三日市</station_name>
		<lon>137.450908</lon>
		<lat>36.874677</lat>
	</station>
	<station>
		<station_cd>9940827</station_cd>
		<station_g_cd>9940827</station_g_cd>
		<station_name>荻生</station_name>
		<lon>137.459221</lon>
		<lat>36.875038</lat>
	</station>
	<station>
		<station_cd>9940828</station_cd>
		<station_g_cd>9940828</station_g_cd>
		<station_name>長屋</station_name>
		<lon>137.470803</lon>
		<lat>36.873678</lat>
	</station>
	<station>
		<station_cd>9940841</station_cd>
		<station_g_cd>100915</station_g_cd>
		<station_name>新黒部</station_name>
		<lon>137.4801774</lon>
		<lat>36.87316273</lat>
	</station>
	<station>
		<station_cd>9940829</station_cd>
		<station_g_cd>9940829</station_g_cd>
		<station_name>舌山</station_name>
		<lon>137.485948</lon>
		<lat>36.87187</lat>
	</station>
	<station>
		<station_cd>9940830</station_cd>
		<station_g_cd>9940830</station_g_cd>
		<station_name>若栗</station_name>
		<lon>137.493175</lon>
		<lat>36.871151</lat>
	</station>
	<station>
		<station_cd>9940831</station_cd>
		<station_g_cd>9940831</station_g_cd>
		<station_name>栃屋</station_name>
		<lon>137.505842</lon>
		<lat>36.869788</lat>
	</station>
	<station>
		<station_cd>9940832</station_cd>
		<station_g_cd>9940832</station_g_cd>
		<station_name>浦山</station_name>
		<lon>137.519407</lon>
		<lat>36.8634</lat>
	</station>
	<station>
		<station_cd>9940833</station_cd>
		<station_g_cd>9940833</station_g_cd>
		<station_name>下立口</station_name>
		<lon>137.532908</lon>
		<lat>36.859571</lat>
	</station>
	<station>
		<station_cd>9940834</station_cd>
		<station_g_cd>9940834</station_g_cd>
		<station_name>下立</station_name>
		<lon>137.541396</lon>
		<lat>36.857707</lat>
	</station>
	<station>
		<station_cd>9940835</station_cd>
		<station_g_cd>9940835</station_g_cd>
		<station_name>愛本</station_name>
		<lon>137.553769</lon>
		<lat>36.855975</lat>
	</station>
	<station>
		<station_cd>9940836</station_cd>
		<station_g_cd>9940836</station_g_cd>
		<station_name>内山</station_name>
		<lon>137.556733</lon>
		<lat>36.846826</lat>
	</station>
	<station>
		<station_cd>9940837</station_cd>
		<station_g_cd>9940837</station_g_cd>
		<station_name>音沢</station_name>
		<lon>137.559833</lon>
		<lat>36.840716</lat>
	</station>
	<station>
		<station_cd>9940838</station_cd>
		<station_g_cd>9940838</station_g_cd>
		<station_name>宇奈月温泉</station_name>
		<lon>137.583541</lon>
		<lat>36.815694</lat>
	</station>
</ekidata>
