{"line_cd":99417,"line_name":"北陸鉄道浅野川線","line_lon":136.64124453304,"line_lat":36.611011077535,"line_zoom":13,"station_l":[{"station_cd":9941701,"station_g_cd":1141543,"station_name":"北鉄金沢","lon":136.649524,"lat":36.578637},{"station_cd":9941702,"station_g_cd":9941702,"station_name":"七ツ屋","lon":136.651752,"lat":36.583108},{"station_cd":9941703,"station_g_cd":9941703,"station_name":"上諸江","lon":136.648941,"lat":36.590835},{"station_cd":9941704,"station_g_cd":9941704,"station_name":"磯部","lon":136.648313,"lat":36.596554},{"station_cd":9941705,"station_g_cd":9941705,"station_name":"割出","lon":136.648474,"lat":36.602619},{"station_cd":9941706,"station_g_cd":9941706,"station_name":"三口","lon":136.647579,"lat":36.606572},{"station_cd":9941707,"station_g_cd":9941707,"station_name":"三ツ屋","lon":136.645538,"lat":36.611941},{"station_cd":9941708,"station_g_cd":9941708,"station_name":"大河端","lon":136.643368,"lat":36.616701},{"station_cd":9941709,"station_g_cd":9941709,"station_name":"北間","lon":136.641265,"lat":36.622625},{"station_cd":9941710,"station_g_cd":9941710,"station_name":"蚊爪","lon":136.64319,"lat":36.625886},{"station_cd":9941711,"station_g_cd":9941711,"station_name":"粟ヶ崎","lon":136.638149,"lat":36.630224},{"station_cd":9941712,"station_g_cd":9941712,"station_name":"内灘","lon":136.63416,"lat":36.63336}]}
