<?xml version="1.0" encoding="UTF-8"?>
<ekidata version="ekidata.jp line api 1.0">
	<line>
		<line_cd>99422</line_cd>
		<line_name>富山地鉄富山都心線【３系統(環状線)】</line_name>
		<line_lon>137.2128868103</line_lon>
		<line_lat>36.695539154132</line_lat>
		<line_zoom>15</line_zoom>
	</line>
	<station>
		<station_cd>9942201</station_cd>
		<station_g_cd>9941316</station_g_cd>
		<station_name>丸の内</station_name>
		<lon>137.208896</lon>
		<lat>36.692563</lat>
	</station>
	<station>
		<station_cd>9942202</station_cd>
		<station_g_cd>9942202</station_g_cd>
		<station_name>国際会議場前</station_name>
		<lon>137.21139</lon>
		<lat>36.691654</lat>
	</station>
	<station>
		<station_cd>9942203</station_cd>
		<station_g_cd>9942203</station_g_cd>
		<station_name>大手モール</station_name>
		<lon>137.211334</lon>
		<lat>36.689388</lat>
	</station>
	<station>
		<station_cd>9942204</station_cd>
		<station_g_cd>9942204</station_g_cd>
		<station_name>グランドプラザ前</station_name>
		<lon>137.213386</lon>
		<lat>36.688923</lat>
	</station>
	<station>
		<station_cd>9942206</station_cd>
		<station_g_cd>9941321</station_g_cd>
		<station_name>中町（西町北）</station_name>
		<lon>137.215722</lon>
		<lat>36.690306</lat>
	</station>
	<station>
		<station_cd>9942207</station_cd>
		<station_g_cd>9941309</station_g_cd>
		<station_name>荒町</station_name>
		<lon>137.215805</lon>
		<lat>36.691513</lat>
	</station>
	<station>
		<station_cd>9942208</station_cd>
		<station_g_cd>9941310</station_g_cd>
		<station_name>桜橋</station_name>
		<lon>137.215934</lon>
		<lat>36.69461</lat>
	</station>
	<station>
		<station_cd>9942209</station_cd>
		<station_g_cd>9941311</station_g_cd>
		<station_name>電気ビル前</station_name>
		<lon>137.216105</lon>
		<lat>36.697432</lat>
	</station>
	<station>
		<station_cd>9942210</station_cd>
		<station_g_cd>9941312</station_g_cd>
		<station_name>地鉄ビル前</station_name>
		<lon>137.216105</lon>
		<lat>36.698584</lat>
	</station>
	<station>
		<station_cd>9942211</station_cd>
		<station_g_cd>1140501</station_g_cd>
		<station_name>電鉄富山駅・エスタ前</station_name>
		<lon>137.213316</lon>
		<lat>36.700236</lat>
	</station>
	<station>
		<station_cd>9942214</station_cd>
		<station_g_cd>1140501</station_g_cd>
		<station_name>富山駅</station_name>
		<lon>137.212864</lon>
		<lat>36.70161236</lat>
	</station>
	<station>
		<station_cd>9942212</station_cd>
		<station_g_cd>9941314</station_g_cd>
		<station_name>新富町</station_name>
		<lon>137.211256</lon>
		<lat>36.69886</lat>
	</station>
	<station>
		<station_cd>9942213</station_cd>
		<station_g_cd>9941315</station_g_cd>
		<station_name>県庁前</station_name>
		<lon>137.20984</lon>
		<lat>36.695728</lat>
	</station>
</ekidata>
