{"line_cd":99515,"line_name":"名古屋市営地下鉄名港線","line_lon":136.88966853969,"line_lat":35.125101331329,"line_zoom":13,"station_l":[{"station_cd":9951501,"station_g_cd":1141102,"station_name":"金山","lon":136.901611,"lat":35.14352},{"station_cd":9951502,"station_g_cd":9951502,"station_name":"日比野","lon":136.893125,"lat":35.132711},{"station_cd":9951503,"station_g_cd":9951503,"station_name":"六番町","lon":136.888715,"lat":35.124623},{"station_cd":9951504,"station_g_cd":9951504,"station_name":"東海通","lon":136.887336,"lat":35.113388},{"station_cd":9951505,"station_g_cd":9951505,"station_name":"港区役所","lon":136.88455,"lat":35.105736},{"station_cd":9951506,"station_g_cd":9951506,"station_name":"築地口","lon":136.883162,"lat":35.099348},{"station_cd":9951507,"station_g_cd":9951507,"station_name":"名古屋港","lon":136.881971,"lat":35.09348}]}
