<?xml version="1.0" encoding="UTF-8"?>
<ekidata version="ekidata.jp line api 1.0">
	<line>
		<line_cd>99633</line_cd>
		<line_name>三田線</line_name>
		<line_lon>135.22213786348</line_lon>
		<line_lat>34.850098613062</line_lat>
		<line_zoom>12</line_zoom>
	</line>
	<station>
		<station_cd>9963301</station_cd>
		<station_g_cd>9963215</station_g_cd>
		<station_name>有馬口</station_name>
		<lon>135.221018</lon>
		<lat>34.796477</lat>
	</station>
	<station>
		<station_cd>9963302</station_cd>
		<station_g_cd>9963302</station_g_cd>
		<station_name>五社</station_name>
		<lon>135.216243</lon>
		<lat>34.806253</lat>
	</station>
	<station>
		<station_cd>9963303</station_cd>
		<station_g_cd>9963303</station_g_cd>
		<station_name>岡場</station_name>
		<lon>135.222443</lon>
		<lat>34.821707</lat>
	</station>
	<station>
		<station_cd>9963304</station_cd>
		<station_g_cd>9963304</station_g_cd>
		<station_name>田尾寺</station_name>
		<lon>135.226153</lon>
		<lat>34.835664</lat>
	</station>
	<station>
		<station_cd>9963305</station_cd>
		<station_g_cd>9963305</station_g_cd>
		<station_name>二郎</station_name>
		<lon>135.227017</lon>
		<lat>34.848818</lat>
	</station>
	<station>
		<station_cd>9963306</station_cd>
		<station_g_cd>9963306</station_g_cd>
		<station_name>道場南口</station_name>
		<lon>135.223137</lon>
		<lat>34.856024</lat>
	</station>
	<station>
		<station_cd>9963307</station_cd>
		<station_g_cd>9963307</station_g_cd>
		<station_name>神鉄道場</station_name>
		<lon>135.226145</lon>
		<lat>34.866806</lat>
	</station>
	<station>
		<station_cd>9963308</station_cd>
		<station_g_cd>9963308</station_g_cd>
		<station_name>横山</station_name>
		<lon>135.219696</lon>
		<lat>34.876633</lat>
	</station>
	<station>
		<station_cd>9963309</station_cd>
		<station_g_cd>9963309</station_g_cd>
		<station_name>三田本町</station_name>
		<lon>135.229606</lon>
		<lat>34.881805</lat>
	</station>
	<station>
		<station_cd>9963310</station_cd>
		<station_g_cd>1162915</station_g_cd>
		<station_name>三田</station_name>
		<lon>135.23052</lon>
		<lat>34.888259</lat>
	</station>
</ekidata>
