<?xml version="1.0" encoding="UTF-8"?>
<ekidata version="ekidata.jp line api 1.0">
	<line>
		<line_cd>99649</line_cd>
		<line_name>六甲ライナー</line_name>
		<line_lon>135.26778466667</line_lon>
		<line_lat>34.702989444166</line_lat>
		<line_zoom>14</line_zoom>
	</line>
	<station>
		<station_cd>9964901</station_cd>
		<station_g_cd>1160310</station_g_cd>
		<station_name>住吉</station_name>
		<lon>135.262309</lon>
		<lat>34.719512</lat>
	</station>
	<station>
		<station_cd>9964902</station_cd>
		<station_g_cd>3500123</station_g_cd>
		<station_name>魚崎</station_name>
		<lon>135.268564</lon>
		<lat>34.713687</lat>
	</station>
	<station>
		<station_cd>9964903</station_cd>
		<station_g_cd>9964903</station_g_cd>
		<station_name>南魚崎</station_name>
		<lon>135.267661</lon>
		<lat>34.706751</lat>
	</station>
	<station>
		<station_cd>9964904</station_cd>
		<station_g_cd>9964904</station_g_cd>
		<station_name>アイランド北口</station_name>
		<lon>135.26875</lon>
		<lat>34.692853</lat>
	</station>
	<station>
		<station_cd>9964905</station_cd>
		<station_g_cd>9964905</station_g_cd>
		<station_name>アイランドセンター</station_name>
		<lon>135.269347</lon>
		<lat>34.689103</lat>
	</station>
	<station>
		<station_cd>9964906</station_cd>
		<station_g_cd>9964906</station_g_cd>
		<station_name>マリンパーク</station_name>
		<lon>135.270077</lon>
		<lat>34.684176</lat>
	</station>
</ekidata>
