{"line_cd":99707,"line_name":"清輝橋線","line_lon":133.92400867195,"line_lat":34.658570803527,"line_zoom":15,"station_l":[{"station_cd":9970701,"station_g_cd":1160917,"station_name":"岡山駅前","lon":133.9201,"lat":34.665458},{"station_cd":9970702,"station_g_cd":9970602,"station_name":"西川緑道公園","lon":133.923018,"lat":34.665599},{"station_cd":9970703,"station_g_cd":9970603,"station_name":"柳川","lon":133.925507,"lat":34.665635},{"station_cd":9970704,"station_g_cd":9970704,"station_name":"郵便局前","lon":133.92628,"lat":34.662634},{"station_cd":9970705,"station_g_cd":9970705,"station_name":"田町","lon":133.926322,"lat":34.660658},{"station_cd":9970706,"station_g_cd":9970706,"station_name":"新西大寺町筋","lon":133.92628,"lat":34.658504},{"station_cd":9970707,"station_g_cd":9970707,"station_name":"大雲寺前","lon":133.926237,"lat":34.656492},{"station_cd":9970709,"station_g_cd":9970709,"station_name":"東中央町","lon":133.926183,"lat":34.654445},{"station_cd":9970708,"station_g_cd":9970708,"station_name":"清輝橋","lon":133.925807,"lat":34.651691}]}
