<?xml version="1.0" encoding="UTF-8"?>
<ekidata version="ekidata.jp line api 1.0">
	<line>
		<line_cd>99717</line_cd>
		<line_name>広電９号線(白島線)</line_name>
		<line_lon>132.46416669312</line_lon>
		<line_lat>34.400808717675</line_lat>
		<line_zoom>15</line_zoom>
	</line>
	<station>
		<station_cd>9971701</station_cd>
		<station_g_cd>9971007</station_g_cd>
		<station_name>八丁堀</station_name>
		<lon>132.463403</lon>
		<lat>34.393897</lat>
	</station>
	<station>
		<station_cd>9971702</station_cd>
		<station_g_cd>9971702</station_g_cd>
		<station_name>女学院前</station_name>
		<lon>132.464776</lon>
		<lat>34.397827</lat>
	</station>
	<station>
		<station_cd>9971703</station_cd>
		<station_g_cd>9971703</station_g_cd>
		<station_name>縮景園前</station_name>
		<lon>132.465334</lon>
		<lat>34.399881</lat>
	</station>
	<station>
		<station_cd>9971704</station_cd>
		<station_g_cd>9971704</station_g_cd>
		<station_name>家庭裁判所前</station_name>
		<lon>132.466106</lon>
		<lat>34.402289</lat>
	</station>
	<station>
		<station_cd>9971705</station_cd>
		<station_g_cd>9971705</station_g_cd>
		<station_name>白島</station_name>
		<lon>132.465506</lon>
		<lat>34.404484</lat>
	</station>
</ekidata>
