<?xml version="1.0" encoding="UTF-8"?>
<ekidata version="ekidata.jp line api 1.0">
	<line>
		<line_cd>99804</line_cd>
		<line_name>琴電志度線</line_name>
		<line_lon>134.11657160352</line_lon>
		<line_lat>34.345151934388</line_lat>
		<line_zoom>12</line_zoom>
	</line>
	<station>
		<station_cd>9980401</station_cd>
		<station_g_cd>9980203</station_g_cd>
		<station_name>瓦町</station_name>
		<lon>134.052529</lon>
		<lat>34.338827</lat>
	</station>
	<station>
		<station_cd>9980402</station_cd>
		<station_g_cd>9980402</station_g_cd>
		<station_name>今橋</station_name>
		<lon>134.058782</lon>
		<lat>34.341577</lat>
	</station>
	<station>
		<station_cd>9980403</station_cd>
		<station_g_cd>9980403</station_g_cd>
		<station_name>松島二丁目</station_name>
		<lon>134.064626</lon>
		<lat>34.339986</lat>
	</station>
	<station>
		<station_cd>9980404</station_cd>
		<station_g_cd>9980404</station_g_cd>
		<station_name>沖松島</station_name>
		<lon>134.072253</lon>
		<lat>34.341219</lat>
	</station>
	<station>
		<station_cd>9980405</station_cd>
		<station_g_cd>9980405</station_g_cd>
		<station_name>春日川</station_name>
		<lon>134.083566</lon>
		<lat>34.340969</lat>
	</station>
	<station>
		<station_cd>9980406</station_cd>
		<station_g_cd>9980406</station_g_cd>
		<station_name>潟元</station_name>
		<lon>134.098231</lon>
		<lat>34.341363</lat>
	</station>
	<station>
		<station_cd>9980407</station_cd>
		<station_g_cd>9980407</station_g_cd>
		<station_name>琴電屋島</station_name>
		<lon>134.105763</lon>
		<lat>34.341624</lat>
	</station>
	<station>
		<station_cd>9980408</station_cd>
		<station_g_cd>9980408</station_g_cd>
		<station_name>古高松</station_name>
		<lon>134.11244</lon>
		<lat>34.340844</lat>
	</station>
	<station>
		<station_cd>9980409</station_cd>
		<station_g_cd>9980409</station_g_cd>
		<station_name>八栗</station_name>
		<lon>134.122439</lon>
		<lat>34.344582</lat>
	</station>
	<station>
		<station_cd>9980410</station_cd>
		<station_g_cd>9980410</station_g_cd>
		<station_name>六万寺</station_name>
		<lon>134.134088</lon>
		<lat>34.342655</lat>
	</station>
	<station>
		<station_cd>9980411</station_cd>
		<station_g_cd>9980411</station_g_cd>
		<station_name>大町</station_name>
		<lon>134.141354</lon>
		<lat>34.337333</lat>
	</station>
	<station>
		<station_cd>9980412</station_cd>
		<station_g_cd>1180209</station_g_cd>
		<station_name>八栗新道</station_name>
		<lon>134.147295</lon>
		<lat>34.336705</lat>
	</station>
	<station>
		<station_cd>9980413</station_cd>
		<station_g_cd>9980413</station_g_cd>
		<station_name>塩屋</station_name>
		<lon>134.155142</lon>
		<lat>34.335583</lat>
	</station>
	<station>
		<station_cd>9980414</station_cd>
		<station_g_cd>9980414</station_g_cd>
		<station_name>房前</station_name>
		<lon>134.158483</lon>
		<lat>34.332367</lat>
	</station>
	<station>
		<station_cd>9980415</station_cd>
		<station_g_cd>9980415</station_g_cd>
		<station_name>原</station_name>
		<lon>134.163654</lon>
		<lat>34.32641</lat>
	</station>
	<station>
		<station_cd>9980416</station_cd>
		<station_g_cd>1180210</station_g_cd>
		<station_name>琴電志度</station_name>
		<lon>134.172528</lon>
		<lat>34.32246</lat>
	</station>
</ekidata>
