<?xml version="1.0" encoding="UTF-8"?>
<ekidata version="ekidata.jp line api 1.0">
	<line>
		<line_cd>99808</line_cd>
		<line_name>伊予鉄道環状線</line_name>
		<line_lon>132.76223714813</line_lon>
		<line_lat>33.844895617528</line_lat>
		<line_zoom>14</line_zoom>
	</line>
	<station>
		<station_cd>9980801</station_cd>
		<station_g_cd>9980501</station_g_cd>
		<station_name>松山市駅前</station_name>
		<lon>132.762587</lon>
		<lat>33.836148</lat>
	</station>
	<station>
		<station_cd>9980802</station_cd>
		<station_g_cd>9980802</station_g_cd>
		<station_name>南堀端</station_name>
		<lon>132.761664</lon>
		<lat>33.839213</lat>
	</station>
	<station>
		<station_cd>9980803</station_cd>
		<station_g_cd>9980803</station_g_cd>
		<station_name>西堀端</station_name>
		<lon>132.75866</lon>
		<lat>33.840105</lat>
	</station>
	<station>
		<station_cd>9980804</station_cd>
		<station_g_cd>9980609</station_g_cd>
		<station_name>大手町</station_name>
		<lon>132.755384</lon>
		<lat>33.839726</lat>
	</station>
	<station>
		<station_cd>9980805</station_cd>
		<station_g_cd>1180657</station_g_cd>
		<station_name>松山駅前</station_name>
		<lon>132.752326</lon>
		<lat>33.840765</lat>
	</station>
	<station>
		<station_cd>9980806</station_cd>
		<station_g_cd>9980806</station_g_cd>
		<station_name>宮田町</station_name>
		<lon>132.752626</lon>
		<lat>33.843948</lat>
	</station>
	<station>
		<station_cd>9980807</station_cd>
		<station_g_cd>9980608</station_g_cd>
		<station_name>古町</station_name>
		<lon>132.754998</lon>
		<lat>33.846978</lat>
	</station>
	<station>
		<station_cd>9980808</station_cd>
		<station_g_cd>9980808</station_g_cd>
		<station_name>萱町六丁目</station_name>
		<lon>132.756226</lon>
		<lat>33.851756</lat>
	</station>
	<station>
		<station_cd>9980809</station_cd>
		<station_g_cd>9980809</station_g_cd>
		<station_name>本町六丁目</station_name>
		<lon>132.758473</lon>
		<lat>33.853472</lat>
	</station>
	<station>
		<station_cd>9980810</station_cd>
		<station_g_cd>9980810</station_g_cd>
		<station_name>木屋町</station_name>
		<lon>132.760776</lon>
		<lat>33.853483</lat>
	</station>
	<station>
		<station_cd>9980811</station_cd>
		<station_g_cd>9980811</station_g_cd>
		<station_name>高砂町</station_name>
		<lon>132.762464</lon>
		<lat>33.851664</lat>
	</station>
	<station>
		<station_cd>9980812</station_cd>
		<station_g_cd>9980812</station_g_cd>
		<station_name>清水町</station_name>
		<lon>132.764281</lon>
		<lat>33.849328</lat>
	</station>
	<station>
		<station_cd>9980813</station_cd>
		<station_g_cd>9980813</station_g_cd>
		<station_name>鉄砲町</station_name>
		<lon>132.769011</lon>
		<lat>33.84829</lat>
	</station>
	<station>
		<station_cd>9980814</station_cd>
		<station_g_cd>9980814</station_g_cd>
		<station_name>赤十字病院前</station_name>
		<lon>132.772383</lon>
		<lat>33.848115</lat>
	</station>
	<station>
		<station_cd>9980815</station_cd>
		<station_g_cd>9980815</station_g_cd>
		<station_name>平和通一丁目</station_name>
		<lon>132.774452</lon>
		<lat>33.847673</lat>
	</station>
	<station>
		<station_cd>9980816</station_cd>
		<station_g_cd>9980816</station_g_cd>
		<station_name>上一万</station_name>
		<lon>132.775502</lon>
		<lat>33.846737</lat>
	</station>
	<station>
		<station_cd>9980817</station_cd>
		<station_g_cd>9980817</station_g_cd>
		<station_name>警察署前</station_name>
		<lon>132.775354</lon>
		<lat>33.844596</lat>
	</station>
	<station>
		<station_cd>9980818</station_cd>
		<station_g_cd>9980818</station_g_cd>
		<station_name>勝山町</station_name>
		<lon>132.774818</lon>
		<lat>33.841709</lat>
	</station>
	<station>
		<station_cd>9980819</station_cd>
		<station_g_cd>9980819</station_g_cd>
		<station_name>大街道</station_name>
		<lon>132.769861</lon>
		<lat>33.841103</lat>
	</station>
	<station>
		<station_cd>9980820</station_cd>
		<station_g_cd>9980820</station_g_cd>
		<station_name>県庁前</station_name>
		<lon>132.766364</lon>
		<lat>33.841067</lat>
	</station>
	<station>
		<station_cd>9980821</station_cd>
		<station_g_cd>9980821</station_g_cd>
		<station_name>市役所前</station_name>
		<lon>132.764819</lon>
		<lat>33.839926</lat>
	</station>
</ekidata>
