{"line_cd":99818,"line_name":"伊野線","line_lon":133.49190174651,"line_lat":33.552422392092,"line_zoom":12,"station_l":[{"station_cd":9981801,"station_g_cd":9981733,"station_name":"はりまや橋","lon":133.542852,"lat":33.559617},{"station_cd":9981802,"station_g_cd":9981802,"station_name":"堀詰","lon":133.539441,"lat":33.559546},{"station_cd":9981803,"station_g_cd":9981803,"station_name":"大橋通","lon":133.536415,"lat":33.558974},{"station_cd":9981804,"station_g_cd":9981804,"station_name":"高知城前","lon":133.534248,"lat":33.558491},{"station_cd":9981805,"station_g_cd":9981805,"station_name":"県庁前","lon":133.531222,"lat":33.55799},{"station_cd":9981806,"station_g_cd":9981806,"station_name":"グランド通","lon":133.529356,"lat":33.55774},{"station_cd":9981807,"station_g_cd":9981807,"station_name":"枡形","lon":133.527145,"lat":33.557382},{"station_cd":9981808,"station_g_cd":9981808,"station_name":"上町一丁目","lon":133.525107,"lat":33.557489},{"station_cd":9981809,"station_g_cd":9981809,"station_name":"上町二丁目","lon":133.522897,"lat":33.557382},{"station_cd":9981810,"station_g_cd":9981810,"station_name":"上町四丁目","lon":133.519657,"lat":33.557382},{"station_cd":9981811,"station_g_cd":9981811,"station_name":"上町五丁目","lon":133.516674,"lat":33.557275},{"station_cd":9981812,"station_g_cd":9981812,"station_name":"旭町一丁目","lon":133.51352,"lat":33.556774},{"station_cd":9981813,"station_g_cd":9981813,"station_name":"旭駅前通","lon":133.509636,"lat":33.555987},{"station_cd":9981814,"station_g_cd":9981814,"station_name":"旭町三丁目","lon":133.506482,"lat":33.555701},{"station_cd":9981815,"station_g_cd":9981815,"station_name":"蛍橋","lon":133.502641,"lat":33.555487},{"station_cd":9981816,"station_g_cd":9981816,"station_name":"鏡川橋","lon":133.498456,"lat":33.555665},{"station_cd":9981817,"station_g_cd":9981817,"station_name":"鴨部","lon":133.497276,"lat":33.552232},{"station_cd":9981818,"station_g_cd":9981818,"station_name":"曙町東町","lon":133.493307,"lat":33.551624},{"station_cd":9981819,"station_g_cd":9981819,"station_name":"曙町","lon":133.490946,"lat":33.551159},{"station_cd":9981820,"station_g_cd":9981820,"station_name":"朝倉","lon":133.488157,"lat":33.550712},{"station_cd":9981821,"station_g_cd":1180139,"station_name":"朝倉駅前","lon":133.484294,"lat":33.551141},{"station_cd":9981822,"station_g_cd":9981822,"station_name":"朝倉神社前","lon":133.481097,"lat":33.551892},{"station_cd":9981823,"station_g_cd":9981823,"station_name":"宮の奥","lon":133.475883,"lat":33.552357},{"station_cd":9981824,"station_g_cd":9981824,"station_name":"咥内","lon":133.470454,"lat":33.552393},{"station_cd":9981825,"station_g_cd":9981825,"station_name":"宇治団地前","lon":133.461227,"lat":33.551928},{"station_cd":9981826,"station_g_cd":9981826,"station_name":"八代通","lon":133.456399,"lat":33.552214},{"station_cd":9981827,"station_g_cd":9981827,"station_name":"中山","lon":133.452644,"lat":33.551857},{"station_cd":9981828,"station_g_cd":1180140,"station_name":"枝川","lon":133.449404,"lat":33.551463},{"station_cd":9981829,"station_g_cd":9981829,"station_name":"伊野商業前","lon":133.444362,"lat":33.550569},{"station_cd":9981834,"station_g_cd":9981834,"station_name":"北内","lon":133.441336,"lat":33.549961},{"station_cd":9981830,"station_g_cd":9981830,"station_name":"北山","lon":133.438504,"lat":33.549425},{"station_cd":9981831,"station_g_cd":9981831,"station_name":"鳴谷","lon":133.433032,"lat":33.548852},{"station_cd":9981832,"station_g_cd":1180141,"station_name":"伊野駅前","lon":133.429663,"lat":33.548602},{"station_cd":9981833,"station_g_cd":9981833,"station_name":"伊野","lon":133.428397,"lat":33.548602}]}
