
if(typeof(xml)=='undefined') xml = {};
xml.data = {"line_cd":11210,"line_name":"JR北上線","line_lon":140.84662392256,"line_lat":39.304718789615,"line_zoom":10,"station_l":[{"station_cd":1121001,"station_g_cd":1123174,"station_name":"北上","lon":141.121221,"lat":39.281196},{"station_cd":1121002,"station_g_cd":1121002,"station_name":"柳原","lon":141.111671,"lat":39.294597},{"station_cd":1121003,"station_g_cd":1121003,"station_name":"江釣子","lon":141.075749,"lat":39.298349},{"station_cd":1121004,"station_g_cd":1121004,"station_name":"藤根","lon":141.039571,"lat":39.301064},{"station_cd":1121005,"station_g_cd":1121005,"station_name":"立川目","lon":140.997144,"lat":39.307876},{"station_cd":1121006,"station_g_cd":1121006,"station_name":"横川目","lon":140.972143,"lat":39.309255},{"station_cd":1121007,"station_g_cd":1121007,"station_name":"岩沢","lon":140.931616,"lat":39.301016},{"station_cd":1121008,"station_g_cd":1121008,"station_name":"和賀仙人","lon":140.909485,"lat":39.308523},{"station_cd":1121009,"station_g_cd":1121009,"station_name":"ゆだ錦秋湖","lon":140.835343,"lat":39.295513},{"station_cd":1121010,"station_g_cd":1121010,"station_name":"ほっとゆだ","lon":140.775647,"lat":39.314493},{"station_cd":1121011,"station_g_cd":1121011,"station_name":"ゆだ高原","lon":140.737205,"lat":39.301074},{"station_cd":1121012,"station_g_cd":1121012,"station_name":"黒沢","lon":140.699619,"lat":39.276243},{"station_cd":1121013,"station_g_cd":1121013,"station_name":"小松川","lon":140.646094,"lat":39.293403},{"station_cd":1121014,"station_g_cd":1121014,"station_name":"平石","lon":140.628457,"lat":39.291678},{"station_cd":1121015,"station_g_cd":1121015,"station_name":"相野々","lon":140.619067,"lat":39.27805},{"station_cd":1121016,"station_g_cd":1121016,"station_name":"矢美津","lon":140.592099,"lat":39.291283},{"station_cd":1121017,"station_g_cd":1120217,"station_name":"横手","lon":140.5604,"lat":39.310146}]}
if(typeof(xml.onload)=='function') xml.onload(xml.data);
