
if(typeof(xml)=='undefined') xml = {};
xml.data = {"line_cd":11221,"line_name":"奥の細道湯けむりライン","line_lon":140.68130433847,"line_lat":38.730039719484,"line_zoom":10,"station_l":[{"station_cd":1122101,"station_g_cd":1123156,"station_name":"小牛田","lon":141.064355,"lat":38.541111},{"station_cd":1122102,"station_g_cd":1122102,"station_name":"北浦","lon":141.02305,"lat":38.55985},{"station_cd":1122103,"station_g_cd":1122103,"station_name":"陸前谷地","lon":140.999453,"lat":38.565152},{"station_cd":1122104,"station_g_cd":1122104,"station_name":"古川","lon":140.967876,"lat":38.571192},{"station_cd":1122105,"station_g_cd":1122105,"station_name":"塚目","lon":140.937093,"lat":38.572474},{"station_cd":1122106,"station_g_cd":1122106,"station_name":"西古川","lon":140.895416,"lat":38.578214},{"station_cd":1122107,"station_g_cd":1122107,"station_name":"東大崎","lon":140.897015,"lat":38.605627},{"station_cd":1122108,"station_g_cd":1122108,"station_name":"西大崎","lon":140.889638,"lat":38.629986},{"station_cd":1122109,"station_g_cd":1122109,"station_name":"岩出山","lon":140.871492,"lat":38.652508},{"station_cd":1122110,"station_g_cd":1122110,"station_name":"有備館","lon":140.86442,"lat":38.658135},{"station_cd":1122111,"station_g_cd":1122111,"station_name":"上野目","lon":140.859342,"lat":38.680563},{"station_cd":1122112,"station_g_cd":1122112,"station_name":"池月","lon":140.835732,"lat":38.708948},{"station_cd":1122113,"station_g_cd":1122113,"station_name":"川渡温泉","lon":140.779317,"lat":38.736834},{"station_cd":1122114,"station_g_cd":1122114,"station_name":"鳴子御殿湯","lon":140.737148,"lat":38.744612},{"station_cd":1122115,"station_g_cd":1122115,"station_name":"鳴子温泉","lon":140.715939,"lat":38.743193},{"station_cd":1122116,"station_g_cd":1122116,"station_name":"中山平温泉","lon":140.668103,"lat":38.726568},{"station_cd":1122117,"station_g_cd":1122117,"station_name":"堺田","lon":140.612902,"lat":38.73549},{"station_cd":1122118,"station_g_cd":1122118,"station_name":"赤倉温泉","lon":140.553647,"lat":38.730535},{"station_cd":1122119,"station_g_cd":1122119,"station_name":"立小路","lon":140.542678,"lat":38.742045},{"station_cd":1122120,"station_g_cd":1122120,"station_name":"最上","lon":140.517712,"lat":38.755959},{"station_cd":1122121,"station_g_cd":1122121,"station_name":"大堀","lon":140.475377,"lat":38.76592},{"station_cd":1122122,"station_g_cd":1122122,"station_name":"鵜杉","lon":140.453698,"lat":38.764962},{"station_cd":1122123,"station_g_cd":1122123,"station_name":"瀬見温泉","lon":140.419557,"lat":38.755192},{"station_cd":1122124,"station_g_cd":1122124,"station_name":"東長沢","lon":140.382195,"lat":38.718898},{"station_cd":1122125,"station_g_cd":1122125,"station_name":"長沢","lon":140.365969,"lat":38.709782},{"station_cd":1122126,"station_g_cd":1122126,"station_name":"南新庄","lon":140.316212,"lat":38.721629},{"station_cd":1122127,"station_g_cd":1120201,"station_name":"新庄","lon":140.306064,"lat":38.76256}]}
if(typeof(xml.onload)=='function') xml.onload(xml.data);
