<?xml version="1.0" encoding="UTF-8"?>
<ekidata version="ekidata.jp line api 1.0">
	<line>
		<line_cd>11222</line_cd>
		<line_name>JR仙石線</line_name>
		<line_lon>141.07264180992</line_lon>
		<line_lat>38.36634215832</line_lat>
		<line_zoom>11</line_zoom>
	</line>
	<station>
		<station_cd>1122201</station_cd>
		<station_g_cd>1122201</station_g_cd>
		<station_name>あおば通</station_name>
		<lon>140.878514</lon>
		<lat>38.260749</lat>
	</station>
	<station>
		<station_cd>1122202</station_cd>
		<station_g_cd>1123143</station_g_cd>
		<station_name>仙台</station_name>
		<lon>140.882158</lon>
		<lat>38.260027</lat>
	</station>
	<station>
		<station_cd>1122203</station_cd>
		<station_g_cd>1122203</station_g_cd>
		<station_name>榴ケ岡</station_name>
		<lon>140.893782</lon>
		<lat>38.258792</lat>
	</station>
	<station>
		<station_cd>1122204</station_cd>
		<station_g_cd>1122204</station_g_cd>
		<station_name>宮城野原</station_name>
		<lon>140.905155</lon>
		<lat>38.26115</lat>
	</station>
	<station>
		<station_cd>1122205</station_cd>
		<station_g_cd>1122205</station_g_cd>
		<station_name>陸前原ノ町</station_name>
		<lon>140.910638</lon>
		<lat>38.266017</lat>
	</station>
	<station>
		<station_cd>1122206</station_cd>
		<station_g_cd>1122206</station_g_cd>
		<station_name>苦竹</station_name>
		<lon>140.918867</lon>
		<lat>38.268722</lat>
	</station>
	<station>
		<station_cd>1122207</station_cd>
		<station_g_cd>1122207</station_g_cd>
		<station_name>小鶴新田</station_name>
		<lon>140.935446</lon>
		<lat>38.273455</lat>
	</station>
	<station>
		<station_cd>1122208</station_cd>
		<station_g_cd>1122208</station_g_cd>
		<station_name>福田町</station_name>
		<lon>140.958252</lon>
		<lat>38.274967</lat>
	</station>
	<station>
		<station_cd>1122209</station_cd>
		<station_g_cd>1122209</station_g_cd>
		<station_name>陸前高砂</station_name>
		<lon>140.967607</lon>
		<lat>38.27344</lat>
	</station>
	<station>
		<station_cd>1122210</station_cd>
		<station_g_cd>1122210</station_g_cd>
		<station_name>中野栄</station_name>
		<lon>140.985236</lon>
		<lat>38.280796</lat>
	</station>
	<station>
		<station_cd>1122211</station_cd>
		<station_g_cd>1122211</station_g_cd>
		<station_name>多賀城</station_name>
		<lon>141.005375</lon>
		<lat>38.291656</lat>
	</station>
	<station>
		<station_cd>1122212</station_cd>
		<station_g_cd>1122212</station_g_cd>
		<station_name>下馬</station_name>
		<lon>141.014965</lon>
		<lat>38.305833</lat>
	</station>
	<station>
		<station_cd>1122213</station_cd>
		<station_g_cd>1122213</station_g_cd>
		<station_name>西塩釜</station_name>
		<lon>141.018419</lon>
		<lat>38.31194</lat>
	</station>
	<station>
		<station_cd>1122214</station_cd>
		<station_g_cd>1122214</station_g_cd>
		<station_name>本塩釜</station_name>
		<lon>141.022477</lon>
		<lat>38.317715</lat>
	</station>
	<station>
		<station_cd>1122215</station_cd>
		<station_g_cd>1122215</station_g_cd>
		<station_name>東塩釜</station_name>
		<lon>141.031665</lon>
		<lat>38.325572</lat>
	</station>
	<station>
		<station_cd>1122216</station_cd>
		<station_g_cd>1122216</station_g_cd>
		<station_name>陸前浜田</station_name>
		<lon>141.041818</lon>
		<lat>38.350747</lat>
	</station>
	<station>
		<station_cd>1122217</station_cd>
		<station_g_cd>1122217</station_g_cd>
		<station_name>松島海岸</station_name>
		<lon>141.058523</lon>
		<lat>38.368529</lat>
	</station>
	<station>
		<station_cd>1122218</station_cd>
		<station_g_cd>1122218</station_g_cd>
		<station_name>高城町</station_name>
		<lon>141.07344</lon>
		<lat>38.382731</lat>
	</station>
	<station>
		<station_cd>1122219</station_cd>
		<station_g_cd>1122219</station_g_cd>
		<station_name>手樽</station_name>
		<lon>141.092846</lon>
		<lat>38.38715</lat>
	</station>
	<station>
		<station_cd>1122220</station_cd>
		<station_g_cd>1122220</station_g_cd>
		<station_name>陸前富山</station_name>
		<lon>141.107208</lon>
		<lat>38.386307</lat>
	</station>
	<station>
		<station_cd>1122221</station_cd>
		<station_g_cd>1122221</station_g_cd>
		<station_name>陸前大塚</station_name>
		<lon>141.12947</lon>
		<lat>38.379078</lat>
	</station>
	<station>
		<station_cd>1122222</station_cd>
		<station_g_cd>1122222</station_g_cd>
		<station_name>東名</station_name>
		<lon>141.14548</lon>
		<lat>38.37529956</lat>
	</station>
	<station>
		<station_cd>1122223</station_cd>
		<station_g_cd>1122223</station_g_cd>
		<station_name>野蒜</station_name>
		<lon>141.1570349</lon>
		<lat>38.3790003</lat>
	</station>
	<station>
		<station_cd>1122224</station_cd>
		<station_g_cd>1122224</station_g_cd>
		<station_name>陸前小野</station_name>
		<lon>141.174345</lon>
		<lat>38.396018</lat>
	</station>
	<station>
		<station_cd>1122225</station_cd>
		<station_g_cd>1122225</station_g_cd>
		<station_name>鹿妻</station_name>
		<lon>141.190073</lon>
		<lat>38.403315</lat>
	</station>
	<station>
		<station_cd>1122226</station_cd>
		<station_g_cd>1122226</station_g_cd>
		<station_name>矢本</station_name>
		<lon>141.209148</lon>
		<lat>38.420432</lat>
	</station>
	<station>
		<station_cd>1122227</station_cd>
		<station_g_cd>1122227</station_g_cd>
		<station_name>東矢本</station_name>
		<lon>141.22216</lon>
		<lat>38.427993</lat>
	</station>
	<station>
		<station_cd>1122228</station_cd>
		<station_g_cd>1122228</station_g_cd>
		<station_name>陸前赤井</station_name>
		<lon>141.238883</lon>
		<lat>38.432442</lat>
	</station>
	<station>
		<station_cd>1122232</station_cd>
		<station_g_cd>1122232</station_g_cd>
		<station_name>石巻あゆみ野</station_name>
		<lon>141.259444</lon>
		<lat>38.436111</lat>
	</station>
	<station>
		<station_cd>1122229</station_cd>
		<station_g_cd>1122229</station_g_cd>
		<station_name>蛇田</station_name>
		<lon>141.277652</lon>
		<lat>38.438218</lat>
	</station>
	<station>
		<station_cd>1122230</station_cd>
		<station_g_cd>1122230</station_g_cd>
		<station_name>陸前山下</station_name>
		<lon>141.288868</lon>
		<lat>38.437718</lat>
	</station>
	<station>
		<station_cd>1122231</station_cd>
		<station_g_cd>1122231</station_g_cd>
		<station_name>石巻</station_name>
		<lon>141.303553</lon>
		<lat>38.43538</lat>
	</station>
</ekidata>
