{"line_cd":11313,"line_name":"JR中央・総武線","line_lon":139.83715522681,"line_lat":35.701641362335,"line_zoom":10,"station_l":[{"station_cd":1131301,"station_g_cd":1131105,"station_name":"三鷹","lon":139.560325,"lat":35.702683},{"station_cd":1131302,"station_g_cd":1131104,"station_name":"吉祥寺","lon":139.579765,"lat":35.703119},{"station_cd":1131303,"station_g_cd":1131218,"station_name":"西荻窪","lon":139.599361,"lat":35.703842},{"station_cd":1131304,"station_g_cd":1131217,"station_name":"荻窪","lon":139.620109,"lat":35.704523},{"station_cd":1131305,"station_g_cd":1131216,"station_name":"阿佐ケ谷","lon":139.635868,"lat":35.704818},{"station_cd":1131306,"station_g_cd":1131215,"station_name":"高円寺","lon":139.649664,"lat":35.705326},{"station_cd":1131307,"station_g_cd":1131214,"station_name":"中野","lon":139.665835,"lat":35.705765},{"station_cd":1131308,"station_g_cd":1131308,"station_name":"東中野","lon":139.684436,"lat":35.706529},{"station_cd":1131309,"station_g_cd":1131309,"station_name":"大久保","lon":139.69732,"lat":35.700784},{"station_cd":1131310,"station_g_cd":1130208,"station_name":"新宿","lon":139.700464,"lat":35.689729},{"station_cd":1131311,"station_g_cd":1130207,"station_name":"代々木","lon":139.702042,"lat":35.683061},{"station_cd":1131312,"station_g_cd":1131312,"station_name":"千駄ケ谷","lon":139.711644,"lat":35.681231},{"station_cd":1131313,"station_g_cd":1131313,"station_name":"信濃町","lon":139.720729,"lat":35.680031},{"station_cd":1131314,"station_g_cd":1131102,"station_name":"四ツ谷","lon":139.730644,"lat":35.686041},{"station_cd":1131315,"station_g_cd":1131315,"station_name":"市ケ谷","lon":139.735583,"lat":35.691},{"station_cd":1131316,"station_g_cd":1131316,"station_name":"飯田橋","lon":139.745143,"lat":35.701835},{"station_cd":1131317,"station_g_cd":1131317,"station_name":"水道橋","lon":139.754312,"lat":35.702039},{"station_cd":1131318,"station_g_cd":1131203,"station_name":"御茶ノ水","lon":139.764955,"lat":35.699605},{"station_cd":1131319,"station_g_cd":1130222,"station_name":"秋葉原","lon":139.773288,"lat":35.698619},{"station_cd":1131320,"station_g_cd":1131320,"station_name":"浅草橋","lon":139.784427,"lat":35.697403},{"station_cd":1131321,"station_g_cd":1131321,"station_name":"両国","lon":139.793334,"lat":35.69579},{"station_cd":1131322,"station_g_cd":1131322,"station_name":"錦糸町","lon":139.814136,"lat":35.696802},{"station_cd":1131323,"station_g_cd":1131323,"station_name":"亀戸","lon":139.826262,"lat":35.697345},{"station_cd":1131324,"station_g_cd":1131324,"station_name":"平井","lon":139.842181,"lat":35.70643},{"station_cd":1131325,"station_g_cd":1131325,"station_name":"新小岩","lon":139.857777,"lat":35.716903},{"station_cd":1131326,"station_g_cd":1131326,"station_name":"小岩","lon":139.881755,"lat":35.733207},{"station_cd":1131327,"station_g_cd":1131327,"station_name":"市川","lon":139.908142,"lat":35.728903},{"station_cd":1131328,"station_g_cd":1131328,"station_name":"本八幡","lon":139.92741,"lat":35.720898},{"station_cd":1131329,"station_g_cd":1131329,"station_name":"下総中山","lon":139.943092,"lat":35.714276},{"station_cd":1131330,"station_g_cd":1130524,"station_name":"西船橋","lon":139.959536,"lat":35.707283},{"station_cd":1131331,"station_g_cd":1131331,"station_name":"船橋","lon":139.984707,"lat":35.701865},{"station_cd":1131332,"station_g_cd":1131332,"station_name":"東船橋","lon":140.00393,"lat":35.699811},{"station_cd":1131333,"station_g_cd":1131333,"station_name":"津田沼","lon":140.020179,"lat":35.691367},{"station_cd":1131334,"station_g_cd":1131334,"station_name":"幕張本郷","lon":140.042241,"lat":35.672664},{"station_cd":1131335,"station_g_cd":1131335,"station_name":"幕張","lon":140.057899,"lat":35.6594},{"station_cd":1131336,"station_g_cd":1131336,"station_name":"新検見川","lon":140.073025,"lat":35.65169},{"station_cd":1131337,"station_g_cd":1131337,"station_name":"稲毛","lon":140.09256,"lat":35.637264},{"station_cd":1131338,"station_g_cd":1131338,"station_name":"西千葉","lon":140.103337,"lat":35.622639},{"station_cd":1131339,"station_g_cd":1131339,"station_name":"千葉","lon":140.112837,"lat":35.613425}]}
