<?xml version="1.0" encoding="UTF-8"?>
<ekidata version="ekidata.jp line api 1.0">
	<line>
		<line_cd>11316</line_cd>
		<line_name>JR五日市線</line_name>
		<line_lon>139.29165743388</line_lon>
		<line_lat>35.725830442826</line_lat>
		<line_zoom>12</line_zoom>
	</line>
	<station>
		<station_cd>1131601</station_cd>
		<station_g_cd>1131506</station_g_cd>
		<station_name>拝島</station_name>
		<lon>139.343468</lon>
		<lat>35.721278</lat>
	</station>
	<station>
		<station_cd>1131602</station_cd>
		<station_g_cd>1131602</station_g_cd>
		<station_name>熊川</station_name>
		<lon>139.33584</lon>
		<lat>35.728321</lat>
	</station>
	<station>
		<station_cd>1131603</station_cd>
		<station_g_cd>1131603</station_g_cd>
		<station_name>東秋留</station_name>
		<lon>139.311665</lon>
		<lat>35.725904</lat>
	</station>
	<station>
		<station_cd>1131604</station_cd>
		<station_g_cd>1131604</station_g_cd>
		<station_name>秋川</station_name>
		<lon>139.286715</lon>
		<lat>35.727998</lat>
	</station>
	<station>
		<station_cd>1131605</station_cd>
		<station_g_cd>1131605</station_g_cd>
		<station_name>武蔵引田</station_name>
		<lon>139.269907</lon>
		<lat>35.729711</lat>
	</station>
	<station>
		<station_cd>1131606</station_cd>
		<station_g_cd>1131606</station_g_cd>
		<station_name>武蔵増戸</station_name>
		<lon>139.256355</lon>
		<lat>35.730961</lat>
	</station>
	<station>
		<station_cd>1131607</station_cd>
		<station_g_cd>1131607</station_g_cd>
		<station_name>武蔵五日市</station_name>
		<lon>139.228039</lon>
		<lat>35.732248</lat>
	</station>
</ekidata>
