
if(typeof(xml)=='undefined') xml = {};
xml.data = {"line_cd":11321,"line_name":"JR埼京線","line_lon":139.61820154055,"line_lat":35.803195815713,"line_zoom":11,"station_l":[{"station_cd":1132101,"station_g_cd":1130201,"station_name":"大崎","lon":139.728439,"lat":35.619772},{"station_cd":1132102,"station_g_cd":1130204,"station_name":"恵比寿","lon":139.71007,"lat":35.646685},{"station_cd":1132103,"station_g_cd":1130205,"station_name":"渋谷","lon":139.701238,"lat":35.658871},{"station_cd":1132104,"station_g_cd":1130208,"station_name":"新宿","lon":139.700464,"lat":35.689729},{"station_cd":1132105,"station_g_cd":1130212,"station_name":"池袋","lon":139.711086,"lat":35.730256},{"station_cd":1132106,"station_g_cd":1132106,"station_name":"板橋","lon":139.719507,"lat":35.745435},{"station_cd":1132107,"station_g_cd":1132107,"station_name":"十条","lon":139.722233,"lat":35.760321},{"station_cd":1132108,"station_g_cd":1131903,"station_name":"赤羽","lon":139.720928,"lat":35.778026},{"station_cd":1132109,"station_g_cd":1132109,"station_name":"北赤羽","lon":139.70569,"lat":35.787007},{"station_cd":1132110,"station_g_cd":1132110,"station_name":"浮間舟渡","lon":139.691341,"lat":35.791209},{"station_cd":1132111,"station_g_cd":1132111,"station_name":"戸田公園","lon":139.678203,"lat":35.807906},{"station_cd":1132112,"station_g_cd":1132112,"station_name":"戸田","lon":139.669548,"lat":35.817665},{"station_cd":1132113,"station_g_cd":1132113,"station_name":"北戸田","lon":139.661201,"lat":35.826883},{"station_cd":1132114,"station_g_cd":1130510,"station_name":"武蔵浦和","lon":139.646809,"lat":35.845422},{"station_cd":1132115,"station_g_cd":1132115,"station_name":"中浦和","lon":139.6375,"lat":35.853769},{"station_cd":1132116,"station_g_cd":1132116,"station_name":"南与野","lon":139.631117,"lat":35.867456},{"station_cd":1132117,"station_g_cd":1132117,"station_name":"与野本町","lon":139.626075,"lat":35.880968},{"station_cd":1132118,"station_g_cd":1132118,"station_name":"北与野","lon":139.628521,"lat":35.890678},{"station_cd":1132119,"station_g_cd":1131906,"station_name":"大宮","lon":139.62405,"lat":35.906439}]}
if(typeof(xml.onload)=='function') xml.onload(xml.data);
