<?xml version="1.0" encoding="UTF-8"?>
<ekidata version="ekidata.jp line api 1.0">
	<line>
		<line_cd>11335</line_cd>
		<line_name>JR吾妻線</line_name>
		<line_lon>138.79130356098</line_lon>
		<line_lat>36.552041262858</line_lat>
		<line_zoom>10</line_zoom>
	</line>
	<station>
		<station_cd>1133501</station_cd>
		<station_g_cd>1133501</station_g_cd>
		<station_name>渋川</station_name>
		<lon>139.008786</lon>
		<lat>36.491251</lat>
	</station>
	<station>
		<station_cd>1133502</station_cd>
		<station_g_cd>1133502</station_g_cd>
		<station_name>金島</station_name>
		<lon>138.976421</lon>
		<lat>36.529502</lat>
	</station>
	<station>
		<station_cd>1133503</station_cd>
		<station_g_cd>1133503</station_g_cd>
		<station_name>祖母島</station_name>
		<lon>138.957042</lon>
		<lat>36.540729</lat>
	</station>
	<station>
		<station_cd>1133504</station_cd>
		<station_g_cd>1133504</station_g_cd>
		<station_name>小野上</station_name>
		<lon>138.922202</lon>
		<lat>36.552524</lat>
	</station>
	<station>
		<station_cd>1133505</station_cd>
		<station_g_cd>1133505</station_g_cd>
		<station_name>小野上温泉</station_name>
		<lon>138.904882</lon>
		<lat>36.556909</lat>
	</station>
	<station>
		<station_cd>1133506</station_cd>
		<station_g_cd>1133506</station_g_cd>
		<station_name>市城</station_name>
		<lon>138.882247</lon>
		<lat>36.570685</lat>
	</station>
	<station>
		<station_cd>1133507</station_cd>
		<station_g_cd>1133507</station_g_cd>
		<station_name>中之条</station_name>
		<lon>138.850908</lon>
		<lat>36.585541</lat>
	</station>
	<station>
		<station_cd>1133508</station_cd>
		<station_g_cd>1133508</station_g_cd>
		<station_name>群馬原町</station_name>
		<lon>138.824091</lon>
		<lat>36.571694</lat>
	</station>
	<station>
		<station_cd>1133509</station_cd>
		<station_g_cd>1133509</station_g_cd>
		<station_name>郷原</station_name>
		<lon>138.801073</lon>
		<lat>36.54876</lat>
	</station>
	<station>
		<station_cd>1133510</station_cd>
		<station_g_cd>1133510</station_g_cd>
		<station_name>矢倉</station_name>
		<lon>138.78428</lon>
		<lat>36.552731</lat>
	</station>
	<station>
		<station_cd>1133511</station_cd>
		<station_g_cd>1133511</station_g_cd>
		<station_name>岩島</station_name>
		<lon>138.759873</lon>
		<lat>36.563239</lat>
	</station>
	<station>
		<station_cd>1133512</station_cd>
		<station_g_cd>1133512</station_g_cd>
		<station_name>川原湯温泉</station_name>
		<lon>138.70767</lon>
		<lat>36.55363</lat>
	</station>
	<station>
		<station_cd>1133513</station_cd>
		<station_g_cd>1133513</station_g_cd>
		<station_name>長野原草津口</station_name>
		<lon>138.64959</lon>
		<lat>36.5465</lat>
	</station>
	<station>
		<station_cd>1133514</station_cd>
		<station_g_cd>1133514</station_g_cd>
		<station_name>群馬大津</station_name>
		<lon>138.628045</lon>
		<lat>36.553792</lat>
	</station>
	<station>
		<station_cd>1133515</station_cd>
		<station_g_cd>1133515</station_g_cd>
		<station_name>羽根尾</station_name>
		<lon>138.605502</lon>
		<lat>36.550164</lat>
	</station>
	<station>
		<station_cd>1133516</station_cd>
		<station_g_cd>1133516</station_g_cd>
		<station_name>袋倉</station_name>
		<lon>138.579141</lon>
		<lat>36.543997</lat>
	</station>
	<station>
		<station_cd>1133517</station_cd>
		<station_g_cd>1133517</station_g_cd>
		<station_name>万座・鹿沢口</station_name>
		<lon>138.551395</lon>
		<lat>36.531967</lat>
	</station>
	<station>
		<station_cd>1133518</station_cd>
		<station_g_cd>1133518</station_g_cd>
		<station_name>大前</station_name>
		<lon>138.528966</lon>
		<lat>36.513696</lat>
	</station>
</ekidata>
