
if(typeof(xml)=='undefined') xml = {};
xml.data = {"line_cd":11402,"line_name":"JR身延線","line_lon":138.53239703335,"line_lat":35.392163238565,"line_zoom":10,"station_l":[{"station_cd":1140201,"station_g_cd":1140201,"station_name":"富士","lon":138.651225,"lat":35.151497},{"station_cd":1140202,"station_g_cd":1140202,"station_name":"柚木","lon":138.639157,"lat":35.157468},{"station_cd":1140203,"station_g_cd":1140203,"station_name":"竪堀","lon":138.645881,"lat":35.168075},{"station_cd":1140204,"station_g_cd":1140204,"station_name":"入山瀬","lon":138.647622,"lat":35.188276},{"station_cd":1140205,"station_g_cd":1140205,"station_name":"富士根","lon":138.63562,"lat":35.205251},{"station_cd":1140206,"station_g_cd":1140206,"station_name":"源道寺","lon":138.627057,"lat":35.214463},{"station_cd":1140207,"station_g_cd":1140207,"station_name":"富士宮","lon":138.614924,"lat":35.221409},{"station_cd":1140208,"station_g_cd":1140208,"station_name":"西富士宮","lon":138.602567,"lat":35.225456},{"station_cd":1140209,"station_g_cd":1140209,"station_name":"沼久保","lon":138.584283,"lat":35.199278},{"station_cd":1140210,"station_g_cd":1140210,"station_name":"芝川","lon":138.563845,"lat":35.197272},{"station_cd":1140211,"station_g_cd":1140211,"station_name":"稲子","lon":138.536892,"lat":35.230454},{"station_cd":1140212,"station_g_cd":1140212,"station_name":"十島","lon":138.515802,"lat":35.230153},{"station_cd":1140213,"station_g_cd":1140213,"station_name":"井出","lon":138.490989,"lat":35.247449},{"station_cd":1140214,"station_g_cd":1140214,"station_name":"寄畑","lon":138.474932,"lat":35.264832},{"station_cd":1140215,"station_g_cd":1140215,"station_name":"内船","lon":138.465068,"lat":35.282183},{"station_cd":1140216,"station_g_cd":1140216,"station_name":"甲斐大島","lon":138.45218,"lat":35.32817},{"station_cd":1140217,"station_g_cd":1140217,"station_name":"身延","lon":138.453021,"lat":35.361397},{"station_cd":1140218,"station_g_cd":1140218,"station_name":"塩之沢","lon":138.453887,"lat":35.379626},{"station_cd":1140219,"station_g_cd":1140219,"station_name":"波高島","lon":138.459747,"lat":35.418624},{"station_cd":1140220,"station_g_cd":1140220,"station_name":"下部温泉","lon":138.472359,"lat":35.425751},{"station_cd":1140221,"station_g_cd":1140221,"station_name":"甲斐常葉","lon":138.476975,"lat":35.444779},{"station_cd":1140222,"station_g_cd":1140222,"station_name":"市ノ瀬","lon":138.482154,"lat":35.462345},{"station_cd":1140223,"station_g_cd":1140223,"station_name":"久那土","lon":138.467391,"lat":35.48144},{"station_cd":1140224,"station_g_cd":1140224,"station_name":"甲斐岩間","lon":138.463057,"lat":35.492539},{"station_cd":1140225,"station_g_cd":1140225,"station_name":"落居","lon":138.471256,"lat":35.503612},{"station_cd":1140226,"station_g_cd":1140226,"station_name":"鰍沢口","lon":138.470916,"lat":35.541375},{"station_cd":1140227,"station_g_cd":1140227,"station_name":"市川大門","lon":138.493276,"lat":35.560451},{"station_cd":1140228,"station_g_cd":1140228,"station_name":"市川本町","lon":138.502028,"lat":35.560684},{"station_cd":1140229,"station_g_cd":1140229,"station_name":"芦川","lon":138.511241,"lat":35.563087},{"station_cd":1140230,"station_g_cd":1140230,"station_name":"甲斐上野","lon":138.520465,"lat":35.569592},{"station_cd":1140231,"station_g_cd":1140231,"station_name":"東花輪","lon":138.526935,"lat":35.594749},{"station_cd":1140232,"station_g_cd":1140232,"station_name":"小井川","lon":138.528523,"lat":35.604442},{"station_cd":1140233,"station_g_cd":1140233,"station_name":"常永","lon":138.532909,"lat":35.616877},{"station_cd":1140234,"station_g_cd":1140234,"station_name":"国母","lon":138.552113,"lat":35.630567},{"station_cd":1140235,"station_g_cd":1140235,"station_name":"甲斐住吉","lon":138.569892,"lat":35.63658},{"station_cd":1140236,"station_g_cd":1140236,"station_name":"南甲府","lon":138.577274,"lat":35.643496},{"station_cd":1140237,"station_g_cd":1140237,"station_name":"善光寺","lon":138.589278,"lat":35.65985},{"station_cd":1140238,"station_g_cd":1140238,"station_name":"金手","lon":138.578845,"lat":35.662264},{"station_cd":1140239,"station_g_cd":1131131,"station_name":"甲府","lon":138.569015,"lat":35.667054}]}
if(typeof(xml.onload)=='function') xml.onload(xml.data);
