<?xml version="1.0" encoding="UTF-8"?>
<ekidata version="ekidata.jp line api 1.0">
	<line>
		<line_cd>11401</line_cd>
		<line_name>八ヶ岳高原線</line_name>
		<line_lon>138.43948118176</line_lon>
		<line_lat>36.09169709031</line_lat>
		<line_zoom>10</line_zoom>
	</line>
	<station>
		<station_cd>1140101</station_cd>
		<station_g_cd>1131139</station_g_cd>
		<station_name>小淵沢</station_name>
		<lon>138.316351</lon>
		<lat>35.863808</lat>
	</station>
	<station>
		<station_cd>1140102</station_cd>
		<station_g_cd>1140102</station_g_cd>
		<station_name>甲斐小泉</station_name>
		<lon>138.359402</lon>
		<lat>35.879533</lat>
	</station>
	<station>
		<station_cd>1140103</station_cd>
		<station_g_cd>1140103</station_g_cd>
		<station_name>甲斐大泉</station_name>
		<lon>138.409564</lon>
		<lat>35.89624</lat>
	</station>
	<station>
		<station_cd>1140104</station_cd>
		<station_g_cd>1140104</station_g_cd>
		<station_name>清里</station_name>
		<lon>138.436589</lon>
		<lat>35.919093</lat>
	</station>
	<station>
		<station_cd>1140105</station_cd>
		<station_g_cd>1140105</station_g_cd>
		<station_name>野辺山</station_name>
		<lon>138.474448</lon>
		<lat>35.955289</lat>
	</station>
	<station>
		<station_cd>1140106</station_cd>
		<station_g_cd>1140106</station_g_cd>
		<station_name>信濃川上</station_name>
		<lon>138.527345</lon>
		<lat>35.975939</lat>
	</station>
	<station>
		<station_cd>1140107</station_cd>
		<station_g_cd>1140107</station_g_cd>
		<station_name>佐久広瀬</station_name>
		<lon>138.519349</lon>
		<lat>36.003724</lat>
	</station>
	<station>
		<station_cd>1140108</station_cd>
		<station_g_cd>1140108</station_g_cd>
		<station_name>佐久海ノ口</station_name>
		<lon>138.490807</lon>
		<lat>36.021128</lat>
	</station>
	<station>
		<station_cd>1140109</station_cd>
		<station_g_cd>1140109</station_g_cd>
		<station_name>海尻</station_name>
		<lon>138.473536</lon>
		<lat>36.041276</lat>
	</station>
	<station>
		<station_cd>1140110</station_cd>
		<station_g_cd>1140110</station_g_cd>
		<station_name>松原湖</station_name>
		<lon>138.470509</lon>
		<lat>36.060995</lat>
	</station>
	<station>
		<station_cd>1140111</station_cd>
		<station_g_cd>1140111</station_g_cd>
		<station_name>小海</station_name>
		<lon>138.482806</lon>
		<lat>36.08862</lat>
	</station>
	<station>
		<station_cd>1140112</station_cd>
		<station_g_cd>1140112</station_g_cd>
		<station_name>馬流</station_name>
		<lon>138.485963</lon>
		<lat>36.101824</lat>
	</station>
	<station>
		<station_cd>1140113</station_cd>
		<station_g_cd>1140113</station_g_cd>
		<station_name>高岩</station_name>
		<lon>138.477438</lon>
		<lat>36.115711</lat>
	</station>
	<station>
		<station_cd>1140114</station_cd>
		<station_g_cd>1140114</station_g_cd>
		<station_name>八千穂</station_name>
		<lon>138.477345</lon>
		<lat>36.133281</lat>
	</station>
	<station>
		<station_cd>1140115</station_cd>
		<station_g_cd>1140115</station_g_cd>
		<station_name>海瀬</station_name>
		<lon>138.485894</lon>
		<lat>36.155743</lat>
	</station>
	<station>
		<station_cd>1140116</station_cd>
		<station_g_cd>1140116</station_g_cd>
		<station_name>羽黒下</station_name>
		<lon>138.489618</lon>
		<lat>36.166411</lat>
	</station>
	<station>
		<station_cd>1140117</station_cd>
		<station_g_cd>1140117</station_g_cd>
		<station_name>青沼</station_name>
		<lon>138.489162</lon>
		<lat>36.181259</lat>
	</station>
	<station>
		<station_cd>1140118</station_cd>
		<station_g_cd>1140118</station_g_cd>
		<station_name>臼田</station_name>
		<lon>138.488309</lon>
		<lat>36.194013</lat>
	</station>
	<station>
		<station_cd>1140119</station_cd>
		<station_g_cd>1140119</station_g_cd>
		<station_name>龍岡城</station_name>
		<lon>138.490708</lon>
		<lat>36.204184</lat>
	</station>
	<station>
		<station_cd>1140120</station_cd>
		<station_g_cd>1140120</station_g_cd>
		<station_name>太田部</station_name>
		<lon>138.4878</lon>
		<lat>36.220307</lat>
	</station>
	<station>
		<station_cd>1140121</station_cd>
		<station_g_cd>1140121</station_g_cd>
		<station_name>中込</station_name>
		<lon>138.479389</lon>
		<lat>36.23062</lat>
	</station>
	<station>
		<station_cd>1140122</station_cd>
		<station_g_cd>1140122</station_g_cd>
		<station_name>滑津</station_name>
		<lon>138.475003</lon>
		<lat>36.238716</lat>
	</station>
	<station>
		<station_cd>1140123</station_cd>
		<station_g_cd>1140123</station_g_cd>
		<station_name>北中込</station_name>
		<lon>138.476661</lon>
		<lat>36.254923</lat>
	</station>
	<station>
		<station_cd>1140124</station_cd>
		<station_g_cd>1140124</station_g_cd>
		<station_name>岩村田</station_name>
		<lon>138.4724</lon>
		<lat>36.27446</lat>
	</station>
	<station>
		<station_cd>1140125</station_cd>
		<station_g_cd>1140125</station_g_cd>
		<station_name>佐久平</station_name>
		<lon>138.464367</lon>
		<lat>36.277929</lat>
	</station>
	<station>
		<station_cd>1140126</station_cd>
		<station_g_cd>1140126</station_g_cd>
		<station_name>中佐都</station_name>
		<lon>138.453549</lon>
		<lat>36.280856</lat>
	</station>
	<station>
		<station_cd>1140127</station_cd>
		<station_g_cd>1140127</station_g_cd>
		<station_name>美里</station_name>
		<lon>138.450177</lon>
		<lat>36.292243</lat>
	</station>
	<station>
		<station_cd>1140128</station_cd>
		<station_g_cd>1140128</station_g_cd>
		<station_name>三岡</station_name>
		<lon>138.44846</lon>
		<lat>36.30415</lat>
	</station>
	<station>
		<station_cd>1140129</station_cd>
		<station_g_cd>1140129</station_g_cd>
		<station_name>乙女</station_name>
		<lon>138.440527</lon>
		<lat>36.311371</lat>
	</station>
	<station>
		<station_cd>1140130</station_cd>
		<station_g_cd>1140130</station_g_cd>
		<station_name>東小諸</station_name>
		<lon>138.432144</lon>
		<lat>36.317057</lat>
	</station>
	<station>
		<station_cd>1140131</station_cd>
		<station_g_cd>1140131</station_g_cd>
		<station_name>小諸</station_name>
		<lon>138.422021</lon>
		<lat>36.326337</lat>
	</station>
</ekidata>
