
if(typeof(xml)=='undefined') xml = {};
xml.data = {"line_cd":11421,"line_name":"九頭竜線","line_lon":136.44131139538,"line_lat":35.998584087021,"line_zoom":10,"station_l":[{"station_cd":1142101,"station_g_cd":1141523,"station_name":"福井","lon":136.223516,"lat":36.062057},{"station_cd":1142102,"station_g_cd":1141522,"station_name":"越前花堂","lon":136.218073,"lat":36.038771},{"station_cd":1142103,"station_g_cd":1142103,"station_name":"六条","lon":136.239594,"lat":36.028175},{"station_cd":1142104,"station_g_cd":1142104,"station_name":"足羽","lon":136.253607,"lat":36.020821},{"station_cd":1142105,"station_g_cd":1142105,"station_name":"越前東郷","lon":136.273561,"lat":36.018185},{"station_cd":1142106,"station_g_cd":1142106,"station_name":"一乗谷","lon":136.2974,"lat":36.013679},{"station_cd":1142107,"station_g_cd":1142107,"station_name":"越前高田","lon":136.318669,"lat":36.024759},{"station_cd":1142108,"station_g_cd":1142108,"station_name":"市波","lon":136.330463,"lat":36.019813},{"station_cd":1142109,"station_g_cd":1142109,"station_name":"小和清水","lon":136.351085,"lat":36.01732},{"station_cd":1142110,"station_g_cd":1142110,"station_name":"美山","lon":136.365082,"lat":35.998567},{"station_cd":1142111,"station_g_cd":1142111,"station_name":"越前薬師","lon":136.384336,"lat":36.005283},{"station_cd":1142112,"station_g_cd":1142112,"station_name":"越前大宮","lon":136.409694,"lat":36.000064},{"station_cd":1142113,"station_g_cd":1142113,"station_name":"計石","lon":136.434767,"lat":35.997589},{"station_cd":1142114,"station_g_cd":1142114,"station_name":"牛ケ原","lon":136.467349,"lat":35.998567},{"station_cd":1142115,"station_g_cd":1142115,"station_name":"北大野","lon":136.48795,"lat":35.997992},{"station_cd":1142116,"station_g_cd":1142116,"station_name":"越前大野","lon":136.496877,"lat":35.983294},{"station_cd":1142117,"station_g_cd":1142117,"station_name":"越前田野","lon":136.526884,"lat":35.987048},{"station_cd":1142118,"station_g_cd":1142118,"station_name":"越前富田","lon":136.541233,"lat":35.9909},{"station_cd":1142119,"station_g_cd":1142119,"station_name":"下唯野","lon":136.56027,"lat":35.974208},{"station_cd":1142120,"station_g_cd":1142120,"station_name":"柿ケ島","lon":136.570938,"lat":35.97243},{"station_cd":1142121,"station_g_cd":1142121,"station_name":"勝原","lon":136.597151,"lat":35.967512},{"station_cd":1142122,"station_g_cd":1142122,"station_name":"越前下山","lon":136.634832,"lat":35.920356},{"station_cd":1142123,"station_g_cd":1142123,"station_name":"九頭竜湖","lon":136.66146,"lat":35.90449}]}
if(typeof(xml.onload)=='function') xml.onload(xml.data);
