
if(typeof(xml)=='undefined') xml = {};
xml.data = {"line_cd":11625,"line_name":"JR東西線","line_lon":135.47296650255,"line_lat":34.707925475796,"line_zoom":13,"station_l":[{"station_cd":1162501,"station_g_cd":1161724,"station_name":"京橋","lon":135.534253,"lat":34.696047},{"station_cd":1162502,"station_g_cd":1162502,"station_name":"大阪城北詰","lon":135.525538,"lat":34.694283},{"station_cd":1162503,"station_g_cd":1162503,"station_name":"大阪天満宮","lon":135.513442,"lat":34.697404},{"station_cd":1162504,"station_g_cd":1160214,"station_name":"北新地","lon":135.497038,"lat":34.698323},{"station_cd":1162505,"station_g_cd":1162309,"station_name":"新福島","lon":135.48593,"lat":34.695094},{"station_cd":1162506,"station_g_cd":1162506,"station_name":"海老江","lon":135.473276,"lat":34.69544},{"station_cd":1162507,"station_g_cd":1162507,"station_name":"御幣島","lon":135.45568,"lat":34.71259},{"station_cd":1162508,"station_g_cd":1162508,"station_name":"加島","lon":135.454183,"lat":34.727496},{"station_cd":1162509,"station_g_cd":1160303,"station_name":"尼崎","lon":135.431685,"lat":34.731791}]}
if(typeof(xml.onload)=='function') xml.onload(xml.data);
