{"line_cd":11714,"line_name":"JR芸備線","line_lon":132.92164288638,"line_lat":34.773930162989,"line_zoom":9,"station_l":[{"station_cd":1171401,"station_g_cd":1163425,"station_name":"新見","lon":133.45674,"lat":34.987232},{"station_cd":1171402,"station_g_cd":1171402,"station_name":"布原","lon":133.422293,"lat":34.988086},{"station_cd":1171403,"station_g_cd":1170319,"station_name":"備中神代","lon":133.40079,"lat":34.994571},{"station_cd":1171404,"station_g_cd":1171404,"station_name":"坂根","lon":133.37079,"lat":34.972957},{"station_cd":1171405,"station_g_cd":1171405,"station_name":"市岡","lon":133.346948,"lat":34.966232},{"station_cd":1171406,"station_g_cd":1171406,"station_name":"矢神","lon":133.332797,"lat":34.943413},{"station_cd":1171407,"station_g_cd":1171407,"station_name":"野馳","lon":133.316833,"lat":34.915046},{"station_cd":1171408,"station_g_cd":1171408,"station_name":"東城","lon":133.273687,"lat":34.901802},{"station_cd":1171409,"station_g_cd":1171409,"station_name":"備後八幡","lon":133.232086,"lat":34.938192},{"station_cd":1171410,"station_g_cd":1171410,"station_name":"内名","lon":133.231937,"lat":34.964959},{"station_cd":1171411,"station_g_cd":1171411,"station_name":"小奴可","lon":133.211211,"lat":34.994552},{"station_cd":1171412,"station_g_cd":1171412,"station_name":"道後山","lon":133.178269,"lat":35.010894},{"station_cd":1171413,"station_g_cd":1170618,"station_name":"備後落合","lon":133.148296,"lat":35.001167},{"station_cd":1171414,"station_g_cd":1171414,"station_name":"比婆山","lon":133.123236,"lat":34.966298},{"station_cd":1171415,"station_g_cd":1171415,"station_name":"備後西城","lon":133.119729,"lat":34.940345},{"station_cd":1171416,"station_g_cd":1171416,"station_name":"平子","lon":133.100154,"lat":34.912879},{"station_cd":1171417,"station_g_cd":1171417,"station_name":"高","lon":133.070603,"lat":34.87778},{"station_cd":1171418,"station_g_cd":1171418,"station_name":"備後庄原","lon":133.016105,"lat":34.862317},{"station_cd":1171419,"station_g_cd":1171419,"station_name":"備後三日市","lon":132.998269,"lat":34.85507},{"station_cd":1171420,"station_g_cd":1171420,"station_name":"七塚","lon":132.98584,"lat":34.844391},{"station_cd":1171421,"station_g_cd":1171421,"station_name":"山ノ内","lon":132.957671,"lat":34.829608},{"station_cd":1171422,"station_g_cd":1171422,"station_name":"下和知","lon":132.925336,"lat":34.797668},{"station_cd":1171423,"station_g_cd":1171423,"station_name":"塩町","lon":132.913863,"lat":34.774265},{"station_cd":1171424,"station_g_cd":1171424,"station_name":"神杉","lon":132.902747,"lat":34.780725},{"station_cd":1171425,"station_g_cd":1171425,"station_name":"八次","lon":132.878805,"lat":34.802244},{"station_cd":1171426,"station_g_cd":1170735,"station_name":"三次","lon":132.855976,"lat":34.802646},{"station_cd":1171427,"station_g_cd":1171427,"station_name":"西三次","lon":132.840961,"lat":34.798524},{"station_cd":1171428,"station_g_cd":1171428,"station_name":"志和地","lon":132.80392,"lat":34.740475},{"station_cd":1171429,"station_g_cd":1171429,"station_name":"上川立","lon":132.784873,"lat":34.725373},{"station_cd":1171430,"station_g_cd":1171430,"station_name":"甲立","lon":132.759991,"lat":34.692611},{"station_cd":1171431,"station_g_cd":1171431,"station_name":"吉田口","lon":132.745832,"lat":34.664106},{"station_cd":1171432,"station_g_cd":1171432,"station_name":"向原","lon":132.719883,"lat":34.615215},{"station_cd":1171433,"station_g_cd":1171433,"station_name":"井原市","lon":132.675569,"lat":34.585013},{"station_cd":1171434,"station_g_cd":1171434,"station_name":"志和口","lon":132.658205,"lat":34.554333},{"station_cd":1171435,"station_g_cd":1171435,"station_name":"上三田","lon":132.64389,"lat":34.538646},{"station_cd":1171436,"station_g_cd":1171436,"station_name":"中三田","lon":132.609329,"lat":34.513604},{"station_cd":1171437,"station_g_cd":1171437,"station_name":"白木山","lon":132.587867,"lat":34.500563},{"station_cd":1171438,"station_g_cd":1171438,"station_name":"狩留家","lon":132.579007,"lat":34.486614},{"station_cd":1171439,"station_g_cd":1171439,"station_name":"上深川","lon":132.562619,"lat":34.47591},{"station_cd":1171440,"station_g_cd":1171440,"station_name":"中深川","lon":132.533971,"lat":34.481076},{"station_cd":1171441,"station_g_cd":1171441,"station_name":"下深川","lon":132.524702,"lat":34.488683},{"station_cd":1171442,"station_g_cd":1171442,"station_name":"玖村","lon":132.507898,"lat":34.482039},{"station_cd":1171443,"station_g_cd":1171443,"station_name":"安芸矢口","lon":132.495094,"lat":34.463579},{"station_cd":1171444,"station_g_cd":1171444,"station_name":"戸坂","lon":132.491246,"lat":34.438193},{"station_cd":1171445,"station_g_cd":1171445,"station_name":"矢賀","lon":132.497769,"lat":34.399319},{"station_cd":1171446,"station_g_cd":1161115,"station_name":"広島","lon":132.475593,"lat":34.397446}]}
