
if(typeof(xml)=='undefined') xml = {};
xml.data = {"line_cd":11807,"line_name":"JR予讃・内子線","line_lon":132.589516825,"line_lat":33.557035374802,"line_zoom":10,"station_l":[{"station_cd":1180701,"station_g_cd":1180657,"station_name":"松山","lon":132.751149,"lat":33.839954},{"station_cd":1180702,"station_g_cd":1180702,"station_name":"市坪","lon":132.749283,"lat":33.809113},{"station_cd":1180703,"station_g_cd":1180703,"station_name":"北伊予","lon":132.748774,"lat":33.787441},{"station_cd":1180741,"station_g_cd":1180741,"station_name":"南伊予","lon":132.738611,"lat":33.777639},{"station_cd":1180704,"station_g_cd":1180704,"station_name":"伊予横田","lon":132.727121,"lat":33.772909},{"station_cd":1180705,"station_g_cd":1180705,"station_name":"鳥ノ木","lon":132.711309,"lat":33.763751},{"station_cd":1180706,"station_g_cd":1180706,"station_name":"伊予市","lon":132.702532,"lat":33.755532},{"station_cd":1180707,"station_g_cd":1180707,"station_name":"向井原","lon":132.695736,"lat":33.735871},{"station_cd":1180708,"station_g_cd":1180708,"station_name":"伊予大平","lon":132.708479,"lat":33.715973},{"station_cd":1180709,"station_g_cd":1180709,"station_name":"伊予中山","lon":132.711629,"lat":33.649881},{"station_cd":1180710,"station_g_cd":1180710,"station_name":"伊予立川","lon":132.677,"lat":33.600458},{"station_cd":1180711,"station_g_cd":1180711,"station_name":"内子","lon":132.646207,"lat":33.549305},{"station_cd":1180712,"station_g_cd":1180712,"station_name":"五十崎","lon":132.635859,"lat":33.537809},{"station_cd":1180713,"station_g_cd":1180713,"station_name":"喜多山","lon":132.611428,"lat":33.533426},{"station_cd":1180714,"station_g_cd":1180714,"station_name":"新谷","lon":132.599037,"lat":33.534153},{"station_cd":1180715,"station_g_cd":1180715,"station_name":"高野川","lon":132.65877,"lat":33.701624},{"station_cd":1180716,"station_g_cd":1180716,"station_name":"伊予上灘","lon":132.632931,"lat":33.683626},{"station_cd":1180717,"station_g_cd":1180717,"station_name":"下灘","lon":132.589219,"lat":33.655109},{"station_cd":1180718,"station_g_cd":1180718,"station_name":"串","lon":132.562996,"lat":33.647034},{"station_cd":1180719,"station_g_cd":1180719,"station_name":"喜多灘","lon":132.531165,"lat":33.637145},{"station_cd":1180720,"station_g_cd":1180720,"station_name":"伊予長浜","lon":132.486861,"lat":33.615297},{"station_cd":1180721,"station_g_cd":1180721,"station_name":"伊予出石","lon":132.498833,"lat":33.596338},{"station_cd":1180722,"station_g_cd":1180722,"station_name":"伊予白滝","lon":132.526778,"lat":33.578588},{"station_cd":1180723,"station_g_cd":1180723,"station_name":"八多喜","lon":132.540741,"lat":33.562643},{"station_cd":1180724,"station_g_cd":1180724,"station_name":"春賀","lon":132.555329,"lat":33.555636},{"station_cd":1180725,"station_g_cd":1180725,"station_name":"五郎","lon":132.570473,"lat":33.541399},{"station_cd":1180726,"station_g_cd":1180726,"station_name":"伊予大洲","lon":132.54485,"lat":33.518601},{"station_cd":1180727,"station_g_cd":1180727,"station_name":"西大洲","lon":132.527041,"lat":33.508204},{"station_cd":1180728,"station_g_cd":1180728,"station_name":"伊予平野","lon":132.518025,"lat":33.495672},{"station_cd":1180729,"station_g_cd":1180729,"station_name":"千丈","lon":132.457369,"lat":33.465432},{"station_cd":1180730,"station_g_cd":1180730,"station_name":"八幡浜","lon":132.436213,"lat":33.458024},{"station_cd":1180731,"station_g_cd":1180731,"station_name":"双岩","lon":132.45794,"lat":33.424314},{"station_cd":1180732,"station_g_cd":1180732,"station_name":"伊予石城","lon":132.473112,"lat":33.391582},{"station_cd":1180733,"station_g_cd":1180733,"station_name":"上宇和","lon":132.501337,"lat":33.379979},{"station_cd":1180734,"station_g_cd":1180734,"station_name":"卯之町","lon":132.50994,"lat":33.363192},{"station_cd":1180735,"station_g_cd":1180735,"station_name":"下宇和","lon":132.531172,"lat":33.349786},{"station_cd":1180736,"station_g_cd":1180736,"station_name":"立間","lon":132.539275,"lat":33.297371},{"station_cd":1180737,"station_g_cd":1180737,"station_name":"伊予吉田","lon":132.544098,"lat":33.273287},{"station_cd":1180738,"station_g_cd":1180738,"station_name":"高光","lon":132.573559,"lat":33.25607},{"station_cd":1180739,"station_g_cd":1180739,"station_name":"北宇和島","lon":132.569643,"lat":33.239442},{"station_cd":1180740,"station_g_cd":1180740,"station_name":"宇和島","lon":132.56746,"lat":33.225774}]}
if(typeof(xml.onload)=='function') xml.onload(xml.data);
