<?xml version="1.0" encoding="UTF-8"?>
<ekidata version="ekidata.jp line api 1.0">
	<line>
		<line_cd>11807</line_cd>
		<line_name>JR予讃・内子線</line_name>
		<line_lon>132.589516825</line_lon>
		<line_lat>33.557035374802</line_lat>
		<line_zoom>10</line_zoom>
	</line>
	<station>
		<station_cd>1180701</station_cd>
		<station_g_cd>1180657</station_g_cd>
		<station_name>松山</station_name>
		<lon>132.751149</lon>
		<lat>33.839954</lat>
	</station>
	<station>
		<station_cd>1180702</station_cd>
		<station_g_cd>1180702</station_g_cd>
		<station_name>市坪</station_name>
		<lon>132.749283</lon>
		<lat>33.809113</lat>
	</station>
	<station>
		<station_cd>1180703</station_cd>
		<station_g_cd>1180703</station_g_cd>
		<station_name>北伊予</station_name>
		<lon>132.748774</lon>
		<lat>33.787441</lat>
	</station>
	<station>
		<station_cd>1180741</station_cd>
		<station_g_cd>1180741</station_g_cd>
		<station_name>南伊予</station_name>
		<lon>132.738611</lon>
		<lat>33.777639</lat>
	</station>
	<station>
		<station_cd>1180704</station_cd>
		<station_g_cd>1180704</station_g_cd>
		<station_name>伊予横田</station_name>
		<lon>132.727121</lon>
		<lat>33.772909</lat>
	</station>
	<station>
		<station_cd>1180705</station_cd>
		<station_g_cd>1180705</station_g_cd>
		<station_name>鳥ノ木</station_name>
		<lon>132.711309</lon>
		<lat>33.763751</lat>
	</station>
	<station>
		<station_cd>1180706</station_cd>
		<station_g_cd>1180706</station_g_cd>
		<station_name>伊予市</station_name>
		<lon>132.702532</lon>
		<lat>33.755532</lat>
	</station>
	<station>
		<station_cd>1180707</station_cd>
		<station_g_cd>1180707</station_g_cd>
		<station_name>向井原</station_name>
		<lon>132.695736</lon>
		<lat>33.735871</lat>
	</station>
	<station>
		<station_cd>1180708</station_cd>
		<station_g_cd>1180708</station_g_cd>
		<station_name>伊予大平</station_name>
		<lon>132.708479</lon>
		<lat>33.715973</lat>
	</station>
	<station>
		<station_cd>1180709</station_cd>
		<station_g_cd>1180709</station_g_cd>
		<station_name>伊予中山</station_name>
		<lon>132.711629</lon>
		<lat>33.649881</lat>
	</station>
	<station>
		<station_cd>1180710</station_cd>
		<station_g_cd>1180710</station_g_cd>
		<station_name>伊予立川</station_name>
		<lon>132.677</lon>
		<lat>33.600458</lat>
	</station>
	<station>
		<station_cd>1180711</station_cd>
		<station_g_cd>1180711</station_g_cd>
		<station_name>内子</station_name>
		<lon>132.646207</lon>
		<lat>33.549305</lat>
	</station>
	<station>
		<station_cd>1180712</station_cd>
		<station_g_cd>1180712</station_g_cd>
		<station_name>五十崎</station_name>
		<lon>132.635859</lon>
		<lat>33.537809</lat>
	</station>
	<station>
		<station_cd>1180713</station_cd>
		<station_g_cd>1180713</station_g_cd>
		<station_name>喜多山</station_name>
		<lon>132.611428</lon>
		<lat>33.533426</lat>
	</station>
	<station>
		<station_cd>1180714</station_cd>
		<station_g_cd>1180714</station_g_cd>
		<station_name>新谷</station_name>
		<lon>132.599037</lon>
		<lat>33.534153</lat>
	</station>
	<station>
		<station_cd>1180715</station_cd>
		<station_g_cd>1180715</station_g_cd>
		<station_name>高野川</station_name>
		<lon>132.65877</lon>
		<lat>33.701624</lat>
	</station>
	<station>
		<station_cd>1180716</station_cd>
		<station_g_cd>1180716</station_g_cd>
		<station_name>伊予上灘</station_name>
		<lon>132.632931</lon>
		<lat>33.683626</lat>
	</station>
	<station>
		<station_cd>1180717</station_cd>
		<station_g_cd>1180717</station_g_cd>
		<station_name>下灘</station_name>
		<lon>132.589219</lon>
		<lat>33.655109</lat>
	</station>
	<station>
		<station_cd>1180718</station_cd>
		<station_g_cd>1180718</station_g_cd>
		<station_name>串</station_name>
		<lon>132.562996</lon>
		<lat>33.647034</lat>
	</station>
	<station>
		<station_cd>1180719</station_cd>
		<station_g_cd>1180719</station_g_cd>
		<station_name>喜多灘</station_name>
		<lon>132.531165</lon>
		<lat>33.637145</lat>
	</station>
	<station>
		<station_cd>1180720</station_cd>
		<station_g_cd>1180720</station_g_cd>
		<station_name>伊予長浜</station_name>
		<lon>132.486861</lon>
		<lat>33.615297</lat>
	</station>
	<station>
		<station_cd>1180721</station_cd>
		<station_g_cd>1180721</station_g_cd>
		<station_name>伊予出石</station_name>
		<lon>132.498833</lon>
		<lat>33.596338</lat>
	</station>
	<station>
		<station_cd>1180722</station_cd>
		<station_g_cd>1180722</station_g_cd>
		<station_name>伊予白滝</station_name>
		<lon>132.526778</lon>
		<lat>33.578588</lat>
	</station>
	<station>
		<station_cd>1180723</station_cd>
		<station_g_cd>1180723</station_g_cd>
		<station_name>八多喜</station_name>
		<lon>132.540741</lon>
		<lat>33.562643</lat>
	</station>
	<station>
		<station_cd>1180724</station_cd>
		<station_g_cd>1180724</station_g_cd>
		<station_name>春賀</station_name>
		<lon>132.555329</lon>
		<lat>33.555636</lat>
	</station>
	<station>
		<station_cd>1180725</station_cd>
		<station_g_cd>1180725</station_g_cd>
		<station_name>五郎</station_name>
		<lon>132.570473</lon>
		<lat>33.541399</lat>
	</station>
	<station>
		<station_cd>1180726</station_cd>
		<station_g_cd>1180726</station_g_cd>
		<station_name>伊予大洲</station_name>
		<lon>132.54485</lon>
		<lat>33.518601</lat>
	</station>
	<station>
		<station_cd>1180727</station_cd>
		<station_g_cd>1180727</station_g_cd>
		<station_name>西大洲</station_name>
		<lon>132.527041</lon>
		<lat>33.508204</lat>
	</station>
	<station>
		<station_cd>1180728</station_cd>
		<station_g_cd>1180728</station_g_cd>
		<station_name>伊予平野</station_name>
		<lon>132.518025</lon>
		<lat>33.495672</lat>
	</station>
	<station>
		<station_cd>1180729</station_cd>
		<station_g_cd>1180729</station_g_cd>
		<station_name>千丈</station_name>
		<lon>132.457369</lon>
		<lat>33.465432</lat>
	</station>
	<station>
		<station_cd>1180730</station_cd>
		<station_g_cd>1180730</station_g_cd>
		<station_name>八幡浜</station_name>
		<lon>132.436213</lon>
		<lat>33.458024</lat>
	</station>
	<station>
		<station_cd>1180731</station_cd>
		<station_g_cd>1180731</station_g_cd>
		<station_name>双岩</station_name>
		<lon>132.45794</lon>
		<lat>33.424314</lat>
	</station>
	<station>
		<station_cd>1180732</station_cd>
		<station_g_cd>1180732</station_g_cd>
		<station_name>伊予石城</station_name>
		<lon>132.473112</lon>
		<lat>33.391582</lat>
	</station>
	<station>
		<station_cd>1180733</station_cd>
		<station_g_cd>1180733</station_g_cd>
		<station_name>上宇和</station_name>
		<lon>132.501337</lon>
		<lat>33.379979</lat>
	</station>
	<station>
		<station_cd>1180734</station_cd>
		<station_g_cd>1180734</station_g_cd>
		<station_name>卯之町</station_name>
		<lon>132.50994</lon>
		<lat>33.363192</lat>
	</station>
	<station>
		<station_cd>1180735</station_cd>
		<station_g_cd>1180735</station_g_cd>
		<station_name>下宇和</station_name>
		<lon>132.531172</lon>
		<lat>33.349786</lat>
	</station>
	<station>
		<station_cd>1180736</station_cd>
		<station_g_cd>1180736</station_g_cd>
		<station_name>立間</station_name>
		<lon>132.539275</lon>
		<lat>33.297371</lat>
	</station>
	<station>
		<station_cd>1180737</station_cd>
		<station_g_cd>1180737</station_g_cd>
		<station_name>伊予吉田</station_name>
		<lon>132.544098</lon>
		<lat>33.273287</lat>
	</station>
	<station>
		<station_cd>1180738</station_cd>
		<station_g_cd>1180738</station_g_cd>
		<station_name>高光</station_name>
		<lon>132.573559</lon>
		<lat>33.25607</lat>
	</station>
	<station>
		<station_cd>1180739</station_cd>
		<station_g_cd>1180739</station_g_cd>
		<station_name>北宇和島</station_name>
		<lon>132.569643</lon>
		<lat>33.239442</lat>
	</station>
	<station>
		<station_cd>1180740</station_cd>
		<station_g_cd>1180740</station_g_cd>
		<station_name>宇和島</station_name>
		<lon>132.56746</lon>
		<lat>33.225774</lat>
	</station>
</ekidata>
