{"line_cd":11806,"line_name":"JR予讃線","line_lon":133.36265926932,"line_lat":34.192991767512,"line_zoom":9,"station_l":[{"station_cd":1180601,"station_g_cd":1180201,"station_name":"高松","lon":134.046821,"lat":34.350754},{"station_cd":1180602,"station_g_cd":1180602,"station_name":"香西","lon":134.009609,"lat":34.34096},{"station_cd":1180603,"station_g_cd":1180603,"station_name":"鬼無","lon":133.99385,"lat":34.325455},{"station_cd":1180604,"station_g_cd":1180604,"station_name":"端岡","lon":133.968071,"lat":34.305021},{"station_cd":1180605,"station_g_cd":1180605,"station_name":"国分","lon":133.941754,"lat":34.300541},{"station_cd":1180606,"station_g_cd":1180606,"station_name":"讃岐府中","lon":133.923917,"lat":34.291404},{"station_cd":1180607,"station_g_cd":1180607,"station_name":"鴨川","lon":133.905324,"lat":34.306863},{"station_cd":1180608,"station_g_cd":1180608,"station_name":"八十場","lon":133.884815,"lat":34.313014},{"station_cd":1180609,"station_g_cd":1180609,"station_name":"坂出","lon":133.856819,"lat":34.313189},{"station_cd":1180610,"station_g_cd":1171006,"station_name":"宇多津","lon":133.813686,"lat":34.306271},{"station_cd":1180611,"station_g_cd":1180611,"station_name":"丸亀","lon":133.793887,"lat":34.292414},{"station_cd":1180612,"station_g_cd":1180612,"station_name":"讃岐塩屋","lon":133.777486,"lat":34.285093},{"station_cd":1180613,"station_g_cd":1180101,"station_name":"多度津","lon":133.757235,"lat":34.271238},{"station_cd":1180614,"station_g_cd":1180614,"station_name":"海岸寺","lon":133.729671,"lat":34.253732},{"station_cd":1180615,"station_g_cd":1180615,"station_name":"津島ノ宮","lon":133.704313,"lat":34.23828},{"station_cd":1180616,"station_g_cd":1180616,"station_name":"詫間","lon":133.692812,"lat":34.221326},{"station_cd":1180617,"station_g_cd":1180617,"station_name":"みの","lon":133.710655,"lat":34.205633},{"station_cd":1180618,"station_g_cd":1180618,"station_name":"高瀬","lon":133.711397,"lat":34.184083},{"station_cd":1180619,"station_g_cd":1180619,"station_name":"比地大","lon":133.690325,"lat":34.166805},{"station_cd":1180620,"station_g_cd":1180620,"station_name":"本山","lon":133.68649,"lat":34.146589},{"station_cd":1180621,"station_g_cd":1180621,"station_name":"観音寺","lon":133.655687,"lat":34.124508},{"station_cd":1180622,"station_g_cd":1180622,"station_name":"豊浜","lon":133.644639,"lat":34.080544},{"station_cd":1180623,"station_g_cd":1180623,"station_name":"箕浦","lon":133.619439,"lat":34.04799},{"station_cd":1180624,"station_g_cd":1180624,"station_name":"川之江","lon":133.57617,"lat":34.014903},{"station_cd":1180625,"station_g_cd":1180625,"station_name":"伊予三島","lon":133.542401,"lat":33.979541},{"station_cd":1180626,"station_g_cd":1180626,"station_name":"伊予寒川","lon":133.500123,"lat":33.967978},{"station_cd":1180627,"station_g_cd":1180627,"station_name":"赤星","lon":133.456352,"lat":33.96673},{"station_cd":1180628,"station_g_cd":1180628,"station_name":"伊予土居","lon":133.428294,"lat":33.959024},{"station_cd":1180629,"station_g_cd":1180629,"station_name":"関川","lon":133.392692,"lat":33.955791},{"station_cd":1180630,"station_g_cd":1180630,"station_name":"多喜浜","lon":133.325094,"lat":33.970533},{"station_cd":1180631,"station_g_cd":1180631,"station_name":"新居浜","lon":133.294761,"lat":33.948124},{"station_cd":1180632,"station_g_cd":1180632,"station_name":"中萩","lon":133.253294,"lat":33.926232},{"station_cd":1180633,"station_g_cd":1180633,"station_name":"伊予西条","lon":133.188275,"lat":33.912584},{"station_cd":1180634,"station_g_cd":1180634,"station_name":"石鎚山","lon":133.157744,"lat":33.895882},{"station_cd":1180635,"station_g_cd":1180635,"station_name":"伊予氷見","lon":133.130929,"lat":33.896734},{"station_cd":1180636,"station_g_cd":1180636,"station_name":"伊予小松","lon":133.116717,"lat":33.897567},{"station_cd":1180637,"station_g_cd":1180637,"station_name":"玉之江","lon":133.098941,"lat":33.912829},{"station_cd":1180638,"station_g_cd":1180638,"station_name":"壬生川","lon":133.085568,"lat":33.929699},{"station_cd":1180639,"station_g_cd":1180639,"station_name":"伊予三芳","lon":133.064298,"lat":33.954382},{"station_cd":1180640,"station_g_cd":1180640,"station_name":"伊予桜井","lon":133.035522,"lat":34.011923},{"station_cd":1180641,"station_g_cd":1180641,"station_name":"伊予富田","lon":133.009194,"lat":34.036302},{"station_cd":1180642,"station_g_cd":1180642,"station_name":"今治","lon":132.99408,"lat":34.063765},{"station_cd":1180643,"station_g_cd":1180643,"station_name":"波止浜","lon":132.968922,"lat":34.098001},{"station_cd":1180644,"station_g_cd":1180644,"station_name":"波方","lon":132.942771,"lat":34.095217},{"station_cd":1180645,"station_g_cd":1180645,"station_name":"大西","lon":132.929345,"lat":34.066128},{"station_cd":1180646,"station_g_cd":1180646,"station_name":"伊予亀岡","lon":132.874049,"lat":34.053811},{"station_cd":1180647,"station_g_cd":1180647,"station_name":"菊間","lon":132.841111,"lat":34.033404},{"station_cd":1180648,"station_g_cd":1180648,"station_name":"浅海","lon":132.80306,"lat":34.010017},{"station_cd":1180649,"station_g_cd":1180649,"station_name":"大浦","lon":132.775597,"lat":34.000005},{"station_cd":1180650,"station_g_cd":1180650,"station_name":"伊予北条","lon":132.775339,"lat":33.972903},{"station_cd":1180651,"station_g_cd":1180651,"station_name":"柳原","lon":132.773465,"lat":33.953519},{"station_cd":1180652,"station_g_cd":1180652,"station_name":"粟井","lon":132.770576,"lat":33.942965},{"station_cd":1180653,"station_g_cd":1180653,"station_name":"光洋台","lon":132.760967,"lat":33.926886},{"station_cd":1180654,"station_g_cd":1180654,"station_name":"堀江","lon":132.753496,"lat":33.905458},{"station_cd":1180655,"station_g_cd":1180655,"station_name":"伊予和気","lon":132.740672,"lat":33.889529},{"station_cd":1180656,"station_g_cd":1180656,"station_name":"三津浜","lon":132.728798,"lat":33.86142},{"station_cd":1180657,"station_g_cd":1180657,"station_name":"松山","lon":132.751149,"lat":33.839954}]}
