
if(typeof(xml)=='undefined') xml = {};
xml.data = {"line_cd":11909,"line_name":"JR筑肥線(姪浜～西唐津)","line_lon":130.12941283594,"line_lat":33.511649366126,"line_zoom":11,"station_l":[{"station_cd":1190901,"station_g_cd":1190901,"station_name":"姪浜","lon":130.32521,"lat":33.583764},{"station_cd":1190902,"station_g_cd":1190902,"station_name":"下山門","lon":130.308217,"lat":33.58193},{"station_cd":1190903,"station_g_cd":1190903,"station_name":"今宿","lon":130.273531,"lat":33.579449},{"station_cd":1190904,"station_g_cd":1190904,"station_name":"九大学研都市","lon":130.259832,"lat":33.578178},{"station_cd":1190905,"station_g_cd":1190905,"station_name":"周船寺","lon":130.245766,"lat":33.570762},{"station_cd":1190906,"station_g_cd":1190906,"station_name":"波多江","lon":130.226374,"lat":33.563876},{"station_cd":1190921,"station_g_cd":1190921,"station_name":"糸島高校前","lon":130.211917,"lat":33.560222},{"station_cd":1190907,"station_g_cd":1190907,"station_name":"筑前前原","lon":130.199332,"lat":33.557018},{"station_cd":1190908,"station_g_cd":1190908,"station_name":"美咲が丘","lon":130.185039,"lat":33.549624},{"station_cd":1190909,"station_g_cd":1190909,"station_name":"加布里","lon":130.176738,"lat":33.54381},{"station_cd":1190910,"station_g_cd":1190910,"station_name":"一貴山","lon":130.168236,"lat":33.534294},{"station_cd":1190911,"station_g_cd":1190911,"station_name":"筑前深江","lon":130.139303,"lat":33.515099},{"station_cd":1190912,"station_g_cd":1190912,"station_name":"大入","lon":130.105576,"lat":33.50891},{"station_cd":1190913,"station_g_cd":1190913,"station_name":"福吉","lon":130.079832,"lat":33.50166},{"station_cd":1190914,"station_g_cd":1190914,"station_name":"鹿家","lon":130.047904,"lat":33.484391},{"station_cd":1190915,"station_g_cd":1190915,"station_name":"浜崎","lon":130.037369,"lat":33.446871},{"station_cd":1190916,"station_g_cd":1190916,"station_name":"虹ノ松原","lon":130.016271,"lat":33.441035},{"station_cd":1190917,"station_g_cd":1190917,"station_name":"東唐津","lon":129.996876,"lat":33.439409},{"station_cd":1190918,"station_g_cd":1190918,"station_name":"和多田","lon":129.980616,"lat":33.437048},{"station_cd":1190919,"station_g_cd":1190919,"station_name":"唐津","lon":129.96835,"lat":33.446038},{"station_cd":1190920,"station_g_cd":1190920,"station_name":"西唐津","lon":129.957748,"lat":33.46142}]}
if(typeof(xml.onload)=='function') xml.onload(xml.data);
