<?xml version="1.0" encoding="UTF-8"?>
<ekidata version="ekidata.jp line api 1.0">
	<line>
		<line_cd>11926</line_cd>
		<line_name>JR肥薩線(吉松～隼人)</line_name>
		<line_lon>130.70674646172</line_lon>
		<line_lat>31.890984289008</line_lat>
		<line_zoom>11</line_zoom>
	</line>
	<station>
		<station_cd>1192601</station_cd>
		<station_g_cd>1192519</station_g_cd>
		<station_name>吉松</station_name>
		<lon>130.738104</lon>
		<lat>32.012026</lat>
	</station>
	<station>
		<station_cd>1192602</station_cd>
		<station_g_cd>1192602</station_g_cd>
		<station_name>栗野</station_name>
		<lon>130.723663</lon>
		<lat>31.950575</lat>
	</station>
	<station>
		<station_cd>1192603</station_cd>
		<station_g_cd>1192603</station_g_cd>
		<station_name>大隅横川</station_name>
		<lon>130.702825</lon>
		<lat>31.906487</lat>
	</station>
	<station>
		<station_cd>1192604</station_cd>
		<station_g_cd>1192604</station_g_cd>
		<station_name>植村</station_name>
		<lon>130.724065</lon>
		<lat>31.890175</lat>
	</station>
	<station>
		<station_cd>1192605</station_cd>
		<station_g_cd>1192605</station_g_cd>
		<station_name>霧島温泉</station_name>
		<lon>130.734329</lon>
		<lat>31.86815</lat>
	</station>
	<station>
		<station_cd>1192606</station_cd>
		<station_g_cd>1192606</station_g_cd>
		<station_name>嘉例川</station_name>
		<lon>130.723021</lon>
		<lat>31.826939</lat>
	</station>
	<station>
		<station_cd>1192607</station_cd>
		<station_g_cd>1192607</station_g_cd>
		<station_name>中福良</station_name>
		<lon>130.733174</lon>
		<lat>31.813818</lat>
	</station>
	<station>
		<station_cd>1192608</station_cd>
		<station_g_cd>1192608</station_g_cd>
		<station_name>表木山</station_name>
		<lon>130.745324</lon>
		<lat>31.796176</lat>
	</station>
	<station>
		<station_cd>1192609</station_cd>
		<station_g_cd>1192609</station_g_cd>
		<station_name>日当山</station_name>
		<lon>130.749836</lon>
		<lat>31.763402</lat>
	</station>
	<station>
		<station_cd>1192610</station_cd>
		<station_g_cd>1190748</station_g_cd>
		<station_name>隼人</station_name>
		<lon>130.740316</lon>
		<lat>31.743893</lat>
	</station>
</ekidata>
