
if(typeof(xml)=='undefined') xml = {};
xml.data = {"line_cd":11929,"line_name":"えびの高原線","line_lon":130.95640168417,"line_lat":31.917243912645,"line_zoom":10,"station_l":[{"station_cd":1192901,"station_g_cd":1190739,"station_name":"都城","lon":131.073992,"lat":31.73657},{"station_cd":1192902,"station_g_cd":1192902,"station_name":"日向庄内","lon":131.06156,"lat":31.762056},{"station_cd":1192903,"station_g_cd":1192903,"station_name":"谷頭","lon":131.053901,"lat":31.789348},{"station_cd":1192904,"station_g_cd":1192904,"station_name":"万ケ塚","lon":131.063991,"lat":31.817215},{"station_cd":1192905,"station_g_cd":1192905,"station_name":"東高崎","lon":131.064998,"lat":31.840946},{"station_cd":1192906,"station_g_cd":1192906,"station_name":"高崎新田","lon":131.062669,"lat":31.875693},{"station_cd":1192907,"station_g_cd":1192907,"station_name":"日向前田","lon":131.040386,"lat":31.908605},{"station_cd":1192908,"station_g_cd":1192908,"station_name":"高原","lon":130.999012,"lat":31.926899},{"station_cd":1192909,"station_g_cd":1192909,"station_name":"広原","lon":130.984877,"lat":31.957766},{"station_cd":1192910,"station_g_cd":1192910,"station_name":"小林","lon":130.976132,"lat":31.990749},{"station_cd":1192911,"station_g_cd":1192911,"station_name":"西小林","lon":130.921829,"lat":32.009409},{"station_cd":1192912,"station_g_cd":1192912,"station_name":"えびの飯野","lon":130.871178,"lat":32.030295},{"station_cd":1192913,"station_g_cd":1192913,"station_name":"えびの上江","lon":130.850133,"lat":32.035519},{"station_cd":1192914,"station_g_cd":1192914,"station_name":"えびの","lon":130.81621,"lat":32.042242},{"station_cd":1192915,"station_g_cd":1192915,"station_name":"京町温泉","lon":130.767911,"lat":32.045379},{"station_cd":1192916,"station_g_cd":1192916,"station_name":"鶴丸","lon":130.748524,"lat":32.030394},{"station_cd":1192917,"station_g_cd":1192519,"station_name":"吉松","lon":130.738104,"lat":32.012026}]}
if(typeof(xml.onload)=='function') xml.onload(xml.data);
