
if(typeof(xml)=='undefined') xml = {};
xml.data = {"line_cd":11928,"line_name":"JR日南線","line_lon":131.36265390204,"line_lat":31.683576551144,"line_zoom":10,"station_l":[{"station_cd":1192801,"station_g_cd":1190729,"station_name":"宮崎","lon":131.431975,"lat":31.915742},{"station_cd":1192802,"station_g_cd":1190730,"station_name":"南宮崎","lon":131.422329,"lat":31.895097},{"station_cd":1192803,"station_g_cd":1192703,"station_name":"田吉","lon":131.430697,"lat":31.878202},{"station_cd":1192804,"station_g_cd":1192804,"station_name":"南方","lon":131.434378,"lat":31.859592},{"station_cd":1192805,"station_g_cd":1192805,"station_name":"木花","lon":131.43679,"lat":31.831544},{"station_cd":1192806,"station_g_cd":1192806,"station_name":"運動公園","lon":131.442629,"lat":31.819678},{"station_cd":1192807,"station_g_cd":1192807,"station_name":"曽山寺","lon":131.448309,"lat":31.813401},{"station_cd":1192808,"station_g_cd":1192808,"station_name":"子供の国","lon":131.457005,"lat":31.807394},{"station_cd":1192809,"station_g_cd":1192809,"station_name":"青島","lon":131.467121,"lat":31.799801},{"station_cd":1192810,"station_g_cd":1192810,"station_name":"折生迫","lon":131.467477,"lat":31.789357},{"station_cd":1192811,"station_g_cd":1192811,"station_name":"内海","lon":131.46742,"lat":31.758508},{"station_cd":1192812,"station_g_cd":1192812,"station_name":"小内海","lon":131.466127,"lat":31.737838},{"station_cd":1192813,"station_g_cd":1192813,"station_name":"伊比井","lon":131.456159,"lat":31.711069},{"station_cd":1192814,"station_g_cd":1192814,"station_name":"北郷","lon":131.373565,"lat":31.678267},{"station_cd":1192815,"station_g_cd":1192815,"station_name":"内之田","lon":131.372594,"lat":31.642551},{"station_cd":1192816,"station_g_cd":1192816,"station_name":"飫肥","lon":131.361506,"lat":31.627216},{"station_cd":1192817,"station_g_cd":1192817,"station_name":"日南","lon":131.381267,"lat":31.603076},{"station_cd":1192818,"station_g_cd":1192818,"station_name":"油津","lon":131.396169,"lat":31.586883},{"station_cd":1192819,"station_g_cd":1192819,"station_name":"大堂津","lon":131.382093,"lat":31.556897},{"station_cd":1192820,"station_g_cd":1192820,"station_name":"南郷","lon":131.372157,"lat":31.535927},{"station_cd":1192821,"station_g_cd":1192821,"station_name":"谷之口","lon":131.344615,"lat":31.533372},{"station_cd":1192822,"station_g_cd":1192822,"station_name":"榎原","lon":131.306526,"lat":31.534688},{"station_cd":1192823,"station_g_cd":1192823,"station_name":"日向大束","lon":131.248745,"lat":31.510584},{"station_cd":1192824,"station_g_cd":1192824,"station_name":"日向北方","lon":131.24318,"lat":31.483037},{"station_cd":1192825,"station_g_cd":1192825,"station_name":"串間","lon":131.230448,"lat":31.462684},{"station_cd":1192826,"station_g_cd":1192826,"station_name":"福島今町","lon":131.20333,"lat":31.456906},{"station_cd":1192827,"station_g_cd":1192827,"station_name":"福島高松","lon":131.178301,"lat":31.458619},{"station_cd":1192828,"station_g_cd":1192828,"station_name":"大隅夏井","lon":131.136449,"lat":31.469801},{"station_cd":1192829,"station_g_cd":1192829,"station_name":"志布志","lon":131.097864,"lat":31.47285}]}
if(typeof(xml.onload)=='function') xml.onload(xml.data);
