<?xml version="1.0" encoding="UTF-8"?>
<ekidata version="ekidata.jp line api 1.0">
	<line>
		<line_cd>21007</line_cd>
		<line_name>東武越生線</line_name>
		<line_lon>139.34262265479</line_lon>
		<line_lat>35.953218770961</line_lat>
		<line_zoom>12</line_zoom>
	</line>
	<station>
		<station_cd>2100701</station_cd>
		<station_g_cd>2100126</station_g_cd>
		<station_name>坂戸</station_name>
		<lon>139.394032</lon>
		<lat>35.957181</lat>
	</station>
	<station>
		<station_cd>2100702</station_cd>
		<station_g_cd>2100702</station_g_cd>
		<station_name>一本松</station_name>
		<lon>139.370062</lon>
		<lat>35.94008</lat>
	</station>
	<station>
		<station_cd>2100703</station_cd>
		<station_g_cd>2100703</station_g_cd>
		<station_name>西大家</station_name>
		<lon>139.356321</lon>
		<lat>35.931698</lat>
	</station>
	<station>
		<station_cd>2100704</station_cd>
		<station_g_cd>2100704</station_g_cd>
		<station_name>川角</station_name>
		<lon>139.346426</lon>
		<lat>35.937438</lat>
	</station>
	<station>
		<station_cd>2100705</station_cd>
		<station_g_cd>2100705</station_g_cd>
		<station_name>武州長瀬</station_name>
		<lon>139.325561</lon>
		<lat>35.942023</lat>
	</station>
	<station>
		<station_cd>2100706</station_cd>
		<station_g_cd>2100706</station_g_cd>
		<station_name>東毛呂</station_name>
		<lon>139.315303</lon>
		<lat>35.947058</lat>
	</station>
	<station>
		<station_cd>2100707</station_cd>
		<station_g_cd>2100707</station_g_cd>
		<station_name>武州唐沢</station_name>
		<lon>139.30912</lon>
		<lat>35.952127</lat>
	</station>
	<station>
		<station_cd>2100708</station_cd>
		<station_g_cd>1131803</station_g_cd>
		<station_name>越生</station_name>
		<lon>139.299437</lon>
		<lat>35.962559</lat>
	</station>
</ekidata>
