
if(typeof(xml)=='undefined') xml = {};
xml.data = {"line_cd":21009,"line_name":"東武鬼怒川線","line_lon":139.70717357471,"line_lat":36.798129745501,"line_zoom":12,"station_l":[{"station_cd":2100901,"station_g_cd":2100324,"station_name":"下今市","lon":139.692666,"lat":36.72563},{"station_cd":2100902,"station_g_cd":2100902,"station_name":"大谷向","lon":139.691916,"lat":36.73224},{"station_cd":2100903,"station_g_cd":2100903,"station_name":"大桑","lon":139.713546,"lat":36.76079},{"station_cd":2100904,"station_g_cd":2100904,"station_name":"新高徳","lon":139.710623,"lat":36.779816},{"station_cd":2100905,"station_g_cd":2100905,"station_name":"小佐越","lon":139.706465,"lat":36.802252},{"station_cd":2100909,"station_g_cd":2100909,"station_name":"東武ワールドスクウェア","lon":139.709083,"lat":36.808333},{"station_cd":2100906,"station_g_cd":2100906,"station_name":"鬼怒川温泉","lon":139.716552,"lat":36.822622},{"station_cd":2100907,"station_g_cd":2100907,"station_name":"鬼怒川公園","lon":139.72287,"lat":36.841},{"station_cd":2100908,"station_g_cd":2100908,"station_name":"新藤原","lon":139.732963,"lat":36.852505}]}
if(typeof(xml.onload)=='function') xml.onload(xml.data);
