<?xml version="1.0" encoding="UTF-8"?>
<ekidata version="ekidata.jp line api 1.0">
	<line>
		<line_cd>22012</line_cd>
		<line_name>西武多摩川線</line_name>
		<line_lon>139.51353168782</line_lon>
		<line_lat>35.677028280788</line_lat>
		<line_zoom>13</line_zoom>
	</line>
	<station>
		<station_cd>2201201</station_cd>
		<station_g_cd>1131221</station_g_cd>
		<station_name>武蔵境</station_name>
		<lon>139.543402</lon>
		<lat>35.702083</lat>
	</station>
	<station>
		<station_cd>2201202</station_cd>
		<station_g_cd>2201202</station_g_cd>
		<station_name>新小金井</station_name>
		<lon>139.526603</lon>
		<lat>35.695908</lat>
	</station>
	<station>
		<station_cd>2201203</station_cd>
		<station_g_cd>2201203</station_g_cd>
		<station_name>多磨</station_name>
		<lon>139.51713</lon>
		<lat>35.676821</lat>
	</station>
	<station>
		<station_cd>2201204</station_cd>
		<station_g_cd>2201204</station_g_cd>
		<station_name>白糸台</station_name>
		<lon>139.509862</lon>
		<lat>35.666517</lat>
	</station>
	<station>
		<station_cd>2201205</station_cd>
		<station_g_cd>2201205</station_g_cd>
		<station_name>競艇場前</station_name>
		<lon>139.499721</lon>
		<lat>35.656232</lat>
	</station>
	<station>
		<station_cd>2201206</station_cd>
		<station_g_cd>2201206</station_g_cd>
		<station_name>是政</station_name>
		<lon>139.488592</lon>
		<lat>35.656242</lat>
	</station>
</ekidata>
