<?xml version="1.0" encoding="UTF-8"?>
<ekidata version="ekidata.jp line api 1.0">
	<line>
		<line_cd>23001</line_cd>
		<line_name>京成本線</line_name>
		<line_lon>140.07226251113</line_lon>
		<line_lat>35.726288869529</line_lat>
		<line_zoom>10</line_zoom>
	</line>
	<station>
		<station_cd>2300101</station_cd>
		<station_g_cd>2300101</station_g_cd>
		<station_name>京成上野</station_name>
		<lon>139.773571</lon>
		<lat>35.711232</lat>
	</station>
	<station>
		<station_cd>2300102</station_cd>
		<station_g_cd>1130218</station_g_cd>
		<station_name>日暮里</station_name>
		<lon>139.771287</lon>
		<lat>35.727908</lat>
	</station>
	<station>
		<station_cd>2300103</station_cd>
		<station_g_cd>2300103</station_g_cd>
		<station_name>新三河島</station_name>
		<lon>139.773834</lon>
		<lat>35.73714</lat>
	</station>
	<station>
		<station_cd>2300104</station_cd>
		<station_g_cd>2300104</station_g_cd>
		<station_name>町屋</station_name>
		<lon>139.781499</lon>
		<lat>35.742354</lat>
	</station>
	<station>
		<station_cd>2300105</station_cd>
		<station_g_cd>2300105</station_g_cd>
		<station_name>千住大橋</station_name>
		<lon>139.796934</lon>
		<lat>35.74243</lat>
	</station>
	<station>
		<station_cd>2300106</station_cd>
		<station_g_cd>2100208</station_g_cd>
		<station_name>京成関屋</station_name>
		<lon>139.81183</lon>
		<lat>35.744008</lat>
	</station>
	<station>
		<station_cd>2300107</station_cd>
		<station_g_cd>2300107</station_g_cd>
		<station_name>堀切菖蒲園</station_name>
		<lon>139.827545</lon>
		<lat>35.747649</lat>
	</station>
	<station>
		<station_cd>2300108</station_cd>
		<station_g_cd>2300108</station_g_cd>
		<station_name>お花茶屋</station_name>
		<lon>139.83988</lon>
		<lat>35.747585</lat>
	</station>
	<station>
		<station_cd>2300109</station_cd>
		<station_g_cd>2300109</station_g_cd>
		<station_name>青砥</station_name>
		<lon>139.856292</lon>
		<lat>35.745883</lat>
	</station>
	<station>
		<station_cd>2300110</station_cd>
		<station_g_cd>2300110</station_g_cd>
		<station_name>京成高砂</station_name>
		<lon>139.866875</lon>
		<lat>35.750932</lat>
	</station>
	<station>
		<station_cd>2300111</station_cd>
		<station_g_cd>2300111</station_g_cd>
		<station_name>京成小岩</station_name>
		<lon>139.88371</lon>
		<lat>35.742158</lat>
	</station>
	<station>
		<station_cd>2300112</station_cd>
		<station_g_cd>2300112</station_g_cd>
		<station_name>江戸川</station_name>
		<lon>139.896226</lon>
		<lat>35.737723</lat>
	</station>
	<station>
		<station_cd>2300113</station_cd>
		<station_g_cd>2300113</station_g_cd>
		<station_name>国府台</station_name>
		<lon>139.90322</lon>
		<lat>35.736301</lat>
	</station>
	<station>
		<station_cd>2300114</station_cd>
		<station_g_cd>2300114</station_g_cd>
		<station_name>市川真間</station_name>
		<lon>139.911717</lon>
		<lat>35.73121</lat>
	</station>
	<station>
		<station_cd>2300115</station_cd>
		<station_g_cd>2300115</station_g_cd>
		<station_name>菅野</station_name>
		<lon>139.919413</lon>
		<lat>35.728272</lat>
	</station>
	<station>
		<station_cd>2300116</station_cd>
		<station_g_cd>1131328</station_g_cd>
		<station_name>京成八幡</station_name>
		<lon>139.92816</lon>
		<lat>35.723811</lat>
	</station>
	<station>
		<station_cd>2300117</station_cd>
		<station_g_cd>2300117</station_g_cd>
		<station_name>鬼越</station_name>
		<lon>139.937932</lon>
		<lat>35.719776</lat>
	</station>
	<station>
		<station_cd>2300118</station_cd>
		<station_g_cd>2300118</station_g_cd>
		<station_name>京成中山</station_name>
		<lon>139.944203</lon>
		<lat>35.716998</lat>
	</station>
	<station>
		<station_cd>2300119</station_cd>
		<station_g_cd>2300119</station_g_cd>
		<station_name>東中山</station_name>
		<lon>139.952683</lon>
		<lat>35.714385</lat>
	</station>
	<station>
		<station_cd>2300120</station_cd>
		<station_g_cd>2300120</station_g_cd>
		<station_name>京成西船</station_name>
		<lon>139.958863</lon>
		<lat>35.711627</lat>
	</station>
	<station>
		<station_cd>2300121</station_cd>
		<station_g_cd>2300121</station_g_cd>
		<station_name>海神</station_name>
		<lon>139.971888</lon>
		<lat>35.705888</lat>
	</station>
	<station>
		<station_cd>2300122</station_cd>
		<station_g_cd>1131331</station_g_cd>
		<station_name>京成船橋</station_name>
		<lon>139.985451</lon>
		<lat>35.700161</lat>
	</station>
	<station>
		<station_cd>2300123</station_cd>
		<station_g_cd>2300123</station_g_cd>
		<station_name>大神宮下</station_name>
		<lon>139.991431</lon>
		<lat>35.693945</lat>
	</station>
	<station>
		<station_cd>2300124</station_cd>
		<station_g_cd>2300124</station_g_cd>
		<station_name>船橋競馬場</station_name>
		<lon>139.997998</lon>
		<lat>35.689606</lat>
	</station>
	<station>
		<station_cd>2300125</station_cd>
		<station_g_cd>2300125</station_g_cd>
		<station_name>谷津</station_name>
		<lon>140.007658</lon>
		<lat>35.685257</lat>
	</station>
	<station>
		<station_cd>2300126</station_cd>
		<station_g_cd>2300126</station_g_cd>
		<station_name>京成津田沼</station_name>
		<lon>140.024823</lon>
		<lat>35.68364</lat>
	</station>
	<station>
		<station_cd>2300127</station_cd>
		<station_g_cd>2300127</station_g_cd>
		<station_name>京成大久保</station_name>
		<lon>140.048629</lon>
		<lat>35.686016</lat>
	</station>
	<station>
		<station_cd>2300128</station_cd>
		<station_g_cd>2300128</station_g_cd>
		<station_name>実籾</station_name>
		<lon>140.068289</lon>
		<lat>35.686852</lat>
	</station>
	<station>
		<station_cd>2300129</station_cd>
		<station_g_cd>2300129</station_g_cd>
		<station_name>八千代台</station_name>
		<lon>140.090942</lon>
		<lat>35.701465</lat>
	</station>
	<station>
		<station_cd>2300130</station_cd>
		<station_g_cd>2300130</station_g_cd>
		<station_name>京成大和田</station_name>
		<lon>140.108578</lon>
		<lat>35.712309</lat>
	</station>
	<station>
		<station_cd>2300131</station_cd>
		<station_g_cd>2300131</station_g_cd>
		<station_name>勝田台</station_name>
		<lon>140.126053</lon>
		<lat>35.715445</lat>
	</station>
	<station>
		<station_cd>2300132</station_cd>
		<station_g_cd>2300132</station_g_cd>
		<station_name>志津</station_name>
		<lon>140.144982</lon>
		<lat>35.717406</lat>
	</station>
	<station>
		<station_cd>2300133</station_cd>
		<station_g_cd>2300133</station_g_cd>
		<station_name>ユーカリが丘</station_name>
		<lon>140.156354</lon>
		<lat>35.721801</lat>
	</station>
	<station>
		<station_cd>2300134</station_cd>
		<station_g_cd>2300134</station_g_cd>
		<station_name>京成臼井</station_name>
		<lon>140.180796</lon>
		<lat>35.730017</lat>
	</station>
	<station>
		<station_cd>2300135</station_cd>
		<station_g_cd>2300135</station_g_cd>
		<station_name>京成佐倉</station_name>
		<lon>140.229633</lon>
		<lat>35.725205</lat>
	</station>
	<station>
		<station_cd>2300136</station_cd>
		<station_g_cd>2300136</station_g_cd>
		<station_name>大佐倉</station_name>
		<lon>140.25079</lon>
		<lat>35.729908</lat>
	</station>
	<station>
		<station_cd>2300137</station_cd>
		<station_g_cd>2300137</station_g_cd>
		<station_name>京成酒々井</station_name>
		<lon>140.270132</lon>
		<lat>35.736867</lat>
	</station>
	<station>
		<station_cd>2300138</station_cd>
		<station_g_cd>2300138</station_g_cd>
		<station_name>宗吾参道</station_name>
		<lon>140.280975</lon>
		<lat>35.752669</lat>
	</station>
	<station>
		<station_cd>2300139</station_cd>
		<station_g_cd>2300139</station_g_cd>
		<station_name>公津の杜</station_name>
		<lon>140.294904</lon>
		<lat>35.760446</lat>
	</station>
	<station>
		<station_cd>2300140</station_cd>
		<station_g_cd>1132703</station_g_cd>
		<station_name>京成成田</station_name>
		<lon>140.315473</lon>
		<lat>35.776308</lat>
	</station>
	<station>
		<station_cd>2300141</station_cd>
		<station_g_cd>2300141</station_g_cd>
		<station_name>東成田</station_name>
		<lon>140.387225</lon>
		<lat>35.770091</lat>
	</station>
	<station>
		<station_cd>2300142</station_cd>
		<station_g_cd>1132813</station_g_cd>
		<station_name>空港第２ビル（第２旅客ターミナル）</station_name>
		<lon>140.387163</lon>
		<lat>35.773693</lat>
	</station>
	<station>
		<station_cd>2300143</station_cd>
		<station_g_cd>1132705</station_g_cd>
		<station_name>成田空港（第１旅客ターミナル）</station_name>
		<lon>140.384644</lon>
		<lat>35.763983</lat>
	</station>
</ekidata>
