{"line_cd":25003,"line_name":"小田急多摩線","line_lon":139.46029374072,"line_lat":35.61945834975,"line_zoom":13,"station_l":[{"station_cd":2500301,"station_g_cd":2500123,"station_name":"新百合ヶ丘","lon":139.507608,"lat":35.603705},{"station_cd":2500302,"station_g_cd":2500302,"station_name":"五月台","lon":139.493542,"lat":35.600174},{"station_cd":2500303,"station_g_cd":2500303,"station_name":"栗平","lon":139.481298,"lat":35.605731},{"station_cd":2500304,"station_g_cd":2500304,"station_name":"黒川","lon":139.470731,"lat":35.613203},{"station_cd":2500305,"station_g_cd":2500305,"station_name":"はるひ野","lon":139.464534,"lat":35.618885},{"station_cd":2500306,"station_g_cd":2400207,"station_name":"小田急永山","lon":139.447943,"lat":35.629972},{"station_cd":2500307,"station_g_cd":2400208,"station_name":"小田急多摩センター","lon":139.424298,"lat":35.624902},{"station_cd":2500308,"station_g_cd":2500308,"station_name":"唐木田","lon":139.411622,"lat":35.616672}]}
