
if(typeof(xml)=='undefined') xml = {};
xml.data = {"line_cd":26007,"line_name":"東急世田谷線","line_lon":139.65254186138,"line_lat":35.653196779881,"line_zoom":14,"station_l":[{"station_cd":2600701,"station_g_cd":2600303,"station_name":"三軒茶屋","lon":139.670156,"lat":35.643716},{"station_cd":2600702,"station_g_cd":2600702,"station_name":"西太子堂","lon":139.666382,"lat":35.644545},{"station_cd":2600703,"station_g_cd":2600703,"station_name":"若林","lon":139.659911,"lat":35.645933},{"station_cd":2600704,"station_g_cd":2600704,"station_name":"松陰神社前","lon":139.655211,"lat":35.643947},{"station_cd":2600705,"station_g_cd":2600705,"station_name":"世田谷","lon":139.650945,"lat":35.643564},{"station_cd":2600706,"station_g_cd":2600706,"station_name":"上町","lon":139.646276,"lat":35.643656},{"station_cd":2600707,"station_g_cd":2600707,"station_name":"宮の坂","lon":139.64494,"lat":35.647508},{"station_cd":2600708,"station_g_cd":2500110,"station_name":"山下","lon":139.646509,"lat":35.653844},{"station_cd":2600709,"station_g_cd":2600709,"station_name":"松原","lon":139.642,"lat":35.660048},{"station_cd":2600710,"station_g_cd":2400107,"station_name":"下高井戸","lon":139.641372,"lat":35.66615}]}
if(typeof(xml.onload)=='function') xml.onload(xml.data);
