<?xml version="1.0" encoding="UTF-8"?>
<ekidata version="ekidata.jp line api 1.0">
	<line>
		<line_cd>28009</line_cd>
		<line_name>東京メトロ南北線</line_name>
		<line_lon>139.73433187076</line_lon>
		<line_lat>35.710299718408</line_lat>
		<line_zoom>12</line_zoom>
	</line>
	<station>
		<station_cd>2800901</station_cd>
		<station_g_cd>2800901</station_g_cd>
		<station_name>赤羽岩淵</station_name>
		<lon>139.722103</lon>
		<lat>35.783417</lat>
	</station>
	<station>
		<station_cd>2800902</station_cd>
		<station_g_cd>2800902</station_g_cd>
		<station_name>志茂</station_name>
		<lon>139.732599</lon>
		<lat>35.777948</lat>
	</station>
	<station>
		<station_cd>2800903</station_cd>
		<station_g_cd>2800903</station_g_cd>
		<station_name>王子神谷</station_name>
		<lon>139.735933</lon>
		<lat>35.765172</lat>
	</station>
	<station>
		<station_cd>2800904</station_cd>
		<station_g_cd>1133212</station_g_cd>
		<station_name>王子</station_name>
		<lon>139.737618</lon>
		<lat>35.753966</lat>
	</station>
	<station>
		<station_cd>2800905</station_cd>
		<station_g_cd>2800905</station_g_cd>
		<station_name>西ケ原</station_name>
		<lon>139.742322</lon>
		<lat>35.746008</lat>
	</station>
	<station>
		<station_cd>2800906</station_cd>
		<station_g_cd>1130215</station_g_cd>
		<station_name>駒込</station_name>
		<lon>139.746442</lon>
		<lat>35.736959</lat>
	</station>
	<station>
		<station_cd>2800907</station_cd>
		<station_g_cd>2800907</station_g_cd>
		<station_name>本駒込</station_name>
		<lon>139.753828</lon>
		<lat>35.724155</lat>
	</station>
	<station>
		<station_cd>2800908</station_cd>
		<station_g_cd>2800908</station_g_cd>
		<station_name>東大前</station_name>
		<lon>139.758025</lon>
		<lat>35.717633</lat>
	</station>
	<station>
		<station_cd>2800909</station_cd>
		<station_g_cd>2800204</station_g_cd>
		<station_name>後楽園</station_name>
		<lon>139.751864</lon>
		<lat>35.707898</lat>
	</station>
	<station>
		<station_cd>2800910</station_cd>
		<station_g_cd>1131316</station_g_cd>
		<station_name>飯田橋</station_name>
		<lon>139.743669</lon>
		<lat>35.701934</lat>
	</station>
	<station>
		<station_cd>2800911</station_cd>
		<station_g_cd>1131315</station_g_cd>
		<station_name>市ケ谷</station_name>
		<lon>139.736389</lon>
		<lat>35.692972</lat>
	</station>
	<station>
		<station_cd>2800912</station_cd>
		<station_g_cd>1131102</station_g_cd>
		<station_name>四ツ谷</station_name>
		<lon>139.72955</lon>
		<lat>35.686032</lat>
	</station>
	<station>
		<station_cd>2800913</station_cd>
		<station_g_cd>2800115</station_g_cd>
		<station_name>永田町</station_name>
		<lon>139.740258</lon>
		<lat>35.678757</lat>
	</station>
	<station>
		<station_cd>2800914</station_cd>
		<station_g_cd>2800114</station_g_cd>
		<station_name>溜池山王</station_name>
		<lon>139.741419</lon>
		<lat>35.673621</lat>
	</station>
	<station>
		<station_cd>2800915</station_cd>
		<station_g_cd>2800915</station_g_cd>
		<station_name>六本木一丁目</station_name>
		<lon>139.739</lon>
		<lat>35.665595</lat>
	</station>
	<station>
		<station_cd>2800916</station_cd>
		<station_g_cd>2800916</station_g_cd>
		<station_name>麻布十番</station_name>
		<lon>139.737051</lon>
		<lat>35.654682</lat>
	</station>
	<station>
		<station_cd>2800917</station_cd>
		<station_g_cd>2800917</station_g_cd>
		<station_name>白金高輪</station_name>
		<lon>139.734104</lon>
		<lat>35.642903</lat>
	</station>
	<station>
		<station_cd>2800918</station_cd>
		<station_g_cd>2800918</station_g_cd>
		<station_name>白金台</station_name>
		<lon>139.726133</lon>
		<lat>35.637917</lat>
	</station>
	<station>
		<station_cd>2800919</station_cd>
		<station_g_cd>1130203</station_g_cd>
		<station_name>目黒</station_name>
		<lon>139.7155</lon>
		<lat>35.633272</lat>
	</station>
</ekidata>
