<?xml version="1.0" encoding="UTF-8"?>
<ekidata version="ekidata.jp line api 1.0">
	<line>
		<line_cd>28006</line_cd>
		<line_name>東京メトロ有楽町線</line_name>
		<line_lon>139.7042043431</line_lon>
		<line_lat>35.733165519161</line_lat>
		<line_zoom>11</line_zoom>
	</line>
	<station>
		<station_cd>2800601</station_cd>
		<station_g_cd>2100111</station_g_cd>
		<station_name>和光市</station_name>
		<lon>139.612434</lon>
		<lat>35.788507</lat>
	</station>
	<station>
		<station_cd>2800602</station_cd>
		<station_g_cd>2100110</station_g_cd>
		<station_name>地下鉄成増</station_name>
		<lon>139.631497</lon>
		<lat>35.776557</lat>
	</station>
	<station>
		<station_cd>2800603</station_cd>
		<station_g_cd>2100109</station_g_cd>
		<station_name>地下鉄赤塚</station_name>
		<lon>139.644021</lon>
		<lat>35.769939</lat>
	</station>
	<station>
		<station_cd>2800604</station_cd>
		<station_g_cd>2800604</station_g_cd>
		<station_name>平和台</station_name>
		<lon>139.653762</lon>
		<lat>35.757863</lat>
	</station>
	<station>
		<station_cd>2800605</station_cd>
		<station_g_cd>2800605</station_g_cd>
		<station_name>氷川台</station_name>
		<lon>139.665567</lon>
		<lat>35.74955</lat>
	</station>
	<station>
		<station_cd>2800606</station_cd>
		<station_g_cd>2200301</station_g_cd>
		<station_name>小竹向原</station_name>
		<lon>139.678572</lon>
		<lat>35.743803</lat>
	</station>
	<station>
		<station_cd>2800607</station_cd>
		<station_g_cd>2800607</station_g_cd>
		<station_name>千川</station_name>
		<lon>139.689271</lon>
		<lat>35.738229</lat>
	</station>
	<station>
		<station_cd>2800608</station_cd>
		<station_g_cd>2800608</station_g_cd>
		<station_name>要町</station_name>
		<lon>139.698715</lon>
		<lat>35.73323</lat>
	</station>
	<station>
		<station_cd>2800609</station_cd>
		<station_g_cd>1130212</station_g_cd>
		<station_name>池袋</station_name>
		<lon>139.710088</lon>
		<lat>35.729565</lat>
	</station>
	<station>
		<station_cd>2800610</station_cd>
		<station_g_cd>2800610</station_g_cd>
		<station_name>東池袋</station_name>
		<lon>139.719546</lon>
		<lat>35.725732</lat>
	</station>
	<station>
		<station_cd>2800611</station_cd>
		<station_g_cd>2800611</station_g_cd>
		<station_name>護国寺</station_name>
		<lon>139.72754</lon>
		<lat>35.719044</lat>
	</station>
	<station>
		<station_cd>2800612</station_cd>
		<station_g_cd>2800612</station_g_cd>
		<station_name>江戸川橋</station_name>
		<lon>139.733538</lon>
		<lat>35.709495</lat>
	</station>
	<station>
		<station_cd>2800613</station_cd>
		<station_g_cd>1131316</station_g_cd>
		<station_name>飯田橋</station_name>
		<lon>139.743669</lon>
		<lat>35.701934</lat>
	</station>
	<station>
		<station_cd>2800614</station_cd>
		<station_g_cd>1131315</station_g_cd>
		<station_name>市ケ谷</station_name>
		<lon>139.73625</lon>
		<lat>35.691389</lat>
	</station>
	<station>
		<station_cd>2800615</station_cd>
		<station_g_cd>2800615</station_g_cd>
		<station_name>麹町</station_name>
		<lon>139.737613</lon>
		<lat>35.684006</lat>
	</station>
	<station>
		<station_cd>2800616</station_cd>
		<station_g_cd>2800115</station_g_cd>
		<station_name>永田町</station_name>
		<lon>139.740258</lon>
		<lat>35.678757</lat>
	</station>
	<station>
		<station_cd>2800617</station_cd>
		<station_g_cd>2800617</station_g_cd>
		<station_name>桜田門</station_name>
		<lon>139.75149</lon>
		<lat>35.677405</lat>
	</station>
	<station>
		<station_cd>2800618</station_cd>
		<station_g_cd>1130225</station_g_cd>
		<station_name>有楽町</station_name>
		<lon>139.763265</lon>
		<lat>35.675714</lat>
	</station>
	<station>
		<station_cd>2800619</station_cd>
		<station_g_cd>2800111</station_g_cd>
		<station_name>銀座一丁目</station_name>
		<lon>139.767045</lon>
		<lat>35.67435</lat>
	</station>
	<station>
		<station_cd>2800620</station_cd>
		<station_g_cd>2800620</station_g_cd>
		<station_name>新富町</station_name>
		<lon>139.773711</lon>
		<lat>35.670462</lat>
	</station>
	<station>
		<station_cd>2800621</station_cd>
		<station_g_cd>2800621</station_g_cd>
		<station_name>月島</station_name>
		<lon>139.784233</lon>
		<lat>35.664871</lat>
	</station>
	<station>
		<station_cd>2800622</station_cd>
		<station_g_cd>2800622</station_g_cd>
		<station_name>豊洲</station_name>
		<lon>139.79621</lon>
		<lat>35.654908</lat>
	</station>
	<station>
		<station_cd>2800623</station_cd>
		<station_g_cd>2800623</station_g_cd>
		<station_name>辰巳</station_name>
		<lon>139.81052</lon>
		<lat>35.645576</lat>
	</station>
	<station>
		<station_cd>2800624</station_cd>
		<station_g_cd>1132605</station_g_cd>
		<station_name>新木場</station_name>
		<lon>139.826254</lon>
		<lat>35.645832</lat>
	</station>
</ekidata>
