<?xml version="1.0" encoding="UTF-8"?>
<ekidata version="ekidata.jp line api 1.0">
	<line>
		<line_cd>30012</line_cd>
		<line_name>名鉄瀬戸線</line_name>
		<line_lon>136.99254328203</line_lon>
		<line_lat>35.207830352249</line_lat>
		<line_zoom>11</line_zoom>
	</line>
	<station>
		<station_cd>3001201</station_cd>
		<station_g_cd>3001201</station_g_cd>
		<station_name>栄町</station_name>
		<lon>136.908962</lon>
		<lat>35.170567</lat>
	</station>
	<station>
		<station_cd>3001202</station_cd>
		<station_g_cd>3001202</station_g_cd>
		<station_name>東大手</station_name>
		<lon>136.908376</lon>
		<lat>35.183727</lat>
	</station>
	<station>
		<station_cd>3001203</station_cd>
		<station_g_cd>3001203</station_g_cd>
		<station_name>清水</station_name>
		<lon>136.913814</lon>
		<lat>35.187152</lat>
	</station>
	<station>
		<station_cd>3001204</station_cd>
		<station_g_cd>3001204</station_g_cd>
		<station_name>尼ヶ坂</station_name>
		<lon>136.91928</lon>
		<lat>35.187957</lat>
	</station>
	<station>
		<station_cd>3001205</station_cd>
		<station_g_cd>3001205</station_g_cd>
		<station_name>森下</station_name>
		<lon>136.929657</lon>
		<lat>35.188299</lat>
	</station>
	<station>
		<station_cd>3001206</station_cd>
		<station_g_cd>1141105</station_g_cd>
		<station_name>大曽根</station_name>
		<lon>136.936855</lon>
		<lat>35.1916</lat>
	</station>
	<station>
		<station_cd>3001207</station_cd>
		<station_g_cd>3001207</station_g_cd>
		<station_name>矢田</station_name>
		<lon>136.947802</lon>
		<lat>35.193699</lat>
	</station>
	<station>
		<station_cd>3001208</station_cd>
		<station_g_cd>3001208</station_g_cd>
		<station_name>守山自衛隊前</station_name>
		<lon>136.957843</lon>
		<lat>35.196258</lat>
	</station>
	<station>
		<station_cd>3001209</station_cd>
		<station_g_cd>3001209</station_g_cd>
		<station_name>瓢箪山</station_name>
		<lon>136.965048</lon>
		<lat>35.197222</lat>
	</station>
	<station>
		<station_cd>3001210</station_cd>
		<station_g_cd>3001210</station_g_cd>
		<station_name>小幡</station_name>
		<lon>136.975769</lon>
		<lat>35.200216</lat>
	</station>
	<station>
		<station_cd>3001211</station_cd>
		<station_g_cd>3001211</station_g_cd>
		<station_name>喜多山</station_name>
		<lon>136.987735</lon>
		<lat>35.205099</lat>
	</station>
	<station>
		<station_cd>3001212</station_cd>
		<station_g_cd>3001212</station_g_cd>
		<station_name>大森・金城学院前</station_name>
		<lon>136.996465</lon>
		<lat>35.206934</lat>
	</station>
	<station>
		<station_cd>3001213</station_cd>
		<station_g_cd>3001213</station_g_cd>
		<station_name>印場</station_name>
		<lon>137.011132</lon>
		<lat>35.211085</lat>
	</station>
	<station>
		<station_cd>3001214</station_cd>
		<station_g_cd>3001214</station_g_cd>
		<station_name>旭前</station_name>
		<lon>137.019706</lon>
		<lat>35.214162</lat>
	</station>
	<station>
		<station_cd>3001215</station_cd>
		<station_g_cd>3001215</station_g_cd>
		<station_name>尾張旭</station_name>
		<lon>137.036393</lon>
		<lat>35.216743</lat>
	</station>
	<station>
		<station_cd>3001216</station_cd>
		<station_g_cd>3001216</station_g_cd>
		<station_name>三郷</station_name>
		<lon>137.052352</lon>
		<lat>35.216258</lat>
	</station>
	<station>
		<station_cd>3001217</station_cd>
		<station_g_cd>3001217</station_g_cd>
		<station_name>水野</station_name>
		<lon>137.069659</lon>
		<lat>35.224296</lat>
	</station>
	<station>
		<station_cd>3001218</station_cd>
		<station_g_cd>3001218</station_g_cd>
		<station_name>新瀬戸</station_name>
		<lon>137.077639</lon>
		<lat>35.225485</lat>
	</station>
	<station>
		<station_cd>3001219</station_cd>
		<station_g_cd>3001219</station_g_cd>
		<station_name>瀬戸市役所前</station_name>
		<lon>137.084177</lon>
		<lat>35.224986</lat>
	</station>
	<station>
		<station_cd>3001220</station_cd>
		<station_g_cd>3001220</station_g_cd>
		<station_name>尾張瀬戸</station_name>
		<lon>137.09727</lon>
		<lat>35.225094</lat>
	</station>
</ekidata>
