
if(typeof(xml)=='undefined') xml = {};
xml.data = {"line_cd":30012,"line_name":"名鉄瀬戸線","line_lon":136.99254328203,"line_lat":35.207830352249,"line_zoom":11,"station_l":[{"station_cd":3001201,"station_g_cd":3001201,"station_name":"栄町","lon":136.908962,"lat":35.170567},{"station_cd":3001202,"station_g_cd":3001202,"station_name":"東大手","lon":136.908376,"lat":35.183727},{"station_cd":3001203,"station_g_cd":3001203,"station_name":"清水","lon":136.913814,"lat":35.187152},{"station_cd":3001204,"station_g_cd":3001204,"station_name":"尼ヶ坂","lon":136.91928,"lat":35.187957},{"station_cd":3001205,"station_g_cd":3001205,"station_name":"森下","lon":136.929657,"lat":35.188299},{"station_cd":3001206,"station_g_cd":1141105,"station_name":"大曽根","lon":136.936855,"lat":35.1916},{"station_cd":3001207,"station_g_cd":3001207,"station_name":"矢田","lon":136.947802,"lat":35.193699},{"station_cd":3001208,"station_g_cd":3001208,"station_name":"守山自衛隊前","lon":136.957843,"lat":35.196258},{"station_cd":3001209,"station_g_cd":3001209,"station_name":"瓢箪山","lon":136.965048,"lat":35.197222},{"station_cd":3001210,"station_g_cd":3001210,"station_name":"小幡","lon":136.975769,"lat":35.200216},{"station_cd":3001211,"station_g_cd":3001211,"station_name":"喜多山","lon":136.987735,"lat":35.205099},{"station_cd":3001212,"station_g_cd":3001212,"station_name":"大森・金城学院前","lon":136.996465,"lat":35.206934},{"station_cd":3001213,"station_g_cd":3001213,"station_name":"印場","lon":137.011132,"lat":35.211085},{"station_cd":3001214,"station_g_cd":3001214,"station_name":"旭前","lon":137.019706,"lat":35.214162},{"station_cd":3001215,"station_g_cd":3001215,"station_name":"尾張旭","lon":137.036393,"lat":35.216743},{"station_cd":3001216,"station_g_cd":3001216,"station_name":"三郷","lon":137.052352,"lat":35.216258},{"station_cd":3001217,"station_g_cd":3001217,"station_name":"水野","lon":137.069659,"lat":35.224296},{"station_cd":3001218,"station_g_cd":3001218,"station_name":"新瀬戸","lon":137.077639,"lat":35.225485},{"station_cd":3001219,"station_g_cd":3001219,"station_name":"瀬戸市役所前","lon":137.084177,"lat":35.224986},{"station_cd":3001220,"station_g_cd":3001220,"station_name":"尾張瀬戸","lon":137.09727,"lat":35.225094}]}
if(typeof(xml.onload)=='function') xml.onload(xml.data);
