
if(typeof(xml)=='undefined') xml = {};
xml.data = {"line_cd":31003,"line_name":"近鉄南大阪線","line_lon":135.65305195787,"line_lat":34.572452045721,"line_zoom":11,"station_l":[{"station_cd":3100301,"station_g_cd":1160719,"station_name":"大阪阿部野橋","lon":135.514529,"lat":34.645643},{"station_cd":3100302,"station_g_cd":3100302,"station_name":"河堀口","lon":135.524237,"lat":34.641166},{"station_cd":3100303,"station_g_cd":3100303,"station_name":"北田辺","lon":135.528934,"lat":34.632184},{"station_cd":3100304,"station_g_cd":3100304,"station_name":"今川","lon":135.531148,"lat":34.626226},{"station_cd":3100305,"station_g_cd":3100305,"station_name":"針中野","lon":135.533078,"lat":34.616969},{"station_cd":3100306,"station_g_cd":3100306,"station_name":"矢田","lon":135.532942,"lat":34.605926},{"station_cd":3100307,"station_g_cd":3100307,"station_name":"河内天美","lon":135.535509,"lat":34.585823},{"station_cd":3100308,"station_g_cd":3100308,"station_name":"布忍","lon":135.539415,"lat":34.577824},{"station_cd":3100309,"station_g_cd":3100309,"station_name":"高見ノ里","lon":135.546189,"lat":34.575232},{"station_cd":3100310,"station_g_cd":3100310,"station_name":"河内松原","lon":135.557097,"lat":34.575563},{"station_cd":3100311,"station_g_cd":3100311,"station_name":"恵我ノ荘","lon":135.572751,"lat":34.573591},{"station_cd":3100312,"station_g_cd":3100312,"station_name":"高鷲","lon":135.584503,"lat":34.571602},{"station_cd":3100313,"station_g_cd":3100313,"station_name":"藤井寺","lon":135.594046,"lat":34.571669},{"station_cd":3100314,"station_g_cd":3100314,"station_name":"土師ノ里","lon":135.615622,"lat":34.571603},{"station_cd":3100315,"station_g_cd":3100315,"station_name":"道明寺","lon":135.620399,"lat":34.56834},{"station_cd":3100316,"station_g_cd":3100316,"station_name":"古市","lon":135.609092,"lat":34.55416},{"station_cd":3100317,"station_g_cd":3100317,"station_name":"駒ヶ谷","lon":135.621999,"lat":34.545751},{"station_cd":3100318,"station_g_cd":3100318,"station_name":"上ノ太子","lon":135.637634,"lat":34.532974},{"station_cd":3100319,"station_g_cd":3100319,"station_name":"二上山","lon":135.685974,"lat":34.53907},{"station_cd":3100320,"station_g_cd":3100320,"station_name":"二上神社口","lon":135.69414,"lat":34.532104},{"station_cd":3100321,"station_g_cd":3100321,"station_name":"当麻寺","lon":135.705897,"lat":34.516412},{"station_cd":3100322,"station_g_cd":3100322,"station_name":"磐城","lon":135.710869,"lat":34.511302},{"station_cd":3100323,"station_g_cd":3100323,"station_name":"尺土","lon":135.721404,"lat":34.508577},{"station_cd":3100324,"station_g_cd":3100324,"station_name":"高田市","lon":135.742119,"lat":34.507145},{"station_cd":3100325,"station_g_cd":3100325,"station_name":"浮孔","lon":135.754749,"lat":34.498077},{"station_cd":3100326,"station_g_cd":3100326,"station_name":"坊城","lon":135.764876,"lat":34.493577},{"station_cd":3100327,"station_g_cd":3100327,"station_name":"橿原神宮西口","lon":135.781372,"lat":34.486187},{"station_cd":3100328,"station_g_cd":3100217,"station_name":"橿原神宮前","lon":135.79434,"lat":34.483987}]}
if(typeof(xml.onload)=='function') xml.onload(xml.data);
