
if(typeof(xml)=='undefined') xml = {};
xml.data = {"line_cd":31008,"line_name":"近鉄湯の山線","line_lon":136.54436416348,"line_lat":34.994192911502,"line_zoom":12,"station_l":[{"station_cd":3100801,"station_g_cd":3100801,"station_name":"近鉄四日市","lon":136.618352,"lat":34.966495},{"station_cd":3100802,"station_g_cd":3100802,"station_name":"中川原","lon":136.602715,"lat":34.969242},{"station_cd":3100803,"station_g_cd":3100803,"station_name":"伊勢松本","lon":136.590736,"lat":34.969772},{"station_cd":3100804,"station_g_cd":3100804,"station_name":"伊勢川島","lon":136.566934,"lat":34.977688},{"station_cd":3100805,"station_g_cd":3100805,"station_name":"高角","lon":136.554488,"lat":34.983287},{"station_cd":3100806,"station_g_cd":3100806,"station_name":"桜","lon":136.541611,"lat":34.996586},{"station_cd":3100807,"station_g_cd":3100807,"station_name":"菰野","lon":136.517368,"lat":35.0087},{"station_cd":3100808,"station_g_cd":3100808,"station_name":"中菰野","lon":136.50425,"lat":35.012297},{"station_cd":3100809,"station_g_cd":3100809,"station_name":"大羽根園","lon":136.49417,"lat":35.012521},{"station_cd":3100810,"station_g_cd":3100810,"station_name":"湯の山温泉","lon":136.473617,"lat":35.01159}]}
if(typeof(xml.onload)=='function') xml.onload(xml.data);
