
if(typeof(xml)=='undefined') xml = {};
xml.data = {"line_cd":31017,"line_name":"近鉄田原本線","line_lon":135.74351403833,"line_lat":34.574637584546,"line_zoom":13,"station_l":[{"station_cd":3101701,"station_g_cd":3100211,"station_name":"西田原本","lon":135.789512,"lat":34.553909},{"station_cd":3101702,"station_g_cd":3101702,"station_name":"黒田","lon":135.777794,"lat":34.56841},{"station_cd":3101703,"station_g_cd":3101703,"station_name":"但馬","lon":135.768269,"lat":34.569462},{"station_cd":3101704,"station_g_cd":3101704,"station_name":"箸尾","lon":135.751245,"lat":34.570287},{"station_cd":3101705,"station_g_cd":3101705,"station_name":"池部","lon":135.737166,"lat":34.578755},{"station_cd":3101706,"station_g_cd":3101706,"station_name":"佐味田川","lon":135.731047,"lat":34.585213},{"station_cd":3101707,"station_g_cd":3101707,"station_name":"大輪田","lon":135.720328,"lat":34.589173},{"station_cd":3101708,"station_g_cd":1160708,"station_name":"新王寺","lon":135.704337,"lat":34.597722}]}
if(typeof(xml.onload)=='function') xml.onload(xml.data);
