{"line_cd":32005,"line_name":"南海加太線","line_lon":135.12562451324,"line_lat":34.264374992203,"line_zoom":12,"station_l":[{"station_cd":3200501,"station_g_cd":1164003,"station_name":"和歌山市","lon":135.166538,"lat":34.236925},{"station_cd":3200502,"station_g_cd":3200139,"station_name":"紀ノ川","lon":135.165908,"lat":34.254937},{"station_cd":3200503,"station_g_cd":3200503,"station_name":"東松江","lon":135.141082,"lat":34.247837},{"station_cd":3200504,"station_g_cd":3200504,"station_name":"中松江","lon":135.13291,"lat":34.248781},{"station_cd":3200505,"station_g_cd":3200505,"station_name":"八幡前","lon":135.121744,"lat":34.252592},{"station_cd":3200506,"station_g_cd":3200506,"station_name":"西ノ庄","lon":135.110786,"lat":34.255461},{"station_cd":3200507,"station_g_cd":3200507,"station_name":"二里ヶ浜","lon":135.104025,"lat":34.257627},{"station_cd":3200508,"station_g_cd":3200508,"station_name":"磯ノ浦","lon":135.094495,"lat":34.260549},{"station_cd":3200509,"station_g_cd":3200509,"station_name":"加太","lon":135.080773,"lat":34.275283}]}
