
if(typeof(xml)=='undefined') xml = {};
xml.data = {"line_cd":32001,"line_name":"南海本線","line_lon":135.3620306552,"line_lat":34.495409794093,"line_zoom":10,"station_l":[{"station_cd":3200101,"station_g_cd":3200101,"station_name":"難波","lon":135.501949,"lat":34.66357},{"station_cd":3200102,"station_g_cd":1160720,"station_name":"新今宮","lon":135.500302,"lat":34.650429},{"station_cd":3200103,"station_g_cd":3200103,"station_name":"天下茶屋","lon":135.496673,"lat":34.636847},{"station_cd":3200104,"station_g_cd":3200104,"station_name":"岸里玉出","lon":135.494388,"lat":34.628291},{"station_cd":3200105,"station_g_cd":3200105,"station_name":"粉浜","lon":135.491763,"lat":34.61833},{"station_cd":3200106,"station_g_cd":3200106,"station_name":"住吉大社","lon":135.490124,"lat":34.612431},{"station_cd":3200107,"station_g_cd":3200107,"station_name":"住ノ江","lon":135.487011,"lat":34.605348},{"station_cd":3200108,"station_g_cd":3200108,"station_name":"七道","lon":135.480556,"lat":34.592313},{"station_cd":3200109,"station_g_cd":3200109,"station_name":"堺","lon":135.468754,"lat":34.581958},{"station_cd":3200110,"station_g_cd":3200110,"station_name":"湊","lon":135.459975,"lat":34.570489},{"station_cd":3200111,"station_g_cd":3200111,"station_name":"石津川","lon":135.453178,"lat":34.559377},{"station_cd":3200112,"station_g_cd":3200112,"station_name":"諏訪ノ森","lon":135.449129,"lat":34.551764},{"station_cd":3200113,"station_g_cd":3200113,"station_name":"浜寺公園","lon":135.444629,"lat":34.541243},{"station_cd":3200114,"station_g_cd":1162702,"station_name":"羽衣","lon":135.44178,"lat":34.534546},{"station_cd":3200115,"station_g_cd":3200115,"station_name":"高石","lon":135.432723,"lat":34.521439},{"station_cd":3200116,"station_g_cd":3200116,"station_name":"北助松","lon":135.422779,"lat":34.514523},{"station_cd":3200117,"station_g_cd":3200117,"station_name":"松ノ浜","lon":135.414702,"lat":34.508932},{"station_cd":3200118,"station_g_cd":3200118,"station_name":"泉大津","lon":135.406642,"lat":34.503235},{"station_cd":3200119,"station_g_cd":3200119,"station_name":"忠岡","lon":135.397668,"lat":34.488645},{"station_cd":3200120,"station_g_cd":3200120,"station_name":"春木","lon":135.392077,"lat":34.477688},{"station_cd":3200121,"station_g_cd":3200121,"station_name":"和泉大宮","lon":135.384908,"lat":34.467917},{"station_cd":3200122,"station_g_cd":3200122,"station_name":"岸和田","lon":135.37819,"lat":34.460304},{"station_cd":3200123,"station_g_cd":3200123,"station_name":"蛸地蔵","lon":135.37031,"lat":34.456437},{"station_cd":3200124,"station_g_cd":3200124,"station_name":"貝塚","lon":135.357485,"lat":34.445499},{"station_cd":3200125,"station_g_cd":3200125,"station_name":"二色浜","lon":135.345275,"lat":34.432717},{"station_cd":3200126,"station_g_cd":3200126,"station_name":"鶴原","lon":135.338366,"lat":34.426479},{"station_cd":3200127,"station_g_cd":3200127,"station_name":"井原里","lon":135.330742,"lat":34.41983},{"station_cd":3200128,"station_g_cd":3200128,"station_name":"泉佐野","lon":135.316724,"lat":34.411153},{"station_cd":3200129,"station_g_cd":3200129,"station_name":"羽倉崎","lon":135.299484,"lat":34.399346},{"station_cd":3200130,"station_g_cd":3200130,"station_name":"吉見ノ里","lon":135.28976,"lat":34.391397},{"station_cd":3200131,"station_g_cd":3200131,"station_name":"岡田浦","lon":135.276939,"lat":34.384569},{"station_cd":3200132,"station_g_cd":3200132,"station_name":"樽井","lon":135.261362,"lat":34.374184},{"station_cd":3200133,"station_g_cd":3200133,"station_name":"尾崎","lon":135.240172,"lat":34.36103},{"station_cd":3200134,"station_g_cd":3200134,"station_name":"鳥取ノ荘","lon":135.231857,"lat":34.351323},{"station_cd":3200135,"station_g_cd":3200135,"station_name":"箱作","lon":135.212634,"lat":34.341323},{"station_cd":3200136,"station_g_cd":3200136,"station_name":"淡輪","lon":135.178159,"lat":34.331229},{"station_cd":3200137,"station_g_cd":3200137,"station_name":"みさき公園","lon":135.160977,"lat":34.323986},{"station_cd":3200138,"station_g_cd":3200138,"station_name":"孝子","lon":135.151019,"lat":34.290619},{"station_cd":3200141,"station_g_cd":3200141,"station_name":"和歌山大学前","lon":135.147036,"lat":34.2753},{"station_cd":3200139,"station_g_cd":3200139,"station_name":"紀ノ川","lon":135.165908,"lat":34.254937},{"station_cd":3200140,"station_g_cd":1164003,"station_name":"和歌山市","lon":135.166538,"lat":34.236925}]}
if(typeof(xml.onload)=='function') xml.onload(xml.data);
