{"line_cd":33006,"line_name":"京阪石山坂本線","line_lon":135.87368751321,"line_lat":35.021354810422,"line_zoom":12,"station_l":[{"station_cd":3300601,"station_g_cd":3300601,"station_name":"石山寺","lon":135.90347,"lat":34.967122},{"station_cd":3300602,"station_g_cd":3300602,"station_name":"唐橋前","lon":135.90297,"lat":34.973304},{"station_cd":3300603,"station_g_cd":1160116,"station_name":"京阪石山","lon":135.901289,"lat":34.978937},{"station_cd":3300604,"station_g_cd":3300604,"station_name":"粟津","lon":135.895607,"lat":34.984789},{"station_cd":3300605,"station_g_cd":3300605,"station_name":"瓦ヶ浜","lon":135.894696,"lat":34.988266},{"station_cd":3300606,"station_g_cd":3300606,"station_name":"中ノ庄","lon":135.891516,"lat":34.990857},{"station_cd":3300607,"station_g_cd":3300607,"station_name":"膳所本町","lon":135.889249,"lat":34.995335},{"station_cd":3300608,"station_g_cd":3300608,"station_name":"錦","lon":135.885649,"lat":34.997587},{"station_cd":3300609,"station_g_cd":1160117,"station_name":"京阪膳所","lon":135.880833,"lat":34.999823},{"station_cd":3300610,"station_g_cd":3300610,"station_name":"石場","lon":135.875606,"lat":35.004722},{"station_cd":3300611,"station_g_cd":3300611,"station_name":"島ノ関","lon":135.870937,"lat":35.007703},{"station_cd":3300612,"station_g_cd":3300612,"station_name":"びわ湖浜大津","lon":135.863982,"lat":35.011283},{"station_cd":3300613,"station_g_cd":3300613,"station_name":"三井寺","lon":135.859793,"lat":35.012891},{"station_cd":3300614,"station_g_cd":3300614,"station_name":"大津市役所前","lon":135.855463,"lat":35.018335},{"station_cd":3300615,"station_g_cd":1160503,"station_name":"京阪大津京","lon":135.855521,"lat":35.02274},{"station_cd":3300616,"station_g_cd":3300616,"station_name":"近江神宮前","lon":135.855807,"lat":35.028194},{"station_cd":3300617,"station_g_cd":3300617,"station_name":"南滋賀","lon":135.85747,"lat":35.036691},{"station_cd":3300618,"station_g_cd":3300618,"station_name":"滋賀里","lon":135.858994,"lat":35.043402},{"station_cd":3300619,"station_g_cd":3300619,"station_name":"穴太","lon":135.864755,"lat":35.055675},{"station_cd":3300620,"station_g_cd":3300620,"station_name":"松ノ馬場","lon":135.870241,"lat":35.065348},{"station_cd":3300621,"station_g_cd":3300621,"station_name":"坂本比叡山口","lon":135.871268,"lat":35.070592}]}
