{"line_cd":34001,"line_name":"阪急神戸本線","line_lon":135.35356247656,"line_lat":34.735818925703,"line_zoom":11,"station_l":[{"station_cd":3400101,"station_g_cd":1160214,"station_name":"大阪梅田","lon":135.498312,"lat":34.705517},{"station_cd":3400102,"station_g_cd":3400102,"station_name":"中津","lon":135.493011,"lat":34.709745},{"station_cd":3400103,"station_g_cd":3400103,"station_name":"十三","lon":135.48248,"lat":34.720226},{"station_cd":3400104,"station_g_cd":3400104,"station_name":"神崎川","lon":135.472967,"lat":34.732249},{"station_cd":3400105,"station_g_cd":3400105,"station_name":"園田","lon":135.448186,"lat":34.751905},{"station_cd":3400106,"station_g_cd":3400106,"station_name":"塚口","lon":135.41585,"lat":34.752826},{"station_cd":3400107,"station_g_cd":3400107,"station_name":"武庫之荘","lon":135.393821,"lat":34.751587},{"station_cd":3400108,"station_g_cd":3400108,"station_name":"西宮北口","lon":135.356702,"lat":34.745951},{"station_cd":3400109,"station_g_cd":3400109,"station_name":"夙川","lon":135.328207,"lat":34.742246},{"station_cd":3400110,"station_g_cd":3400110,"station_name":"芦屋川","lon":135.300651,"lat":34.736338},{"station_cd":3400111,"station_g_cd":3400111,"station_name":"岡本","lon":135.275937,"lat":34.729171},{"station_cd":3400112,"station_g_cd":3400112,"station_name":"御影","lon":135.251803,"lat":34.724508},{"station_cd":3400113,"station_g_cd":3400113,"station_name":"六甲","lon":135.234371,"lat":34.719891},{"station_cd":3400114,"station_g_cd":3400114,"station_name":"王子公園","lon":135.218553,"lat":34.710354},{"station_cd":3400115,"station_g_cd":3400115,"station_name":"春日野道","lon":135.205396,"lat":34.70299},{"station_cd":3400116,"station_g_cd":1160313,"station_name":"神戸三宮","lon":135.192862,"lat":34.693136}]}
