<?xml version="1.0" encoding="UTF-8"?>
<ekidata version="ekidata.jp line api 1.0">
	<line>
		<line_cd>99104</line_cd>
		<line_name>札幌市電山鼻線</line_name>
		<line_lon>141.34419829514</line_lon>
		<line_lat>43.046839819188</line_lat>
		<line_zoom>14</line_zoom>
	</line>
	<station>
		<station_cd>9910401</station_cd>
		<station_g_cd>9910401</station_g_cd>
		<station_name>西４丁目</station_name>
		<lon>141.3521482</lon>
		<lat>43.0589036</lat>
	</station>
	<station>
		<station_cd>9910402</station_cd>
		<station_g_cd>9910402</station_g_cd>
		<station_name>西８丁目</station_name>
		<lon>141.345358</lon>
		<lat>43.058033</lat>
	</station>
	<station>
		<station_cd>9910403</station_cd>
		<station_g_cd>9910108</station_g_cd>
		<station_name>中央区役所前</station_name>
		<lon>141.34224</lon>
		<lat>43.057823</lat>
	</station>
	<station>
		<station_cd>9910404</station_cd>
		<station_g_cd>9910404</station_g_cd>
		<station_name>西１５丁目</station_name>
		<lon>141.336108</lon>
		<lat>43.056955</lat>
	</station>
	<station>
		<station_cd>9910405</station_cd>
		<station_g_cd>9910405</station_g_cd>
		<station_name>西線６条</station_name>
		<lon>141.335088</lon>
		<lat>43.051352</lat>
	</station>
	<station>
		<station_cd>9910406</station_cd>
		<station_g_cd>9910406</station_g_cd>
		<station_name>西線９条旭山公園通</station_name>
		<lon>141.336365</lon>
		<lat>43.04722</lat>
	</station>
	<station>
		<station_cd>9910407</station_cd>
		<station_g_cd>9910407</station_g_cd>
		<station_name>西線１１条</station_name>
		<lon>141.335957</lon>
		<lat>43.044664</lat>
	</station>
	<station>
		<station_cd>9910408</station_cd>
		<station_g_cd>9910408</station_g_cd>
		<station_name>西線１４条</station_name>
		<lon>141.336429</lon>
		<lat>43.040775</lat>
	</station>
	<station>
		<station_cd>9910409</station_cd>
		<station_g_cd>9910409</station_g_cd>
		<station_name>西線１６条</station_name>
		<lon>141.336772</lon>
		<lat>43.037733</lat>
	</station>
	<station>
		<station_cd>9910410</station_cd>
		<station_g_cd>9910410</station_g_cd>
		<station_name>ロープウェイ入口</station_name>
		<lon>141.337287</lon>
		<lat>43.03367</lat>
	</station>
	<station>
		<station_cd>9910411</station_cd>
		<station_g_cd>9910411</station_g_cd>
		<station_name>電車事業所前</station_name>
		<lon>141.337609</lon>
		<lat>43.031271</lat>
	</station>
	<station>
		<station_cd>9910412</station_cd>
		<station_g_cd>9910412</station_g_cd>
		<station_name>中央図書館前</station_name>
		<lon>141.340227</lon>
		<lat>43.030455</lat>
	</station>
	<station>
		<station_cd>9910413</station_cd>
		<station_g_cd>9910413</station_g_cd>
		<station_name>石山通</station_name>
		<lon>141.344175</lon>
		<lat>43.030706</lat>
	</station>
	<station>
		<station_cd>9910414</station_cd>
		<station_g_cd>9910414</station_g_cd>
		<station_name>東屯田通</station_name>
		<lon>141.347501</lon>
		<lat>43.031051</lat>
	</station>
	<station>
		<station_cd>9910415</station_cd>
		<station_g_cd>9910415</station_g_cd>
		<station_name>幌南小学校前</station_name>
		<lon>141.351814</lon>
		<lat>43.032196</lat>
	</station>
	<station>
		<station_cd>9910416</station_cd>
		<station_g_cd>9910416</station_g_cd>
		<station_name>山鼻１９条</station_name>
		<lon>141.351514</lon>
		<lat>43.034706</lat>
	</station>
	<station>
		<station_cd>9910417</station_cd>
		<station_g_cd>9910417</station_g_cd>
		<station_name>静修学園前</station_name>
		<lon>141.351063</lon>
		<lat>43.038329</lat>
	</station>
	<station>
		<station_cd>9910418</station_cd>
		<station_g_cd>9910418</station_g_cd>
		<station_name>行啓通</station_name>
		<lon>141.35072</lon>
		<lat>43.041544</lat>
	</station>
	<station>
		<station_cd>9910419</station_cd>
		<station_g_cd>9910419</station_g_cd>
		<station_name>中島公園通</station_name>
		<lon>141.350269</lon>
		<lat>43.045652</lat>
	</station>
	<station>
		<station_cd>9910420</station_cd>
		<station_g_cd>9910420</station_g_cd>
		<station_name>山鼻９条</station_name>
		<lon>141.349862</lon>
		<lat>43.048067</lat>
	</station>
	<station>
		<station_cd>9910421</station_cd>
		<station_g_cd>9910421</station_g_cd>
		<station_name>東本願寺前</station_name>
		<lon>141.34939</lon>
		<lat>43.051783</lat>
	</station>
	<station>
		<station_cd>9910422</station_cd>
		<station_g_cd>9910422</station_g_cd>
		<station_name>資生館小学校前</station_name>
		<lon>141.34969</lon>
		<lat>43.055217</lat>
	</station>
	<station>
		<station_cd>9910423</station_cd>
		<station_g_cd>9910208</station_g_cd>
		<station_name>すすきの</station_name>
		<lon>141.353257</lon>
		<lat>43.05578</lat>
	</station>
	<station>
		<station_cd>9910424</station_cd>
		<station_g_cd>9910424</station_g_cd>
		<station_name>狸小路</station_name>
		<lon>141.3529274</lon>
		<lat>43.05727894</lat>
	</station>
</ekidata>
