{"line_cd":99104,"line_name":"札幌市電山鼻線","line_lon":141.34419829514,"line_lat":43.046839819188,"line_zoom":14,"station_l":[{"station_cd":9910401,"station_g_cd":9910401,"station_name":"西４丁目","lon":141.3521482,"lat":43.0589036},{"station_cd":9910402,"station_g_cd":9910402,"station_name":"西８丁目","lon":141.345358,"lat":43.058033},{"station_cd":9910403,"station_g_cd":9910108,"station_name":"中央区役所前","lon":141.34224,"lat":43.057823},{"station_cd":9910404,"station_g_cd":9910404,"station_name":"西１５丁目","lon":141.336108,"lat":43.056955},{"station_cd":9910405,"station_g_cd":9910405,"station_name":"西線６条","lon":141.335088,"lat":43.051352},{"station_cd":9910406,"station_g_cd":9910406,"station_name":"西線９条旭山公園通","lon":141.336365,"lat":43.04722},{"station_cd":9910407,"station_g_cd":9910407,"station_name":"西線１１条","lon":141.335957,"lat":43.044664},{"station_cd":9910408,"station_g_cd":9910408,"station_name":"西線１４条","lon":141.336429,"lat":43.040775},{"station_cd":9910409,"station_g_cd":9910409,"station_name":"西線１６条","lon":141.336772,"lat":43.037733},{"station_cd":9910410,"station_g_cd":9910410,"station_name":"ロープウェイ入口","lon":141.337287,"lat":43.03367},{"station_cd":9910411,"station_g_cd":9910411,"station_name":"電車事業所前","lon":141.337609,"lat":43.031271},{"station_cd":9910412,"station_g_cd":9910412,"station_name":"中央図書館前","lon":141.340227,"lat":43.030455},{"station_cd":9910413,"station_g_cd":9910413,"station_name":"石山通","lon":141.344175,"lat":43.030706},{"station_cd":9910414,"station_g_cd":9910414,"station_name":"東屯田通","lon":141.347501,"lat":43.031051},{"station_cd":9910415,"station_g_cd":9910415,"station_name":"幌南小学校前","lon":141.351814,"lat":43.032196},{"station_cd":9910416,"station_g_cd":9910416,"station_name":"山鼻１９条","lon":141.351514,"lat":43.034706},{"station_cd":9910417,"station_g_cd":9910417,"station_name":"静修学園前","lon":141.351063,"lat":43.038329},{"station_cd":9910418,"station_g_cd":9910418,"station_name":"行啓通","lon":141.35072,"lat":43.041544},{"station_cd":9910419,"station_g_cd":9910419,"station_name":"中島公園通","lon":141.350269,"lat":43.045652},{"station_cd":9910420,"station_g_cd":9910420,"station_name":"山鼻９条","lon":141.349862,"lat":43.048067},{"station_cd":9910421,"station_g_cd":9910421,"station_name":"東本願寺前","lon":141.34939,"lat":43.051783},{"station_cd":9910422,"station_g_cd":9910422,"station_name":"資生館小学校前","lon":141.34969,"lat":43.055217},{"station_cd":9910423,"station_g_cd":9910208,"station_name":"すすきの","lon":141.353257,"lat":43.05578},{"station_cd":9910424,"station_g_cd":9910424,"station_name":"狸小路","lon":141.3529274,"lat":43.05727894}]}
