<?xml version="1.0" encoding="UTF-8"?>
<ekidata version="ekidata.jp line api 1.0">
	<line>
		<line_cd>99209</line_cd>
		<line_name>秋田内陸線</line_name>
		<line_lon>140.46893411025</line_lon>
		<line_lat>39.917595313058</line_lat>
		<line_zoom>10</line_zoom>
	</line>
	<station>
		<station_cd>9920901</station_cd>
		<station_g_cd>1120245</station_g_cd>
		<station_name>鷹巣</station_name>
		<lon>140.369816</lon>
		<lat>40.232059</lat>
	</station>
	<station>
		<station_cd>9920902</station_cd>
		<station_g_cd>9920902</station_g_cd>
		<station_name>西鷹巣</station_name>
		<lon>140.357918</lon>
		<lat>40.224615</lat>
	</station>
	<station>
		<station_cd>9920903</station_cd>
		<station_g_cd>9920903</station_g_cd>
		<station_name>縄文小ヶ田</station_name>
		<lon>140.349206</lon>
		<lat>40.204973</lat>
	</station>
	<station>
		<station_cd>9920904</station_cd>
		<station_g_cd>9920904</station_g_cd>
		<station_name>大野台</station_name>
		<lon>140.340777</lon>
		<lat>40.186975</lat>
	</station>
	<station>
		<station_cd>9920905</station_cd>
		<station_g_cd>9920905</station_g_cd>
		<station_name>合川</station_name>
		<lon>140.330148</lon>
		<lat>40.161033</lat>
	</station>
	<station>
		<station_cd>9920906</station_cd>
		<station_g_cd>9920906</station_g_cd>
		<station_name>上杉</station_name>
		<lon>140.349495</lon>
		<lat>40.146533</lat>
	</station>
	<station>
		<station_cd>9920907</station_cd>
		<station_g_cd>9920907</station_g_cd>
		<station_name>米内沢</station_name>
		<lon>140.373477</lon>
		<lat>40.128199</lat>
	</station>
	<station>
		<station_cd>9920908</station_cd>
		<station_g_cd>9920908</station_g_cd>
		<station_name>桂瀬</station_name>
		<lon>140.417854</lon>
		<lat>40.101634</lat>
	</station>
	<station>
		<station_cd>9920909</station_cd>
		<station_g_cd>9920909</station_g_cd>
		<station_name>阿仁前田</station_name>
		<lon>140.417731</lon>
		<lat>40.061322</lat>
	</station>
	<station>
		<station_cd>9920910</station_cd>
		<station_g_cd>9920910</station_g_cd>
		<station_name>前田南</station_name>
		<lon>140.40227</lon>
		<lat>40.050604</lat>
	</station>
	<station>
		<station_cd>9920911</station_cd>
		<station_g_cd>9920911</station_g_cd>
		<station_name>小渕</station_name>
		<lon>140.40117</lon>
		<lat>40.033817</lat>
	</station>
	<station>
		<station_cd>9920912</station_cd>
		<station_g_cd>9920912</station_g_cd>
		<station_name>阿仁合</station_name>
		<lon>140.401538</lon>
		<lat>40.000782</lat>
	</station>
	<station>
		<station_cd>9920913</station_cd>
		<station_g_cd>9920913</station_g_cd>
		<station_name>荒瀬</station_name>
		<lon>140.402486</lon>
		<lat>39.980085</lat>
	</station>
	<station>
		<station_cd>9920914</station_cd>
		<station_g_cd>9920914</station_g_cd>
		<station_name>萱草</station_name>
		<lon>140.412528</lon>
		<lat>39.95846</lat>
	</station>
	<station>
		<station_cd>9920915</station_cd>
		<station_g_cd>9920915</station_g_cd>
		<station_name>笑内</station_name>
		<lon>140.413071</lon>
		<lat>39.935151</lat>
	</station>
	<station>
		<station_cd>9920916</station_cd>
		<station_g_cd>9920916</station_g_cd>
		<station_name>岩野目</station_name>
		<lon>140.430639</lon>
		<lat>39.921248</lat>
	</station>
	<station>
		<station_cd>9920917</station_cd>
		<station_g_cd>9920917</station_g_cd>
		<station_name>比立内</station_name>
		<lon>140.452643</lon>
		<lat>39.905078</lat>
	</station>
	<station>
		<station_cd>9920918</station_cd>
		<station_g_cd>9920918</station_g_cd>
		<station_name>奥阿仁</station_name>
		<lon>140.48946</lon>
		<lat>39.911567</lat>
	</station>
	<station>
		<station_cd>9920919</station_cd>
		<station_g_cd>9920919</station_g_cd>
		<station_name>阿仁マタギ</station_name>
		<lon>140.515793</lon>
		<lat>39.91952</lat>
	</station>
	<station>
		<station_cd>9920920</station_cd>
		<station_g_cd>9920920</station_g_cd>
		<station_name>戸沢</station_name>
		<lon>140.581208</lon>
		<lat>39.859084</lat>
	</station>
	<station>
		<station_cd>9920921</station_cd>
		<station_g_cd>9920921</station_g_cd>
		<station_name>上桧木内</station_name>
		<lon>140.584937</lon>
		<lat>39.815858</lat>
	</station>
	<station>
		<station_cd>9920922</station_cd>
		<station_g_cd>9920922</station_g_cd>
		<station_name>左通</station_name>
		<lon>140.586118</lon>
		<lat>39.801867</lat>
	</station>
	<station>
		<station_cd>9920923</station_cd>
		<station_g_cd>9920923</station_g_cd>
		<station_name>羽後中里</station_name>
		<lon>140.602775</lon>
		<lat>39.771049</lat>
	</station>
	<station>
		<station_cd>9920924</station_cd>
		<station_g_cd>9920924</station_g_cd>
		<station_name>松葉</station_name>
		<lon>140.590288</lon>
		<lat>39.744107</lat>
	</station>
	<station>
		<station_cd>9920925</station_cd>
		<station_g_cd>9920925</station_g_cd>
		<station_name>羽後長戸呂</station_name>
		<lon>140.565383</lon>
		<lat>39.727689</lat>
	</station>
	<station>
		<station_cd>9920926</station_cd>
		<station_g_cd>9920926</station_g_cd>
		<station_name>八津</station_name>
		<lon>140.552805</lon>
		<lat>39.687701</lat>
	</station>
	<station>
		<station_cd>9920927</station_cd>
		<station_g_cd>9920927</station_g_cd>
		<station_name>西明寺</station_name>
		<lon>140.563191</lon>
		<lat>39.653175</lat>
	</station>
	<station>
		<station_cd>9920928</station_cd>
		<station_g_cd>9920928</station_g_cd>
		<station_name>羽後太田</station_name>
		<lon>140.574249</lon>
		<lat>39.627304</lat>
	</station>
	<station>
		<station_cd>9920929</station_cd>
		<station_g_cd>1121111</station_g_cd>
		<station_name>角館</station_name>
		<lon>140.570988</lon>
		<lat>39.591716</lat>
	</station>
</ekidata>
