{"line_cd":99303,"line_name":"都営三田線","line_lon":139.70321762421,"line_lat":35.71883584494,"line_zoom":12,"station_l":[{"station_cd":9930301,"station_g_cd":1130203,"station_name":"目黒","lon":139.7155,"lat":35.633272},{"station_cd":9930302,"station_g_cd":2800918,"station_name":"白金台","lon":139.726133,"lat":35.637917},{"station_cd":9930303,"station_g_cd":2800917,"station_name":"白金高輪","lon":139.734104,"lat":35.642903},{"station_cd":9930304,"station_g_cd":9930208,"station_name":"三田","lon":139.748775,"lat":35.64818},{"station_cd":9930305,"station_g_cd":9930305,"station_name":"芝公園","lon":139.749824,"lat":35.654074},{"station_cd":9930306,"station_g_cd":9930306,"station_name":"御成門","lon":139.751535,"lat":35.661215},{"station_cd":9930307,"station_g_cd":9930307,"station_name":"内幸町","lon":139.75561,"lat":35.66975},{"station_cd":9930308,"station_g_cd":2800315,"station_name":"日比谷","lon":139.759998,"lat":35.676036},{"station_cd":9930309,"station_g_cd":2800208,"station_name":"大手町","lon":139.762959,"lat":35.684856},{"station_cd":9930310,"station_g_cd":2800807,"station_name":"神保町","lon":139.75812,"lat":35.695492},{"station_cd":9930311,"station_g_cd":1131317,"station_name":"水道橋","lon":139.75516,"lat":35.703398},{"station_cd":9930312,"station_g_cd":9930108,"station_name":"春日","lon":139.75325,"lat":35.709598},{"station_cd":9930313,"station_g_cd":9930313,"station_name":"白山","lon":139.752136,"lat":35.721408},{"station_cd":9930314,"station_g_cd":9930314,"station_name":"千石","lon":139.744792,"lat":35.727957},{"station_cd":9930315,"station_g_cd":1130214,"station_name":"巣鴨","lon":139.738519,"lat":35.733502},{"station_cd":9930316,"station_g_cd":9930316,"station_name":"西巣鴨","lon":139.728712,"lat":35.743508},{"station_cd":9930317,"station_g_cd":9930317,"station_name":"新板橋","lon":139.720101,"lat":35.748785},{"station_cd":9930318,"station_g_cd":9930318,"station_name":"板橋区役所前","lon":139.710102,"lat":35.751284},{"station_cd":9930319,"station_g_cd":9930319,"station_name":"板橋本町","lon":139.705535,"lat":35.761339},{"station_cd":9930320,"station_g_cd":9930320,"station_name":"本蓮沼","lon":139.702324,"lat":35.768782},{"station_cd":9930321,"station_g_cd":9930321,"station_name":"志村坂上","lon":139.69538,"lat":35.775725},{"station_cd":9930322,"station_g_cd":9930322,"station_name":"志村三丁目","lon":139.685937,"lat":35.777391},{"station_cd":9930323,"station_g_cd":9930323,"station_name":"蓮根","lon":139.678993,"lat":35.784335},{"station_cd":9930324,"station_g_cd":9930324,"station_name":"西台","lon":139.673971,"lat":35.78699},{"station_cd":9930325,"station_g_cd":9930325,"station_name":"高島平","lon":139.661216,"lat":35.789056},{"station_cd":9930326,"station_g_cd":9930326,"station_name":"新高島平","lon":139.654275,"lat":35.790189},{"station_cd":9930327,"station_g_cd":9930327,"station_name":"西高島平","lon":139.64594,"lat":35.791833}]}
