{"line_cd":99305,"line_name":"都電荒川線","line_lon":139.74861502275,"line_lat":35.73501692578,"line_zoom":13,"station_l":[{"station_cd":9930501,"station_g_cd":9930501,"station_name":"三ノ輪橋","lon":139.791412,"lat":35.732248},{"station_cd":9930502,"station_g_cd":9930502,"station_name":"荒川一中前","lon":139.788988,"lat":35.733659},{"station_cd":9930503,"station_g_cd":9930503,"station_name":"荒川区役所前","lon":139.786456,"lat":35.73493},{"station_cd":9930504,"station_g_cd":9930504,"station_name":"荒川二丁目","lon":139.784696,"lat":35.738623},{"station_cd":9930505,"station_g_cd":9930505,"station_name":"荒川七丁目","lon":139.78417,"lat":35.741975},{"station_cd":9930506,"station_g_cd":2300104,"station_name":"町屋駅前","lon":139.781145,"lat":35.74275},{"station_cd":9930507,"station_g_cd":9930507,"station_name":"町屋二丁目","lon":139.776625,"lat":35.743837},{"station_cd":9930508,"station_g_cd":9930508,"station_name":"東尾久三丁目","lon":139.774386,"lat":35.745398},{"station_cd":9930509,"station_g_cd":9930509,"station_name":"熊野前","lon":139.769204,"lat":35.749212},{"station_cd":9930510,"station_g_cd":9930510,"station_name":"宮ノ前","lon":139.764955,"lat":35.750135},{"station_cd":9930511,"station_g_cd":9930511,"station_name":"小台","lon":139.761779,"lat":35.750579},{"station_cd":9930512,"station_g_cd":9930512,"station_name":"荒川遊園地前","lon":139.757767,"lat":35.750744},{"station_cd":9930513,"station_g_cd":9930513,"station_name":"荒川車庫前","lon":139.752617,"lat":35.750909},{"station_cd":9930514,"station_g_cd":9930514,"station_name":"梶原","lon":139.747403,"lat":35.751162},{"station_cd":9930515,"station_g_cd":9930515,"station_name":"栄町","lon":139.742124,"lat":35.750909},{"station_cd":9930516,"station_g_cd":1133212,"station_name":"王子駅前","lon":139.737661,"lat":35.753199},{"station_cd":9930517,"station_g_cd":9930517,"station_name":"飛鳥山","lon":139.737382,"lat":35.750248},{"station_cd":9930518,"station_g_cd":9930518,"station_name":"滝野川一丁目","lon":139.735376,"lat":35.747374},{"station_cd":9930519,"station_g_cd":9930519,"station_name":"西ヶ原四丁目","lon":139.732779,"lat":35.744501},{"station_cd":9930520,"station_g_cd":9930520,"station_name":"新庚申塚","lon":139.730451,"lat":35.741348},{"station_cd":9930521,"station_g_cd":9930521,"station_name":"庚申塚","lon":139.729743,"lat":35.739563},{"station_cd":9930522,"station_g_cd":9930522,"station_name":"巣鴨新田","lon":139.727769,"lat":35.735488},{"station_cd":9930523,"station_g_cd":1130213,"station_name":"大塚駅前","lon":139.729593,"lat":35.732082},{"station_cd":9930524,"station_g_cd":9930524,"station_name":"向原","lon":139.724894,"lat":35.728938},{"station_cd":9930525,"station_g_cd":2800610,"station_name":"東池袋四丁目","lon":139.720012,"lat":35.72528},{"station_cd":9930526,"station_g_cd":9930526,"station_name":"都電雑司ヶ谷","lon":139.718006,"lat":35.724261},{"station_cd":9930527,"station_g_cd":2801010,"station_name":"鬼子母神前","lon":139.714916,"lat":35.720403},{"station_cd":9930528,"station_g_cd":9930528,"station_name":"学習院下","lon":139.71247,"lat":35.716248},{"station_cd":9930529,"station_g_cd":9930529,"station_name":"面影橋","lon":139.714444,"lat":35.712981},{"station_cd":9930530,"station_g_cd":9930530,"station_name":"早稲田","lon":139.718928,"lat":35.711848}]}
