<?xml version="1.0" encoding="UTF-8"?>
<ekidata version="ekidata.jp line api 1.0">
	<line>
		<line_cd>99325</line_cd>
		<line_name>小湊鉄道線</line_name>
		<line_lon>140.12739861631</line_lon>
		<line_lat>35.395848485772</line_lat>
		<line_zoom>11</line_zoom>
	</line>
	<station>
		<station_cd>9932501</station_cd>
		<station_g_cd>1132506</station_g_cd>
		<station_name>五井</station_name>
		<lon>140.089522</lon>
		<lat>35.512985</lat>
	</station>
	<station>
		<station_cd>9932502</station_cd>
		<station_g_cd>9932502</station_g_cd>
		<station_name>上総村上</station_name>
		<lon>140.100355</lon>
		<lat>35.496171</lat>
	</station>
	<station>
		<station_cd>9932503</station_cd>
		<station_g_cd>9932503</station_g_cd>
		<station_name>海士有木</station_name>
		<lon>140.124264</lon>
		<lat>35.481729</lat>
	</station>
	<station>
		<station_cd>9932504</station_cd>
		<station_g_cd>9932504</station_g_cd>
		<station_name>上総三又</station_name>
		<lon>140.12672</lon>
		<lat>35.46592</lat>
	</station>
	<station>
		<station_cd>9932505</station_cd>
		<station_g_cd>9932505</station_g_cd>
		<station_name>上総山田</station_name>
		<lon>140.126128</lon>
		<lat>35.454105</lat>
	</station>
	<station>
		<station_cd>9932506</station_cd>
		<station_g_cd>9932506</station_g_cd>
		<station_name>光風台</station_name>
		<lon>140.114174</lon>
		<lat>35.439662</lat>
	</station>
	<station>
		<station_cd>9932507</station_cd>
		<station_g_cd>9932507</station_g_cd>
		<station_name>馬立</station_name>
		<lon>140.114719</lon>
		<lat>35.423795</lat>
	</station>
	<station>
		<station_cd>9932508</station_cd>
		<station_g_cd>9932508</station_g_cd>
		<station_name>上総牛久</station_name>
		<lon>140.142255</lon>
		<lat>35.400213</lat>
	</station>
	<station>
		<station_cd>9932509</station_cd>
		<station_g_cd>9932509</station_g_cd>
		<station_name>上総川間</station_name>
		<lon>140.150968</lon>
		<lat>35.388047</lat>
	</station>
	<station>
		<station_cd>9932510</station_cd>
		<station_g_cd>9932510</station_g_cd>
		<station_name>上総鶴舞</station_name>
		<lon>140.165006</lon>
		<lat>35.381346</lat>
	</station>
	<station>
		<station_cd>9932511</station_cd>
		<station_g_cd>9932511</station_g_cd>
		<station_name>上総久保</station_name>
		<lon>140.154438</lon>
		<lat>35.367481</lat>
	</station>
	<station>
		<station_cd>9932512</station_cd>
		<station_g_cd>9932512</station_g_cd>
		<station_name>高滝</station_name>
		<lon>140.150246</lon>
		<lat>35.353074</lat>
	</station>
	<station>
		<station_cd>9932513</station_cd>
		<station_g_cd>9932513</station_g_cd>
		<station_name>里見</station_name>
		<lon>140.145505</lon>
		<lat>35.336685</lat>
	</station>
	<station>
		<station_cd>9932514</station_cd>
		<station_g_cd>9932514</station_g_cd>
		<station_name>飯給</station_name>
		<lon>140.142358</lon>
		<lat>35.320512</lat>
	</station>
	<station>
		<station_cd>9932515</station_cd>
		<station_g_cd>9932515</station_g_cd>
		<station_name>月崎</station_name>
		<lon>140.139394</lon>
		<lat>35.302203</lat>
	</station>
	<station>
		<station_cd>9932516</station_cd>
		<station_g_cd>9932516</station_g_cd>
		<station_name>上総大久保</station_name>
		<lon>140.145924</lon>
		<lat>35.283367</lat>
	</station>
	<station>
		<station_cd>9932517</station_cd>
		<station_g_cd>9932517</station_g_cd>
		<station_name>養老渓谷</station_name>
		<lon>140.159382</lon>
		<lat>35.266409</lat>
	</station>
	<station>
		<station_cd>9932518</station_cd>
		<station_g_cd>9930813</station_g_cd>
		<station_name>上総中野</station_name>
		<lon>140.199571</lon>
		<lat>35.250051</lat>
	</station>
</ekidata>
