{"line_cd":99341,"line_name":"ほっとスパ・ライン","line_lon":139.70133274067,"line_lat":36.987335574449,"line_zoom":11,"station_l":[{"station_cd":9934101,"station_g_cd":2100908,"station_name":"新藤原","lon":139.732963,"lat":36.852505},{"station_cd":9934102,"station_g_cd":9934102,"station_name":"龍王峡","lon":139.718542,"lat":36.860909},{"station_cd":9934103,"station_g_cd":9934103,"station_name":"川治温泉","lon":139.703775,"lat":36.884036},{"station_cd":9934104,"station_g_cd":9934104,"station_name":"川治湯元","lon":139.702772,"lat":36.895126},{"station_cd":9934105,"station_g_cd":9934105,"station_name":"湯西川温泉","lon":139.68824,"lat":36.929482},{"station_cd":9934106,"station_g_cd":9934106,"station_name":"中三依温泉","lon":139.69614,"lat":36.985843},{"station_cd":9934107,"station_g_cd":9934107,"station_name":"上三依塩原温泉口","lon":139.727168,"lat":37.014461},{"station_cd":9934108,"station_g_cd":9934108,"station_name":"男鹿高原","lon":139.723845,"lat":37.04784},{"station_cd":9934109,"station_g_cd":9921621,"station_name":"会津高原尾瀬口","lon":139.705067,"lat":37.089949}]}
