
if(typeof(xml)=='undefined') xml = {};
xml.data = {"line_cd":99342,"line_name":"日暮里・舎人ライナー","line_lon":139.76949647741,"line_lat":35.781825686122,"line_zoom":12,"station_l":[{"station_cd":9934201,"station_g_cd":1130218,"station_name":"日暮里","lon":139.771287,"lat":35.727908},{"station_cd":9934202,"station_g_cd":1130217,"station_name":"西日暮里","lon":139.766857,"lat":35.731954},{"station_cd":9934203,"station_g_cd":9934203,"station_name":"赤土小学校前","lon":139.768989,"lat":35.742454},{"station_cd":9934204,"station_g_cd":9930509,"station_name":"熊野前","lon":139.769695,"lat":35.748972},{"station_cd":9934205,"station_g_cd":9934205,"station_name":"足立小台","lon":139.770381,"lat":35.754658},{"station_cd":9934206,"station_g_cd":9934206,"station_name":"扇大橋","lon":139.770808,"lat":35.763897},{"station_cd":9934207,"station_g_cd":9934207,"station_name":"高野","lon":139.770679,"lat":35.768359},{"station_cd":9934208,"station_g_cd":9934208,"station_name":"江北","lon":139.770306,"lat":35.774021},{"station_cd":9934209,"station_g_cd":9934209,"station_name":"西新井大師西","lon":139.770094,"lat":35.781505},{"station_cd":9934210,"station_g_cd":9934210,"station_name":"谷在家","lon":139.770043,"lat":35.788774},{"station_cd":9934211,"station_g_cd":9934211,"station_name":"舎人公園","lon":139.770183,"lat":35.79623},{"station_cd":9934212,"station_g_cd":9934212,"station_name":"舎人","lon":139.770108,"lat":35.8057},{"station_cd":9934213,"station_g_cd":9934213,"station_name":"見沼代親水公園","lon":139.770719,"lat":35.814544}]}
if(typeof(xml.onload)=='function') xml.onload(xml.data);
