{"line_cd":99514,"line_name":"名古屋市営地下鉄名城線","line_lon":136.93289743917,"line_lat":35.160543716879,"line_zoom":12,"station_l":[{"station_cd":9951401,"station_g_cd":9951401,"station_name":"ナゴヤドーム前矢田","lon":136.945255,"lat":35.190691},{"station_cd":9951402,"station_g_cd":1141105,"station_name":"大曽根","lon":136.937204,"lat":35.192385},{"station_cd":9951403,"station_g_cd":9951403,"station_name":"平安通","lon":136.929784,"lat":35.195934},{"station_cd":9951404,"station_g_cd":9951404,"station_name":"志賀本通","lon":136.92121,"lat":35.196281},{"station_cd":9951405,"station_g_cd":9951405,"station_name":"黒川","lon":136.910178,"lat":35.197183},{"station_cd":9951406,"station_g_cd":9951406,"station_name":"名城公園","lon":136.904748,"lat":35.190528},{"station_cd":9951407,"station_g_cd":9951407,"station_name":"市役所","lon":136.905379,"lat":35.18156},{"station_cd":9951408,"station_g_cd":9951408,"station_name":"久屋大通","lon":136.908156,"lat":35.173784},{"station_cd":9951409,"station_g_cd":3001201,"station_name":"栄","lon":136.908031,"lat":35.16999},{"station_cd":9951410,"station_g_cd":9951410,"station_name":"矢場町","lon":136.90899,"lat":35.163785},{"station_cd":9951411,"station_g_cd":9951411,"station_name":"上前津","lon":136.906815,"lat":35.157477},{"station_cd":9951412,"station_g_cd":9951412,"station_name":"東別院","lon":136.904824,"lat":35.150453},{"station_cd":9951413,"station_g_cd":1141102,"station_name":"金山","lon":136.901611,"lat":35.14352},{"station_cd":9951414,"station_g_cd":9951414,"station_name":"西高蔵","lon":136.901769,"lat":35.134622},{"station_cd":9951415,"station_g_cd":9951415,"station_name":"神宮西","lon":136.906769,"lat":35.127956},{"station_cd":9951416,"station_g_cd":9951416,"station_name":"伝馬町","lon":136.91038,"lat":35.120735},{"station_cd":9951417,"station_g_cd":9951417,"station_name":"堀田","lon":136.921685,"lat":35.116644},{"station_cd":9951418,"station_g_cd":9951418,"station_name":"妙音通","lon":136.929545,"lat":35.117125},{"station_cd":9951419,"station_g_cd":9951419,"station_name":"新瑞橋","lon":136.936603,"lat":35.117734},{"station_cd":9951420,"station_g_cd":9951420,"station_name":"瑞穂運動場東","lon":136.948685,"lat":35.123167},{"station_cd":9951421,"station_g_cd":9951421,"station_name":"総合リハビリセンター","lon":136.954523,"lat":35.130536},{"station_cd":9951422,"station_g_cd":9951422,"station_name":"八事","lon":136.964036,"lat":35.136946},{"station_cd":9951423,"station_g_cd":9951423,"station_name":"八事日赤","lon":136.965008,"lat":35.144556},{"station_cd":9951424,"station_g_cd":9951424,"station_name":"名古屋大学","lon":136.96658,"lat":35.154261},{"station_cd":9951425,"station_g_cd":9951316,"station_name":"本山","lon":136.963441,"lat":35.163923},{"station_cd":9951426,"station_g_cd":9951426,"station_name":"自由ヶ丘","lon":136.966762,"lat":35.174961},{"station_cd":9951427,"station_g_cd":9951427,"station_name":"茶屋ヶ坂","lon":136.962254,"lat":35.184612},{"station_cd":9951428,"station_g_cd":9951428,"station_name":"砂田橋","lon":136.953999,"lat":35.188861}]}
