{"line_cd":99517,"line_name":"名古屋市営地下鉄桜通線","line_lon":136.93822438628,"line_lat":35.140667554001,"line_zoom":12,"station_l":[{"station_cd":9951701,"station_g_cd":9951701,"station_name":"中村区役所","lon":136.873126,"lat":35.167611},{"station_cd":9951702,"station_g_cd":1141101,"station_name":"名古屋","lon":136.882546,"lat":35.170761},{"station_cd":9951703,"station_g_cd":9951703,"station_name":"国際センター","lon":136.889375,"lat":35.172128},{"station_cd":9951704,"station_g_cd":9951606,"station_name":"丸の内","lon":136.898113,"lat":35.173098},{"station_cd":9951705,"station_g_cd":9951408,"station_name":"久屋大通","lon":136.908156,"lat":35.173784},{"station_cd":9951706,"station_g_cd":9951706,"station_name":"高岳","lon":136.915656,"lat":35.174062},{"station_cd":9951707,"station_g_cd":9951707,"station_name":"車道","lon":136.929543,"lat":35.173507},{"station_cd":9951708,"station_g_cd":9951313,"station_name":"今池","lon":136.937331,"lat":35.169919},{"station_cd":9951709,"station_g_cd":9951709,"station_name":"吹上","lon":136.935376,"lat":35.158787},{"station_cd":9951710,"station_g_cd":9951612,"station_name":"御器所","lon":136.934146,"lat":35.149585},{"station_cd":9951711,"station_g_cd":9951711,"station_name":"桜山","lon":136.933316,"lat":35.139695},{"station_cd":9951712,"station_g_cd":9951712,"station_name":"瑞穂区役所","lon":136.93443,"lat":35.131793},{"station_cd":9951713,"station_g_cd":9951713,"station_name":"瑞穂運動場西","lon":136.935477,"lat":35.124949},{"station_cd":9951714,"station_g_cd":9951419,"station_name":"新瑞橋","lon":136.936603,"lat":35.117734},{"station_cd":9951715,"station_g_cd":9951715,"station_name":"桜本町","lon":136.936761,"lat":35.109001},{"station_cd":9951716,"station_g_cd":9951716,"station_name":"鶴里","lon":136.943433,"lat":35.105738},{"station_cd":9951717,"station_g_cd":9951717,"station_name":"野並","lon":136.95549,"lat":35.102358},{"station_cd":9951718,"station_g_cd":9951718,"station_name":"鳴子北","lon":136.966209,"lat":35.102684},{"station_cd":9951719,"station_g_cd":9951719,"station_name":"相生山","lon":136.976208,"lat":35.102545},{"station_cd":9951720,"station_g_cd":9951720,"station_name":"神沢","lon":136.98954,"lat":35.098518},{"station_cd":9951721,"station_g_cd":9951721,"station_name":"徳重","lon":136.99815,"lat":35.094491}]}
