
if(typeof(xml)=='undefined') xml = {};
xml.data = {"line_cd":99528,"line_name":"三岐鉄道三岐線","line_lon":136.54413602317,"line_lat":35.087472444993,"line_zoom":11,"station_l":[{"station_cd":9952801,"station_g_cd":3102717,"station_name":"近鉄富田","lon":136.64934,"lat":35.006491},{"station_cd":9952802,"station_g_cd":9952802,"station_name":"大矢知","lon":136.633382,"lat":35.022147},{"station_cd":9952803,"station_g_cd":9952803,"station_name":"平津","lon":136.61843,"lat":35.028477},{"station_cd":9952804,"station_g_cd":9952804,"station_name":"暁学園前","lon":136.605976,"lat":35.032798},{"station_cd":9952805,"station_g_cd":9952805,"station_name":"山城","lon":136.588342,"lat":35.035272},{"station_cd":9952806,"station_g_cd":9952806,"station_name":"保々","lon":136.565936,"lat":35.046774},{"station_cd":9952807,"station_g_cd":9952807,"station_name":"北勢中央公園口","lon":136.566096,"lat":35.060519},{"station_cd":9952808,"station_g_cd":9952808,"station_name":"梅戸井","lon":136.557033,"lat":35.075326},{"station_cd":9952809,"station_g_cd":9952809,"station_name":"大安","lon":136.545376,"lat":35.09196},{"station_cd":9952810,"station_g_cd":9952810,"station_name":"三里","lon":136.538651,"lat":35.107062},{"station_cd":9952811,"station_g_cd":9952811,"station_name":"丹生川","lon":136.519744,"lat":35.122757},{"station_cd":9952812,"station_g_cd":9952812,"station_name":"伊勢治田","lon":136.514419,"lat":35.133137},{"station_cd":9952813,"station_g_cd":9952813,"station_name":"東藤原","lon":136.498904,"lat":35.147643},{"station_cd":9952814,"station_g_cd":9952814,"station_name":"西野尻","lon":136.488224,"lat":35.16393},{"station_cd":9952815,"station_g_cd":9952815,"station_name":"西藤原","lon":136.478181,"lat":35.170368}]}
if(typeof(xml.onload)=='function') xml.onload(xml.data);
