{"line_cd":99531,"line_name":"伊賀鉄道伊賀線","line_lon":136.13962606612,"line_lat":34.733360528718,"line_zoom":12,"station_l":[{"station_cd":9953101,"station_g_cd":1150907,"station_name":"伊賀上野","lon":136.123017,"lat":34.789026},{"station_cd":9953102,"station_g_cd":3100602,"station_name":"新居","lon":136.115903,"lat":34.786338},{"station_cd":9953103,"station_g_cd":3100603,"station_name":"西大手","lon":136.124675,"lat":34.766923},{"station_cd":9953104,"station_g_cd":3100604,"station_name":"上野市","lon":136.129419,"lat":34.767654},{"station_cd":9953105,"station_g_cd":3100605,"station_name":"広小路","lon":136.134427,"lat":34.767054},{"station_cd":9953106,"station_g_cd":3100606,"station_name":"茅町","lon":136.135732,"lat":34.761524},{"station_cd":9953107,"station_g_cd":3100607,"station_name":"桑町","lon":136.136621,"lat":34.754164},{"station_cd":9953115,"station_g_cd":9953115,"station_name":"四十九","lon":136.137,"lat":34.748194},{"station_cd":9953108,"station_g_cd":3100608,"station_name":"猪田道","lon":136.140352,"lat":34.735424},{"station_cd":9953109,"station_g_cd":3100609,"station_name":"市部","lon":136.148661,"lat":34.726245},{"station_cd":9953110,"station_g_cd":3100610,"station_name":"依那古","lon":136.15318,"lat":34.715199},{"station_cd":9953111,"station_g_cd":3100611,"station_name":"丸山","lon":136.157461,"lat":34.704381},{"station_cd":9953112,"station_g_cd":3100612,"station_name":"上林","lon":136.161219,"lat":34.694998},{"station_cd":9953113,"station_g_cd":3100613,"station_name":"比土","lon":136.16047,"lat":34.675828},{"station_cd":9953114,"station_g_cd":3100539,"station_name":"伊賀神戸","lon":136.152854,"lat":34.673639}]}
