
if(typeof(xml)=='undefined') xml = {};
xml.data = {"line_cd":99530,"line_name":"伊勢鉄道伊勢線","line_lon":136.55236578203,"line_lat":34.833916164216,"line_zoom":12,"station_l":[{"station_cd":9953001,"station_g_cd":1150814,"station_name":"河原田","lon":136.599031,"lat":34.910952},{"station_cd":9953002,"station_g_cd":9953002,"station_name":"鈴鹿","lon":136.589009,"lat":34.878513},{"station_cd":9953003,"station_g_cd":9953003,"station_name":"玉垣","lon":136.570038,"lat":34.855104},{"station_cd":9953004,"station_g_cd":9953004,"station_name":"鈴鹿サーキット稲生","lon":136.555154,"lat":34.841053},{"station_cd":9953005,"station_g_cd":9953005,"station_name":"徳田","lon":136.544077,"lat":34.826288},{"station_cd":9953006,"station_g_cd":9953006,"station_name":"中瀬古","lon":136.543033,"lat":34.812167},{"station_cd":9953007,"station_g_cd":9953007,"station_name":"伊勢上野","lon":136.542492,"lat":34.800444},{"station_cd":9953008,"station_g_cd":9953008,"station_name":"河芸","lon":136.53099,"lat":34.781015},{"station_cd":9953009,"station_g_cd":9953009,"station_name":"東一身田","lon":136.512126,"lat":34.758717},{"station_cd":9953010,"station_g_cd":1151004,"station_name":"津","lon":136.510242,"lat":34.733995}]}
if(typeof(xml.onload)=='function') xml.onload(xml.data);
