<?xml version="1.0" encoding="UTF-8"?>
<ekidata version="ekidata.jp line api 1.0">
	<line>
		<line_cd>99532</line_cd>
		<line_name>養老鉄道養老線</line_name>
		<line_lon>136.62239938636</line_lon>
		<line_lat>35.265960092875</line_lat>
		<line_zoom>11</line_zoom>
	</line>
	<station>
		<station_cd>9953201</station_cd>
		<station_g_cd>1150808</station_g_cd>
		<station_name>桑名</station_name>
		<lon>136.683435</lon>
		<lat>35.06744</lat>
	</station>
	<station>
		<station_cd>9953202</station_cd>
		<station_g_cd>3100402</station_g_cd>
		<station_name>播磨</station_name>
		<lon>136.674595</lon>
		<lat>35.078242</lat>
	</station>
	<station>
		<station_cd>9953203</station_cd>
		<station_g_cd>3100403</station_g_cd>
		<station_name>下深谷</station_name>
		<lon>136.661818</lon>
		<lat>35.096179</lat>
	</station>
	<station>
		<station_cd>9953204</station_cd>
		<station_g_cd>3100404</station_g_cd>
		<station_name>下野代</station_name>
		<lon>136.647235</lon>
		<lat>35.115899</lat>
	</station>
	<station>
		<station_cd>9953205</station_cd>
		<station_g_cd>3100405</station_g_cd>
		<station_name>多度</station_name>
		<lon>136.640594</lon>
		<lat>35.133855</lat>
	</station>
	<station>
		<station_cd>9953206</station_cd>
		<station_g_cd>3100406</station_g_cd>
		<station_name>美濃松山</station_name>
		<lon>136.632644</lon>
		<lat>35.160724</lat>
	</station>
	<station>
		<station_cd>9953207</station_cd>
		<station_g_cd>3100407</station_g_cd>
		<station_name>石津</station_name>
		<lon>136.627765</lon>
		<lat>35.181032</lat>
	</station>
	<station>
		<station_cd>9953208</station_cd>
		<station_g_cd>3100408</station_g_cd>
		<station_name>美濃山崎</station_name>
		<lon>136.621595</lon>
		<lat>35.198658</lat>
	</station>
	<station>
		<station_cd>9953209</station_cd>
		<station_g_cd>3100409</station_g_cd>
		<station_name>駒野</station_name>
		<lon>136.603389</lon>
		<lat>35.22385</lat>
	</station>
	<station>
		<station_cd>9953210</station_cd>
		<station_g_cd>3100410</station_g_cd>
		<station_name>美濃津屋</station_name>
		<lon>136.566651</lon>
		<lat>35.251532</lat>
	</station>
	<station>
		<station_cd>9953211</station_cd>
		<station_g_cd>3100411</station_g_cd>
		<station_name>養老</station_name>
		<lon>136.556739</lon>
		<lat>35.28693</lat>
	</station>
	<station>
		<station_cd>9953212</station_cd>
		<station_g_cd>3100412</station_g_cd>
		<station_name>美濃高田</station_name>
		<lon>136.563602</lon>
		<lat>35.309074</lat>
	</station>
	<station>
		<station_cd>9953213</station_cd>
		<station_g_cd>3100413</station_g_cd>
		<station_name>烏江</station_name>
		<lon>136.592258</lon>
		<lat>35.305346</lat>
	</station>
	<station>
		<station_cd>9953214</station_cd>
		<station_g_cd>3100414</station_g_cd>
		<station_name>大外羽</station_name>
		<lon>136.597382</lon>
		<lat>35.315092</lat>
	</station>
	<station>
		<station_cd>9953215</station_cd>
		<station_g_cd>3100415</station_g_cd>
		<station_name>友江</station_name>
		<lon>136.600672</lon>
		<lat>35.326501</lat>
	</station>
	<station>
		<station_cd>9953216</station_cd>
		<station_g_cd>3100416</station_g_cd>
		<station_name>美濃青柳</station_name>
		<lon>136.603797</lon>
		<lat>35.343591</lat>
	</station>
	<station>
		<station_cd>9953217</station_cd>
		<station_g_cd>3100417</station_g_cd>
		<station_name>西大垣</station_name>
		<lon>136.603363</lon>
		<lat>35.360298</lat>
	</station>
	<station>
		<station_cd>9953218</station_cd>
		<station_g_cd>1150304</station_g_cd>
		<station_name>大垣</station_name>
		<lon>136.61697</lon>
		<lat>35.366664</lat>
	</station>
	<station>
		<station_cd>9953219</station_cd>
		<station_g_cd>3100419</station_g_cd>
		<station_name>室</station_name>
		<lon>136.606209</lon>
		<lat>35.367272</lat>
	</station>
	<station>
		<station_cd>9953220</station_cd>
		<station_g_cd>3100420</station_g_cd>
		<station_name>北大垣</station_name>
		<lon>136.601979</lon>
		<lat>35.375349</lat>
	</station>
	<station>
		<station_cd>9953221</station_cd>
		<station_g_cd>3100421</station_g_cd>
		<station_name>東赤坂</station_name>
		<lon>136.600971</lon>
		<lat>35.39414</lat>
	</station>
	<station>
		<station_cd>9953222</station_cd>
		<station_g_cd>3100422</station_g_cd>
		<station_name>広神戸</station_name>
		<lon>136.602096</lon>
		<lat>35.419651</lat>
	</station>
	<station>
		<station_cd>9953223</station_cd>
		<station_g_cd>3100423</station_g_cd>
		<station_name>北神戸</station_name>
		<lon>136.59441</lon>
		<lat>35.430013</lat>
	</station>
	<station>
		<station_cd>9953224</station_cd>
		<station_g_cd>3100424</station_g_cd>
		<station_name>池野</station_name>
		<lon>136.578712</lon>
		<lat>35.436512</lat>
	</station>
	<station>
		<station_cd>9953225</station_cd>
		<station_g_cd>3100425</station_g_cd>
		<station_name>北池野</station_name>
		<lon>136.573673</lon>
		<lat>35.44335</lat>
	</station>
	<station>
		<station_cd>9953226</station_cd>
		<station_g_cd>3100426</station_g_cd>
		<station_name>美濃本郷</station_name>
		<lon>136.571826</lon>
		<lat>35.449874</lat>
	</station>
	<station>
		<station_cd>9953227</station_cd>
		<station_g_cd>3100427</station_g_cd>
		<station_name>揖斐</station_name>
		<lon>136.572536</lon>
		<lat>35.470314</lat>
	</station>
</ekidata>
