{"line_cd":99609,"line_name":"宮豊線","line_lon":135.02146714367,"line_lat":35.58009666032,"line_zoom":10,"station_l":[{"station_cd":9960907,"station_g_cd":9960814,"station_name":"宮津","lon":135.199875,"lat":35.53441},{"station_cd":9960908,"station_g_cd":9960908,"station_name":"天橋立","lon":135.182456,"lat":35.557729},{"station_cd":9960909,"station_g_cd":9960909,"station_name":"岩滝口","lon":135.151297,"lat":35.55038},{"station_cd":9960910,"station_g_cd":9960910,"station_name":"与謝野","lon":135.126469,"lat":35.543516},{"station_cd":9960911,"station_g_cd":9960911,"station_name":"京丹後大宮","lon":135.093977,"lat":35.579324},{"station_cd":9960912,"station_g_cd":9960912,"station_name":"峰山","lon":135.07214,"lat":35.625928},{"station_cd":9960913,"station_g_cd":9960913,"station_name":"網野","lon":135.025599,"lat":35.667342},{"station_cd":9960914,"station_g_cd":9960914,"station_name":"夕日ヶ浦木津温泉","lon":134.972332,"lat":35.650061},{"station_cd":9960915,"station_g_cd":9960915,"station_name":"小天橋","lon":134.928425,"lat":35.630067},{"station_cd":9960916,"station_g_cd":9960916,"station_name":"かぶと山","lon":134.919769,"lat":35.60685},{"station_cd":9960917,"station_g_cd":9960917,"station_name":"久美浜","lon":134.894997,"lat":35.60235},{"station_cd":9960918,"station_g_cd":9960918,"station_name":"コウノトリの郷","lon":134.835391,"lat":35.552816},{"station_cd":9960919,"station_g_cd":1161524,"station_name":"豊岡","lon":134.813426,"lat":35.544593}]}
