<?xml version="1.0" encoding="UTF-8"?>
<ekidata version="ekidata.jp line api 1.0">
	<line>
		<line_cd>99625</line_cd>
		<line_name>大阪メトロ南港ポートタウン線</line_name>
		<line_lon>135.44093093232</line_lon>
		<line_lat>34.628381862008</line_lat>
		<line_zoom>13</line_zoom>
	</line>
	<station>
		<station_cd>9962501</station_cd>
		<station_g_cd>9962101</station_g_cd>
		<station_name>コスモスクエア</station_name>
		<lon>135.412472</lon>
		<lat>34.642888</lat>
	</station>
	<station>
		<station_cd>9962502</station_cd>
		<station_g_cd>9962502</station_g_cd>
		<station_name>トレードセンター前</station_name>
		<lon>135.412336</lon>
		<lat>34.63865</lat>
	</station>
	<station>
		<station_cd>9962503</station_cd>
		<station_g_cd>9962503</station_g_cd>
		<station_name>中ふ頭</station_name>
		<lon>135.417416</lon>
		<lat>34.634091</lat>
	</station>
	<station>
		<station_cd>9962504</station_cd>
		<station_g_cd>9962504</station_g_cd>
		<station_name>ポートタウン西</station_name>
		<lon>135.422777</lon>
		<lat>34.630899</lat>
	</station>
	<station>
		<station_cd>9962505</station_cd>
		<station_g_cd>9962505</station_g_cd>
		<station_name>ポートタウン東</station_name>
		<lon>135.429085</lon>
		<lat>34.630882</lat>
	</station>
	<station>
		<station_cd>9962506</station_cd>
		<station_g_cd>9962506</station_g_cd>
		<station_name>フェリーターミナル</station_name>
		<lon>135.434962</lon>
		<lat>34.619253</lat>
	</station>
	<station>
		<station_cd>9962507</station_cd>
		<station_g_cd>9962507</station_g_cd>
		<station_name>南港東</station_name>
		<lon>135.438607</lon>
		<lat>34.613826</lat>
	</station>
	<station>
		<station_cd>9962508</station_cd>
		<station_g_cd>9962508</station_g_cd>
		<station_name>南港口</station_name>
		<lon>135.445959</lon>
		<lat>34.613826</lat>
	</station>
	<station>
		<station_cd>9962509</station_cd>
		<station_g_cd>9962509</station_g_cd>
		<station_name>平林</station_name>
		<lon>135.458585</lon>
		<lat>34.610683</lat>
	</station>
	<station>
		<station_cd>9962510</station_cd>
		<station_g_cd>9962011</station_g_cd>
		<station_name>住之江公園</station_name>
		<lon>135.471879</lon>
		<lat>34.609269</lat>
	</station>
</ekidata>
