{"line_cd":99622,"line_name":"大阪メトロ千日前線","line_lon":135.5153001746,"line_lat":34.676715098117,"line_zoom":13,"station_l":[{"station_cd":9962201,"station_g_cd":1162506,"station_name":"野田阪神","lon":135.476031,"lat":34.694384},{"station_cd":9962202,"station_g_cd":1162308,"station_name":"玉川","lon":135.476187,"lat":34.689607},{"station_cd":9962203,"station_g_cd":9962106,"station_name":"阿波座","lon":135.486297,"lat":34.681483},{"station_cd":9962204,"station_g_cd":9962204,"station_name":"西長堀","lon":135.487223,"lat":34.675256},{"station_cd":9962205,"station_g_cd":3200901,"station_name":"桜川","lon":135.488839,"lat":34.668427},{"station_cd":9962206,"station_g_cd":3100101,"station_name":"なんば","lon":135.499599,"lat":34.667205},{"station_cd":9962207,"station_g_cd":3100102,"station_name":"日本橋","lon":135.506635,"lat":34.667146},{"station_cd":9962208,"station_g_cd":9961915,"station_name":"谷町九丁目","lon":135.515801,"lat":34.667146},{"station_cd":9962209,"station_g_cd":1162317,"station_name":"鶴橋","lon":135.529393,"lat":34.666032},{"station_cd":9962210,"station_g_cd":9962210,"station_name":"今里","lon":135.544274,"lat":34.668617},{"station_cd":9962211,"station_g_cd":9962211,"station_name":"新深江","lon":135.553836,"lat":34.668158},{"station_cd":9962212,"station_g_cd":9962212,"station_name":"小路","lon":135.556245,"lat":34.661531},{"station_cd":9962213,"station_g_cd":9962213,"station_name":"北巽","lon":135.554964,"lat":34.652982},{"station_cd":9962214,"station_g_cd":9962214,"station_name":"南巽","lon":135.553298,"lat":34.643261}]}
