
if(typeof(xml)=='undefined') xml = {};
xml.data = {"line_cd":99637,"line_name":"山陽電鉄本線","line_lon":134.88414166679,"line_lat":34.747293594959,"line_zoom":10,"station_l":[{"station_cd":9963701,"station_g_cd":9963009,"station_name":"西代","lon":135.144085,"lat":34.662374},{"station_cd":9963702,"station_g_cd":9963702,"station_name":"板宿","lon":135.133403,"lat":34.66006},{"station_cd":9963703,"station_g_cd":9963703,"station_name":"東須磨","lon":135.127642,"lat":34.655241},{"station_cd":9963704,"station_g_cd":9963704,"station_name":"月見山","lon":135.121949,"lat":34.649992},{"station_cd":9963705,"station_g_cd":9963705,"station_name":"須磨寺","lon":135.116224,"lat":34.646031},{"station_cd":9963706,"station_g_cd":1160805,"station_name":"山陽須磨","lon":135.112208,"lat":34.643459},{"station_cd":9963707,"station_g_cd":9963707,"station_name":"須磨浦公園","lon":135.100145,"lat":34.637884},{"station_cd":9963708,"station_g_cd":1160806,"station_name":"山陽塩屋","lon":135.082389,"lat":34.633579},{"station_cd":9963709,"station_g_cd":9963709,"station_name":"滝の茶屋","lon":135.072984,"lat":34.631071},{"station_cd":9963710,"station_g_cd":9963710,"station_name":"東垂水","lon":135.063646,"lat":34.629216},{"station_cd":9963711,"station_g_cd":1160807,"station_name":"山陽垂水","lon":135.053622,"lat":34.629468},{"station_cd":9963712,"station_g_cd":9963712,"station_name":"霞ヶ丘","lon":135.04275,"lat":34.63024},{"station_cd":9963713,"station_g_cd":1160808,"station_name":"舞子公園","lon":135.033676,"lat":34.634156},{"station_cd":9963714,"station_g_cd":9963714,"station_name":"西舞子","lon":135.028187,"lat":34.638653},{"station_cd":9963715,"station_g_cd":9963715,"station_name":"大蔵谷","lon":135.008367,"lat":34.646585},{"station_cd":9963716,"station_g_cd":9963716,"station_name":"人丸前","lon":135.002592,"lat":34.647556},{"station_cd":9963717,"station_g_cd":1160810,"station_name":"山陽明石","lon":134.99294,"lat":34.648725},{"station_cd":9963718,"station_g_cd":9963718,"station_name":"西新町","lon":134.980752,"lat":34.649661},{"station_cd":9963719,"station_g_cd":9963719,"station_name":"林崎松江海岸","lon":134.965056,"lat":34.652289},{"station_cd":9963720,"station_g_cd":9963720,"station_name":"藤江","lon":134.947571,"lat":34.663385},{"station_cd":9963721,"station_g_cd":9963721,"station_name":"中八木","lon":134.936128,"lat":34.670832},{"station_cd":9963722,"station_g_cd":9963722,"station_name":"江井ヶ島","lon":134.919879,"lat":34.679022},{"station_cd":9963723,"station_g_cd":9963723,"station_name":"西江井ヶ島","lon":134.908105,"lat":34.685688},{"station_cd":9963724,"station_g_cd":9963724,"station_name":"山陽魚住","lon":134.901953,"lat":34.689252},{"station_cd":9963725,"station_g_cd":9963725,"station_name":"東二見","lon":134.887924,"lat":34.700359},{"station_cd":9963726,"station_g_cd":9963726,"station_name":"西二見","lon":134.876927,"lat":34.707167},{"station_cd":9963727,"station_g_cd":9963727,"station_name":"播磨町","lon":134.868159,"lat":34.716574},{"station_cd":9963728,"station_g_cd":9963728,"station_name":"別府","lon":134.850702,"lat":34.730206},{"station_cd":9963729,"station_g_cd":9963729,"station_name":"浜の宮","lon":134.83397,"lat":34.74091},{"station_cd":9963730,"station_g_cd":9963730,"station_name":"尾上の松","lon":134.820794,"lat":34.748576},{"station_cd":9963731,"station_g_cd":9963731,"station_name":"高砂","lon":134.802343,"lat":34.751978},{"station_cd":9963732,"station_g_cd":9963732,"station_name":"荒井","lon":134.793616,"lat":34.757833},{"station_cd":9963733,"station_g_cd":9963733,"station_name":"伊保","lon":134.787048,"lat":34.767171},{"station_cd":9963734,"station_g_cd":9963734,"station_name":"山陽曽根","lon":134.77321,"lat":34.77553},{"station_cd":9963735,"station_g_cd":9963735,"station_name":"大塩","lon":134.757531,"lat":34.779346},{"station_cd":9963736,"station_g_cd":9963736,"station_name":"的形","lon":134.742047,"lat":34.779882},{"station_cd":9963737,"station_g_cd":9963737,"station_name":"八家","lon":134.72188,"lat":34.784144},{"station_cd":9963738,"station_g_cd":9963738,"station_name":"白浜の宮","lon":134.707123,"lat":34.786822},{"station_cd":9963739,"station_g_cd":9963739,"station_name":"妻鹿","lon":134.692969,"lat":34.792271},{"station_cd":9963740,"station_g_cd":9963740,"station_name":"飾磨","lon":134.675401,"lat":34.799748},{"station_cd":9963741,"station_g_cd":9963741,"station_name":"亀山","lon":134.676765,"lat":34.810672},{"station_cd":9963742,"station_g_cd":9963742,"station_name":"手柄","lon":134.681403,"lat":34.81986},{"station_cd":9963743,"station_g_cd":1160821,"station_name":"山陽姫路","lon":134.689263,"lat":34.828783}]}
if(typeof(xml.onload)=='function') xml.onload(xml.data);
