
if(typeof(xml)=='undefined') xml = {};
xml.data = {"line_cd":99713,"line_name":"広電５号線(皆実線)","line_lon":132.46766591799,"line_lat":34.378140550013,"line_zoom":13,"station_l":[{"station_cd":9971301,"station_g_cd":1161115,"station_name":"広島駅","lon":132.475403,"lat":34.396296},{"station_cd":9971302,"station_g_cd":9971002,"station_name":"猿猴橋町","lon":132.475977,"lat":34.395047},{"station_cd":9971303,"station_g_cd":9971003,"station_name":"的場町","lon":132.475076,"lat":34.393277},{"station_cd":9971304,"station_g_cd":9971304,"station_name":"段原一丁目","lon":132.475033,"lat":34.390833},{"station_cd":9971305,"station_g_cd":9971305,"station_name":"比治山下","lon":132.471492,"lat":34.387858},{"station_cd":9971306,"station_g_cd":9971306,"station_name":"比治山橋","lon":132.468681,"lat":34.383272},{"station_cd":9971307,"station_g_cd":9971307,"station_name":"南区役所前","lon":132.467072,"lat":34.380297},{"station_cd":9971308,"station_g_cd":9971308,"station_name":"皆実町二丁目","lon":132.465849,"lat":34.377375},{"station_cd":9971309,"station_g_cd":9971018,"station_name":"皆実町六丁目","lon":132.464454,"lat":34.374169},{"station_cd":9971310,"station_g_cd":9971019,"station_name":"広大附属学校前","lon":132.464583,"lat":34.371654},{"station_cd":9971311,"station_g_cd":9971020,"station_name":"県病院前","lon":132.464797,"lat":34.36875},{"station_cd":9971312,"station_g_cd":9971021,"station_name":"宇品二丁目","lon":132.464519,"lat":34.366164},{"station_cd":9971313,"station_g_cd":9971022,"station_name":"宇品三丁目","lon":132.464411,"lat":34.364216},{"station_cd":9971314,"station_g_cd":9971023,"station_name":"宇品四丁目","lon":132.463853,"lat":34.35922},{"station_cd":9971315,"station_g_cd":9971024,"station_name":"宇品五丁目","lon":132.46366,"lat":34.357343},{"station_cd":9971316,"station_g_cd":9971025,"station_name":"海岸通","lon":132.463081,"lat":34.354898},{"station_cd":9971317,"station_g_cd":9971026,"station_name":"元宇品口","lon":132.459412,"lat":34.354048},{"station_cd":9971318,"station_g_cd":9971027,"station_name":"広島港（宇品）","lon":132.455184,"lat":34.352755}]}
if(typeof(xml.onload)=='function') xml.onload(xml.data);
