{"line_cd":99712,"line_name":"広電３号線","line_lon":132.45244206002,"line_lat":34.381522498002,"line_zoom":13,"station_l":[{"station_cd":9971201,"station_g_cd":9971027,"station_name":"広島港（宇品）","lon":132.455184,"lat":34.352755},{"station_cd":9971202,"station_g_cd":9971026,"station_name":"元宇品口","lon":132.459412,"lat":34.354048},{"station_cd":9971203,"station_g_cd":9971025,"station_name":"海岸通","lon":132.463081,"lat":34.354898},{"station_cd":9971204,"station_g_cd":9971024,"station_name":"宇品五丁目","lon":132.46366,"lat":34.357343},{"station_cd":9971205,"station_g_cd":9971023,"station_name":"宇品四丁目","lon":132.463853,"lat":34.35922},{"station_cd":9971206,"station_g_cd":9971022,"station_name":"宇品三丁目","lon":132.464411,"lat":34.364216},{"station_cd":9971207,"station_g_cd":9971021,"station_name":"宇品二丁目","lon":132.464519,"lat":34.366164},{"station_cd":9971208,"station_g_cd":9971020,"station_name":"県病院前","lon":132.464797,"lat":34.36875},{"station_cd":9971209,"station_g_cd":9971019,"station_name":"広大附属学校前","lon":132.464583,"lat":34.371654},{"station_cd":9971210,"station_g_cd":9971018,"station_name":"皆実町六丁目","lon":132.464454,"lat":34.374169},{"station_cd":9971211,"station_g_cd":9971017,"station_name":"御幸橋","lon":132.459605,"lat":34.375321},{"station_cd":9971212,"station_g_cd":9971016,"station_name":"広電本社前","lon":132.45821,"lat":34.377375},{"station_cd":9971213,"station_g_cd":9971015,"station_name":"日赤病院前","lon":132.455871,"lat":34.380952},{"station_cd":9971214,"station_g_cd":9971014,"station_name":"鷹野橋","lon":132.453918,"lat":34.383431},{"station_cd":9971215,"station_g_cd":9971013,"station_name":"市役所前","lon":132.454455,"lat":34.385875},{"station_cd":9971216,"station_g_cd":9971012,"station_name":"中電前","lon":132.455399,"lat":34.388779},{"station_cd":9971217,"station_g_cd":9971011,"station_name":"袋町","lon":132.456214,"lat":34.391187},{"station_cd":9971218,"station_g_cd":9970901,"station_name":"本通","lon":132.457003,"lat":34.393377},{"station_cd":9971219,"station_g_cd":9971110,"station_name":"紙屋町西","lon":132.456965,"lat":34.395455},{"station_cd":9971220,"station_g_cd":9971111,"station_name":"原爆ドーム前","lon":132.453918,"lat":34.396163},{"station_cd":9971221,"station_g_cd":9971112,"station_name":"本川町","lon":132.450485,"lat":34.396942},{"station_cd":9971222,"station_g_cd":9971113,"station_name":"十日市町","lon":132.447138,"lat":34.397438},{"station_cd":9971223,"station_g_cd":9971114,"station_name":"土橋","lon":132.446322,"lat":34.3948},{"station_cd":9971224,"station_g_cd":9971115,"station_name":"小網町","lon":132.44422,"lat":34.394543},{"station_cd":9971225,"station_g_cd":9971116,"station_name":"天満町","lon":132.440572,"lat":34.395216},{"station_cd":9971226,"station_g_cd":9971117,"station_name":"観音町","lon":132.438405,"lat":34.395534},{"station_cd":9971227,"station_g_cd":9971118,"station_name":"西観音町","lon":132.43686,"lat":34.393976},{"station_cd":9971228,"station_g_cd":9971119,"station_name":"福島町","lon":132.433898,"lat":34.394985},{"station_cd":9971229,"station_g_cd":1161117,"station_name":"広電西広島（己斐）","lon":132.428255,"lat":34.397261}]}
