
if(typeof(xml)=='undefined') xml = {};
xml.data = {"line_cd":99710,"line_name":"広電１号線(宇品線)","line_lon":132.46353223281,"line_lat":34.380078030579,"line_zoom":13,"station_l":[{"station_cd":9971001,"station_g_cd":1161115,"station_name":"広島駅","lon":132.475403,"lat":34.396296},{"station_cd":9971002,"station_g_cd":9971002,"station_name":"猿猴橋町","lon":132.475977,"lat":34.395047},{"station_cd":9971003,"station_g_cd":9971003,"station_name":"的場町","lon":132.475076,"lat":34.393277},{"station_cd":9971004,"station_g_cd":9971004,"station_name":"稲荷町","lon":132.471728,"lat":34.392569},{"station_cd":9971005,"station_g_cd":9971005,"station_name":"銀山町","lon":132.467866,"lat":34.393135},{"station_cd":9971006,"station_g_cd":9971006,"station_name":"胡町","lon":132.465076,"lat":34.393401},{"station_cd":9971007,"station_g_cd":9971007,"station_name":"八丁堀","lon":132.463403,"lat":34.393897},{"station_cd":9971008,"station_g_cd":9971008,"station_name":"立町","lon":132.460871,"lat":34.394569},{"station_cd":9971009,"station_g_cd":9971009,"station_name":"紙屋町東","lon":132.458167,"lat":34.395101},{"station_cd":9971010,"station_g_cd":9970901,"station_name":"本通","lon":132.457003,"lat":34.393377},{"station_cd":9971011,"station_g_cd":9971011,"station_name":"袋町","lon":132.456214,"lat":34.391187},{"station_cd":9971012,"station_g_cd":9971012,"station_name":"中電前","lon":132.455399,"lat":34.388779},{"station_cd":9971013,"station_g_cd":9971013,"station_name":"市役所前","lon":132.454455,"lat":34.385875},{"station_cd":9971014,"station_g_cd":9971014,"station_name":"鷹野橋","lon":132.453918,"lat":34.383431},{"station_cd":9971015,"station_g_cd":9971015,"station_name":"日赤病院前","lon":132.455871,"lat":34.380952},{"station_cd":9971016,"station_g_cd":9971016,"station_name":"広電本社前","lon":132.45821,"lat":34.377375},{"station_cd":9971017,"station_g_cd":9971017,"station_name":"御幸橋","lon":132.459605,"lat":34.375321},{"station_cd":9971018,"station_g_cd":9971018,"station_name":"皆実町六丁目","lon":132.464454,"lat":34.374169},{"station_cd":9971019,"station_g_cd":9971019,"station_name":"広大附属学校前","lon":132.464583,"lat":34.371654},{"station_cd":9971020,"station_g_cd":9971020,"station_name":"県病院前","lon":132.464797,"lat":34.36875},{"station_cd":9971021,"station_g_cd":9971021,"station_name":"宇品二丁目","lon":132.464519,"lat":34.366164},{"station_cd":9971022,"station_g_cd":9971022,"station_name":"宇品三丁目","lon":132.464411,"lat":34.364216},{"station_cd":9971023,"station_g_cd":9971023,"station_name":"宇品四丁目","lon":132.463853,"lat":34.35922},{"station_cd":9971024,"station_g_cd":9971024,"station_name":"宇品五丁目","lon":132.46366,"lat":34.357343},{"station_cd":9971025,"station_g_cd":9971025,"station_name":"海岸通","lon":132.463081,"lat":34.354898},{"station_cd":9971026,"station_g_cd":9971026,"station_name":"元宇品口","lon":132.459412,"lat":34.354048},{"station_cd":9971027,"station_g_cd":9971027,"station_name":"広島港（宇品）","lon":132.455184,"lat":34.352755}]}
if(typeof(xml.onload)=='function') xml.onload(xml.data);
