<?xml version="1.0" encoding="UTF-8"?>
<ekidata version="ekidata.jp line api 1.0">
	<line>
		<line_cd>99716</line_cd>
		<line_name>広電８号線(横川線)</line_name>
		<line_lon>132.44276496692</line_lon>
		<line_lat>34.391156291997</line_lat>
		<line_zoom>14</line_zoom>
	</line>
	<station>
		<station_cd>9971601</station_cd>
		<station_g_cd>1161116</station_g_cd>
		<station_name>横川駅</station_name>
		<lon>132.450496</lon>
		<lat>34.409512</lat>
	</station>
	<station>
		<station_cd>9971602</station_cd>
		<station_g_cd>9971502</station_g_cd>
		<station_name>横川一丁目</station_name>
		<lon>132.449949</lon>
		<lat>34.406848</lat>
	</station>
	<station>
		<station_cd>9971603</station_cd>
		<station_g_cd>9971503</station_g_cd>
		<station_name>別院前</station_name>
		<lon>132.449241</lon>
		<lat>34.404245</lat>
	</station>
	<station>
		<station_cd>9971604</station_cd>
		<station_g_cd>9971504</station_g_cd>
		<station_name>寺町</station_name>
		<lon>132.448125</lon>
		<lat>34.401129</lat>
	</station>
	<station>
		<station_cd>9971605</station_cd>
		<station_g_cd>9971113</station_g_cd>
		<station_name>十日市町</station_name>
		<lon>132.447138</lon>
		<lat>34.397438</lat>
	</station>
	<station>
		<station_cd>9971606</station_cd>
		<station_g_cd>9971114</station_g_cd>
		<station_name>土橋</station_name>
		<lon>132.446322</lon>
		<lat>34.3948</lat>
	</station>
	<station>
		<station_cd>9971607</station_cd>
		<station_g_cd>9971415</station_g_cd>
		<station_name>舟入町</station_name>
		<lon>132.444928</lon>
		<lat>34.389222</lat>
	</station>
	<station>
		<station_cd>9971608</station_cd>
		<station_g_cd>9971416</station_g_cd>
		<station_name>舟入本町</station_name>
		<lon>132.442632</lon>
		<lat>34.385556</lat>
	</station>
	<station>
		<station_cd>9971609</station_cd>
		<station_g_cd>9971417</station_g_cd>
		<station_name>舟入幸町</station_name>
		<lon>132.441151</lon>
		<lat>34.383139</lat>
	</station>
	<station>
		<station_cd>9971610</station_cd>
		<station_g_cd>9971418</station_g_cd>
		<station_name>舟入川口町</station_name>
		<lon>132.439499</lon>
		<lat>34.380341</lat>
	</station>
	<station>
		<station_cd>9971611</station_cd>
		<station_g_cd>9971419</station_g_cd>
		<station_name>舟入南</station_name>
		<lon>132.437224</lon>
		<lat>34.375099</lat>
	</station>
	<station>
		<station_cd>9971612</station_cd>
		<station_g_cd>9971420</station_g_cd>
		<station_name>江波</station_name>
		<lon>132.436044</lon>
		<lat>34.372496</lat>
	</station>
</ekidata>
