
if(typeof(xml)=='undefined') xml = {};
xml.data = {"line_cd":99711,"line_name":"広電２号線(宮島線)","line_lon":132.38582722415,"line_lat":34.371507218076,"line_zoom":12,"station_l":[{"station_cd":9971101,"station_g_cd":1161115,"station_name":"広島駅","lon":132.475403,"lat":34.396296},{"station_cd":9971102,"station_g_cd":9971002,"station_name":"猿猴橋町","lon":132.475977,"lat":34.395047},{"station_cd":9971103,"station_g_cd":9971003,"station_name":"的場町","lon":132.475076,"lat":34.393277},{"station_cd":9971104,"station_g_cd":9971004,"station_name":"稲荷町","lon":132.471728,"lat":34.392569},{"station_cd":9971105,"station_g_cd":9971005,"station_name":"銀山町","lon":132.467866,"lat":34.393135},{"station_cd":9971106,"station_g_cd":9971006,"station_name":"胡町","lon":132.465076,"lat":34.393401},{"station_cd":9971107,"station_g_cd":9971007,"station_name":"八丁堀","lon":132.463403,"lat":34.393897},{"station_cd":9971108,"station_g_cd":9971008,"station_name":"立町","lon":132.460871,"lat":34.394569},{"station_cd":9971109,"station_g_cd":9971009,"station_name":"紙屋町東","lon":132.458167,"lat":34.395101},{"station_cd":9971110,"station_g_cd":9971110,"station_name":"紙屋町西","lon":132.456965,"lat":34.395455},{"station_cd":9971111,"station_g_cd":9971111,"station_name":"原爆ドーム前","lon":132.453918,"lat":34.396163},{"station_cd":9971112,"station_g_cd":9971112,"station_name":"本川町","lon":132.450485,"lat":34.396942},{"station_cd":9971113,"station_g_cd":9971113,"station_name":"十日市町","lon":132.447138,"lat":34.397438},{"station_cd":9971114,"station_g_cd":9971114,"station_name":"土橋","lon":132.446322,"lat":34.3948},{"station_cd":9971115,"station_g_cd":9971115,"station_name":"小網町","lon":132.44422,"lat":34.394543},{"station_cd":9971116,"station_g_cd":9971116,"station_name":"天満町","lon":132.440572,"lat":34.395216},{"station_cd":9971117,"station_g_cd":9971117,"station_name":"観音町","lon":132.438405,"lat":34.395534},{"station_cd":9971118,"station_g_cd":9971118,"station_name":"西観音町","lon":132.43686,"lat":34.393976},{"station_cd":9971119,"station_g_cd":9971119,"station_name":"福島町","lon":132.433898,"lat":34.394985},{"station_cd":9971120,"station_g_cd":1161117,"station_name":"広電西広島（己斐）","lon":132.428255,"lat":34.397261},{"station_cd":9971121,"station_g_cd":9971121,"station_name":"東高須","lon":132.420224,"lat":34.391922},{"station_cd":9971122,"station_g_cd":9971122,"station_name":"高須","lon":132.417055,"lat":34.389872},{"station_cd":9971123,"station_g_cd":9971123,"station_name":"古江","lon":132.411383,"lat":34.386311},{"station_cd":9971124,"station_g_cd":9971124,"station_name":"草津","lon":132.403915,"lat":34.3816},{"station_cd":9971125,"station_g_cd":9971125,"station_name":"草津南","lon":132.398479,"lat":34.378092},{"station_cd":9971126,"station_g_cd":1161118,"station_name":"商工センター入口","lon":132.391999,"lat":34.375423},{"station_cd":9971127,"station_g_cd":9971127,"station_name":"井口","lon":132.385805,"lat":34.371751},{"station_cd":9971128,"station_g_cd":9971128,"station_name":"修大協創中高前","lon":132.374589,"lat":34.368218},{"station_cd":9971129,"station_g_cd":1161119,"station_name":"広電五日市","lon":132.367856,"lat":34.366393},{"station_cd":9971130,"station_g_cd":9971130,"station_name":"佐伯区役所前","lon":132.361709,"lat":34.365443},{"station_cd":9971131,"station_g_cd":9971131,"station_name":"楽々園","lon":132.351988,"lat":34.364282},{"station_cd":9971132,"station_g_cd":9971132,"station_name":"山陽女学園前","lon":132.341251,"lat":34.361948},{"station_cd":9971133,"station_g_cd":1161120,"station_name":"広電廿日市","lon":132.336179,"lat":34.356621},{"station_cd":9971134,"station_g_cd":9971134,"station_name":"廿日市市役所前（平良）","lon":132.329722,"lat":34.352816},{"station_cd":9971135,"station_g_cd":1161121,"station_name":"宮内","lon":132.325226,"lat":34.347472},{"station_cd":9971136,"station_g_cd":9971136,"station_name":"ＪＡ広島病院前","lon":132.322404,"lat":34.343959},{"station_cd":9971137,"station_g_cd":9971137,"station_name":"地御前","lon":132.320049,"lat":34.340942},{"station_cd":9971138,"station_g_cd":9971138,"station_name":"阿品東","lon":132.318579,"lat":34.326488},{"station_cd":9971139,"station_g_cd":1161122,"station_name":"広電阿品","lon":132.31483,"lat":34.321933},{"station_cd":9971140,"station_g_cd":9971140,"station_name":"宮島ボートレース場","lon":132.305006,"lat":34.314425},{"station_cd":9971141,"station_g_cd":1161123,"station_name":"広電宮島口","lon":132.304256,"lat":34.31217}]}
if(typeof(xml.onload)=='function') xml.onload(xml.data);
