
if(typeof(xml)=='undefined') xml = {};
xml.data = {"line_cd":99817,"line_name":"ごめん線","line_lon":133.59933624726,"line_lat":33.568628587669,"line_zoom":13,"station_l":[{"station_cd":9981701,"station_g_cd":9981602,"station_name":"後免町","lon":133.650227,"lat":33.574403},{"station_cd":9981702,"station_g_cd":9981702,"station_name":"後免東町","lon":133.648137,"lat":33.574526},{"station_cd":9981703,"station_g_cd":9981703,"station_name":"後免中町","lon":133.645527,"lat":33.575548},{"station_cd":9981704,"station_g_cd":9981704,"station_name":"後免西町","lon":133.642652,"lat":33.575869},{"station_cd":9981705,"station_g_cd":9981705,"station_name":"東工業前","lon":133.638446,"lat":33.576442},{"station_cd":9981706,"station_g_cd":9981706,"station_name":"住吉通","lon":133.636515,"lat":33.576656},{"station_cd":9981707,"station_g_cd":9981707,"station_name":"篠原","lon":133.631022,"lat":33.577228},{"station_cd":9981708,"station_g_cd":9981708,"station_name":"小篭通","lon":133.625786,"lat":33.57637},{"station_cd":9981709,"station_g_cd":9981709,"station_name":"長崎","lon":133.620722,"lat":33.575119},{"station_cd":9981710,"station_g_cd":9981710,"station_name":"明見橋","lon":133.617589,"lat":33.574582},{"station_cd":9981711,"station_g_cd":1180130,"station_name":"一条橋","lon":133.613802,"lat":33.574833},{"station_cd":9981712,"station_g_cd":9981712,"station_name":"清和学園前","lon":133.61244,"lat":33.57502},{"station_cd":9981713,"station_g_cd":9981713,"station_name":"領石通","lon":133.607805,"lat":33.574332},{"station_cd":9981714,"station_g_cd":9981714,"station_name":"北浦","lon":133.603728,"lat":33.57376},{"station_cd":9981715,"station_g_cd":9981715,"station_name":"舟戸","lon":133.599522,"lat":33.570613},{"station_cd":9981716,"station_g_cd":9981716,"station_name":"鹿児","lon":133.597033,"lat":33.567216},{"station_cd":9981717,"station_g_cd":9981717,"station_name":"田辺島通","lon":133.593214,"lat":33.566644},{"station_cd":9981718,"station_g_cd":9981718,"station_name":"東新木","lon":133.589609,"lat":33.564141},{"station_cd":9981719,"station_g_cd":9981719,"station_name":"新木","lon":133.586948,"lat":33.562568},{"station_cd":9981720,"station_g_cd":9981720,"station_name":"介良通","lon":133.583386,"lat":33.560243},{"station_cd":9981721,"station_g_cd":9981721,"station_name":"文珠通","lon":133.579524,"lat":33.559421},{"station_cd":9981722,"station_g_cd":9981722,"station_name":"高須","lon":133.576691,"lat":33.559349},{"station_cd":9981723,"station_g_cd":9981723,"station_name":"県立美術館通","lon":133.575618,"lat":33.559134},{"station_cd":9981724,"station_g_cd":9981724,"station_name":"西高須","lon":133.573129,"lat":33.558348},{"station_cd":9981725,"station_g_cd":9981725,"station_name":"葛島橋東詰","lon":133.569739,"lat":33.557024},{"station_cd":9981726,"station_g_cd":9981726,"station_name":"知寄町三丁目","lon":133.565168,"lat":33.557597},{"station_cd":9981727,"station_g_cd":9981727,"station_name":"知寄町","lon":133.561757,"lat":33.557883},{"station_cd":9981728,"station_g_cd":9981728,"station_name":"知寄町二丁目","lon":133.55989,"lat":33.558097},{"station_cd":9981729,"station_g_cd":9981729,"station_name":"知寄町一丁目","lon":133.556693,"lat":33.558419},{"station_cd":9981730,"station_g_cd":9981730,"station_name":"宝永町","lon":133.55371,"lat":33.558777},{"station_cd":9981731,"station_g_cd":9981731,"station_name":"菜園場町","lon":133.548625,"lat":33.559063},{"station_cd":9981732,"station_g_cd":9981732,"station_name":"デンテツターミナルビル前","lon":133.545964,"lat":33.55926},{"station_cd":9981733,"station_g_cd":9981733,"station_name":"はりまや橋","lon":133.542852,"lat":33.559617}]}
if(typeof(xml.onload)=='function') xml.onload(xml.data);
