<?xml version="1.0" encoding="UTF-8"?>
<ekidata version="ekidata.jp line api 1.0">
	<line>
		<line_cd>99906</line_cd>
		<line_name>福岡市営地下鉄箱崎線</line_name>
		<line_lon>130.41711626984</line_lon>
		<line_lat>33.614826570191</line_lat>
		<line_zoom>14</line_zoom>
	</line>
	<station>
		<station_cd>9990601</station_cd>
		<station_g_cd>9990505</station_g_cd>
		<station_name>中洲川端</station_name>
		<lon>130.406418</lon>
		<lat>33.594749</lat>
	</station>
	<station>
		<station_cd>9990602</station_cd>
		<station_g_cd>9990602</station_g_cd>
		<station_name>呉服町</station_name>
		<lon>130.409892</lon>
		<lat>33.59829</lat>
	</station>
	<station>
		<station_cd>9990603</station_cd>
		<station_g_cd>9990603</station_g_cd>
		<station_name>千代県庁口</station_name>
		<lon>130.414336</lon>
		<lat>33.602456</lat>
	</station>
	<station>
		<station_cd>9990604</station_cd>
		<station_g_cd>9990604</station_g_cd>
		<station_name>馬出九大病院前</station_name>
		<lon>130.419336</lon>
		<lat>33.6094</lat>
	</station>
	<station>
		<station_cd>9990605</station_cd>
		<station_g_cd>9990605</station_g_cd>
		<station_name>箱崎宮前</station_name>
		<lon>130.419613</lon>
		<lat>33.615788</lat>
	</station>
	<station>
		<station_cd>9990606</station_cd>
		<station_g_cd>9990606</station_g_cd>
		<station_name>箱崎九大前</station_name>
		<lon>130.421002</lon>
		<lat>33.622177</lat>
	</station>
	<station>
		<station_cd>9990607</station_cd>
		<station_g_cd>3600401</station_g_cd>
		<station_name>貝塚</station_name>
		<lon>130.425612</lon>
		<lat>33.632906</lat>
	</station>
</ekidata>
