
if(typeof(xml)=='undefined') xml = {};
xml.data = {"line_cd":99902,"line_name":"伊田線","line_lon":130.76043661159,"line_lat":33.700854533802,"line_zoom":12,"station_l":[{"station_cd":9990201,"station_g_cd":1191108,"station_name":"直方","lon":130.725015,"lat":33.747461},{"station_cd":9990202,"station_g_cd":9990202,"station_name":"南直方御殿口","lon":130.724903,"lat":33.738729},{"station_cd":9990203,"station_g_cd":9990203,"station_name":"あかぢ","lon":130.72455,"lat":33.727366},{"station_cd":9990204,"station_g_cd":9990204,"station_name":"藤棚","lon":130.735291,"lat":33.722017},{"station_cd":9990205,"station_g_cd":9990205,"station_name":"中泉","lon":130.742871,"lat":33.720992},{"station_cd":9990206,"station_g_cd":9990206,"station_name":"市場","lon":130.759328,"lat":33.708074},{"station_cd":9990207,"station_g_cd":9990207,"station_name":"ふれあい生力","lon":130.765567,"lat":33.700112},{"station_cd":9990208,"station_g_cd":9990208,"station_name":"赤池","lon":130.768675,"lat":33.69206},{"station_cd":9990209,"station_g_cd":9990209,"station_name":"人見","lon":130.771105,"lat":33.687316},{"station_cd":9990210,"station_g_cd":9990210,"station_name":"金田","lon":130.776491,"lat":33.682805},{"station_cd":9990211,"station_g_cd":9990211,"station_name":"上金田","lon":130.789172,"lat":33.672435},{"station_cd":9990212,"station_g_cd":9990212,"station_name":"糒","lon":130.799177,"lat":33.664744},{"station_cd":9990213,"station_g_cd":9990213,"station_name":"田川市立病院","lon":130.802697,"lat":33.660436},{"station_cd":9990214,"station_g_cd":9990214,"station_name":"下伊田","lon":130.807016,"lat":33.651965},{"station_cd":9990215,"station_g_cd":1191413,"station_name":"田川伊田","lon":130.817688,"lat":33.642046}]}
if(typeof(xml.onload)=='function') xml.onload(xml.data);
