{"line_cd":99913,"line_name":"長崎電軌１系統","line_lon":129.86838866057,"line_lat":32.768729040517,"line_zoom":13,"station_l":[{"station_cd":9991301,"station_g_cd":9991301,"station_name":"赤迫","lon":129.857948,"lat":32.793732},{"station_cd":9991302,"station_g_cd":9991302,"station_name":"住吉","lon":129.859836,"lat":32.792073},{"station_cd":9991303,"station_g_cd":1190539,"station_name":"昭和町通","lon":129.860694,"lat":32.79063},{"station_cd":9991304,"station_g_cd":9991304,"station_name":"千歳町","lon":129.860952,"lat":32.78962},{"station_cd":9991305,"station_g_cd":9991305,"station_name":"若葉町","lon":129.861596,"lat":32.787744},{"station_cd":9991306,"station_g_cd":9991306,"station_name":"長崎大学","lon":129.862282,"lat":32.785759},{"station_cd":9991307,"station_g_cd":9991307,"station_name":"岩屋橋","lon":129.862282,"lat":32.781935},{"station_cd":9991308,"station_g_cd":9991308,"station_name":"浦上車庫","lon":129.861381,"lat":32.77968},{"station_cd":9991309,"station_g_cd":9991309,"station_name":"大橋","lon":129.861467,"lat":32.777713},{"station_cd":9991310,"station_g_cd":9991310,"station_name":"平和公園","lon":129.862132,"lat":32.773437},{"station_cd":9991311,"station_g_cd":9991311,"station_name":"原爆資料館","lon":129.863784,"lat":32.770551},{"station_cd":9991312,"station_g_cd":9991312,"station_name":"大学病院","lon":129.864171,"lat":32.769017},{"station_cd":9991313,"station_g_cd":1190540,"station_name":"浦上駅前","lon":129.864171,"lat":32.765481},{"station_cd":9991314,"station_g_cd":9991314,"station_name":"茂里町","lon":129.864557,"lat":32.763965},{"station_cd":9991315,"station_g_cd":9991315,"station_name":"銭座町","lon":129.865801,"lat":32.761475},{"station_cd":9991316,"station_g_cd":9991316,"station_name":"宝町","lon":129.868913,"lat":32.75783},{"station_cd":9991317,"station_g_cd":9991317,"station_name":"八千代町","lon":129.870436,"lat":32.754979},{"station_cd":9991318,"station_g_cd":1190541,"station_name":"長崎駅前","lon":129.871874,"lat":32.75238},{"station_cd":9991319,"station_g_cd":9991319,"station_name":"五島町","lon":129.872217,"lat":32.749411},{"station_cd":9991320,"station_g_cd":9991320,"station_name":"大波止","lon":129.872046,"lat":32.745116},{"station_cd":9991321,"station_g_cd":9991321,"station_name":"出島","lon":129.871681,"lat":32.743871},{"station_cd":9991322,"station_g_cd":9991322,"station_name":"新地中華街","lon":129.874942,"lat":32.742869},{"station_cd":9991323,"station_g_cd":9991323,"station_name":"西浜町","lon":129.876015,"lat":32.743735},{"station_cd":9991324,"station_g_cd":9991324,"station_name":"観光通","lon":129.877775,"lat":32.743483},{"station_cd":9991325,"station_g_cd":9991325,"station_name":"思案橋","lon":129.880264,"lat":32.742725},{"station_cd":9991326,"station_g_cd":9991326,"station_name":"崇福寺","lon":129.882109,"lat":32.741425}]}
