<?xml version="1.0" encoding="UTF-8"?>
<ekidata version="ekidata.jp line api 1.0">
	<line>
		<line_cd>99921</line_cd>
		<line_name>肥薩おれんじ鉄道線</line_name>
		<line_lon>130.39137274079</line_lon>
		<line_lat>32.168417968355</line_lat>
		<line_zoom>10</line_zoom>
	</line>
	<station>
		<station_cd>9992101</station_cd>
		<station_g_cd>1190349</station_g_cd>
		<station_name>八代</station_name>
		<lon>130.621609</lon>
		<lat>32.503805</lat>
	</station>
	<station>
		<station_cd>9992102</station_cd>
		<station_g_cd>9992102</station_g_cd>
		<station_name>肥後高田</station_name>
		<lon>130.612588</lon>
		<lat>32.475546</lat>
	</station>
	<station>
		<station_cd>9992103</station_cd>
		<station_g_cd>9992103</station_g_cd>
		<station_name>日奈久温泉</station_name>
		<lon>130.581635</lon>
		<lat>32.436163</lat>
	</station>
	<station>
		<station_cd>9992104</station_cd>
		<station_g_cd>9992104</station_g_cd>
		<station_name>肥後二見</station_name>
		<lon>130.550019</lon>
		<lat>32.420111</lat>
	</station>
	<station>
		<station_cd>9992105</station_cd>
		<station_g_cd>9992105</station_g_cd>
		<station_name>上田浦</station_name>
		<lon>130.5186</lon>
		<lat>32.392952</lat>
	</station>
	<station>
		<station_cd>9992106</station_cd>
		<station_g_cd>9992106</station_g_cd>
		<station_name>たのうら御立岬公園</station_name>
		<lon>130.506705</lon>
		<lat>32.363202</lat>
	</station>
	<station>
		<station_cd>9992107</station_cd>
		<station_g_cd>9992107</station_g_cd>
		<station_name>肥後田浦</station_name>
		<lon>130.504778</lon>
		<lat>32.350698</lat>
	</station>
	<station>
		<station_cd>9992108</station_cd>
		<station_g_cd>9992108</station_g_cd>
		<station_name>海浦</station_name>
		<lon>130.488766</lon>
		<lat>32.327997</lat>
	</station>
	<station>
		<station_cd>9992109</station_cd>
		<station_g_cd>9992109</station_g_cd>
		<station_name>佐敷</station_name>
		<lon>130.497277</lon>
		<lat>32.302447</lat>
	</station>
	<station>
		<station_cd>9992110</station_cd>
		<station_g_cd>9992110</station_g_cd>
		<station_name>湯浦</station_name>
		<lon>130.504667</lon>
		<lat>32.271231</lat>
	</station>
	<station>
		<station_cd>9992111</station_cd>
		<station_g_cd>9992111</station_g_cd>
		<station_name>津奈木</station_name>
		<lon>130.450165</lon>
		<lat>32.232417</lat>
	</station>
	<station>
		<station_cd>9992112</station_cd>
		<station_g_cd>9992112</station_g_cd>
		<station_name>新水俣</station_name>
		<lon>130.428893</lon>
		<lat>32.210825</lat>
	</station>
	<station>
		<station_cd>9992113</station_cd>
		<station_g_cd>9992113</station_g_cd>
		<station_name>水俣</station_name>
		<lon>130.395763</lon>
		<lat>32.204919</lat>
	</station>
	<station>
		<station_cd>9992114</station_cd>
		<station_g_cd>9992114</station_g_cd>
		<station_name>袋</station_name>
		<lon>130.374391</lon>
		<lat>32.165517</lat>
	</station>
	<station>
		<station_cd>9992115</station_cd>
		<station_g_cd>9992115</station_g_cd>
		<station_name>米ノ津</station_name>
		<lon>130.342139</lon>
		<lat>32.122269</lat>
	</station>
	<station>
		<station_cd>9992116</station_cd>
		<station_g_cd>9992116</station_g_cd>
		<station_name>出水</station_name>
		<lon>130.357803</lon>
		<lat>32.089275</lat>
	</station>
	<station>
		<station_cd>9992117</station_cd>
		<station_g_cd>9992117</station_g_cd>
		<station_name>西出水</station_name>
		<lon>130.339285</lon>
		<lat>32.075398</lat>
	</station>
	<station>
		<station_cd>9992118</station_cd>
		<station_g_cd>9992118</station_g_cd>
		<station_name>高尾野</station_name>
		<lon>130.301632</lon>
		<lat>32.062536</lat>
	</station>
	<station>
		<station_cd>9992119</station_cd>
		<station_g_cd>9992119</station_g_cd>
		<station_name>野田郷</station_name>
		<lon>130.267214</lon>
		<lat>32.063238</lat>
	</station>
	<station>
		<station_cd>9992120</station_cd>
		<station_g_cd>9992120</station_g_cd>
		<station_name>折口</station_name>
		<lon>130.217485</lon>
		<lat>32.060949</lat>
	</station>
	<station>
		<station_cd>9992121</station_cd>
		<station_g_cd>9992121</station_g_cd>
		<station_name>阿久根</station_name>
		<lon>130.196276</lon>
		<lat>32.022969</lat>
	</station>
	<station>
		<station_cd>9992122</station_cd>
		<station_g_cd>9992122</station_g_cd>
		<station_name>牛ノ浜</station_name>
		<lon>130.207038</lon>
		<lat>31.973962</lat>
	</station>
	<station>
		<station_cd>9992123</station_cd>
		<station_g_cd>9992123</station_g_cd>
		<station_name>薩摩大川</station_name>
		<lon>130.219072</lon>
		<lat>31.949414</lat>
	</station>
	<station>
		<station_cd>9992124</station_cd>
		<station_g_cd>9992124</station_g_cd>
		<station_name>西方</station_name>
		<lon>130.223658</lon>
		<lat>31.916153</lat>
	</station>
	<station>
		<station_cd>9992125</station_cd>
		<station_g_cd>9992125</station_g_cd>
		<station_name>薩摩高城</station_name>
		<lon>130.220649</lon>
		<lat>31.892545</lat>
	</station>
	<station>
		<station_cd>9992126</station_cd>
		<station_g_cd>9992126</station_g_cd>
		<station_name>草道</station_name>
		<lon>130.233533</lon>
		<lat>31.854556</lat>
	</station>
	<station>
		<station_cd>9992127</station_cd>
		<station_g_cd>9992127</station_g_cd>
		<station_name>上川内</station_name>
		<lon>130.292406</lon>
		<lat>31.83537</lat>
	</station>
	<station>
		<station_cd>9992128</station_cd>
		<station_g_cd>1190401</station_g_cd>
		<station_name>川内</station_name>
		<lon>130.31213</lon>
		<lat>31.813726</lat>
	</station>
</ekidata>
