<?xml version="1.0" encoding="UTF-8"?>
<ekidata version="ekidata.jp line api 1.0">
	<line>
		<line_cd>99923</line_cd>
		<line_name>熊本市電Ｂ系統</line_name>
		<line_lon>130.72034257275</line_lon>
		<line_lat>32.797989793968</line_lat>
		<line_zoom>13</line_zoom>
	</line>
	<station>
		<station_cd>9992301</station_cd>
		<station_g_cd>1190340</station_g_cd>
		<station_name>上熊本</station_name>
		<lon>130.6994037</lon>
		<lat>32.81743247</lat>
	</station>
	<station>
		<station_cd>9992302</station_cd>
		<station_g_cd>9992302</station_g_cd>
		<station_name>県立体育館前</station_name>
		<lon>130.69896</lon>
		<lat>32.815032</lat>
	</station>
	<station>
		<station_cd>9992303</station_cd>
		<station_g_cd>9992303</station_g_cd>
		<station_name>本妙寺入口</station_name>
		<lon>130.698466</lon>
		<lat>32.813626</lat>
	</station>
	<station>
		<station_cd>9992304</station_cd>
		<station_g_cd>9992304</station_g_cd>
		<station_name>杉塘</station_name>
		<lon>130.696986</lon>
		<lat>32.810308</lat>
	</station>
	<station>
		<station_cd>9992305</station_cd>
		<station_g_cd>9992305</station_g_cd>
		<station_name>段山町</station_name>
		<lon>130.695505</lon>
		<lat>32.806701</lat>
	</station>
	<station>
		<station_cd>9992306</station_cd>
		<station_g_cd>9992306</station_g_cd>
		<station_name>蔚山町</station_name>
		<lon>130.696986</lon>
		<lat>32.803959</lat>
	</station>
	<station>
		<station_cd>9992307</station_cd>
		<station_g_cd>9992307</station_g_cd>
		<station_name>新町</station_name>
		<lon>130.697222</lon>
		<lat>32.799739</lat>
	</station>
	<station>
		<station_cd>9992308</station_cd>
		<station_g_cd>9992308</station_g_cd>
		<station_name>洗馬橋</station_name>
		<lon>130.698917</lon>
		<lat>32.799234</lat>
	</station>
	<station>
		<station_cd>9992309</station_cd>
		<station_g_cd>9992309</station_g_cd>
		<station_name>西辛島町</station_name>
		<lon>130.702264</lon>
		<lat>32.798801</lat>
	</station>
	<station>
		<station_cd>9992310</station_cd>
		<station_g_cd>9992208</station_g_cd>
		<station_name>辛島町</station_name>
		<lon>130.705075</lon>
		<lat>32.798891</lat>
	</station>
	<station>
		<station_cd>9992311</station_cd>
		<station_g_cd>9992209</station_g_cd>
		<station_name>花畑町</station_name>
		<lon>130.705483</lon>
		<lat>32.801128</lat>
	</station>
	<station>
		<station_cd>9992312</station_cd>
		<station_g_cd>9992210</station_g_cd>
		<station_name>熊本城・市役所前</station_name>
		<lon>130.707028</lon>
		<lat>32.802967</lat>
	</station>
	<station>
		<station_cd>9992313</station_cd>
		<station_g_cd>9992211</station_g_cd>
		<station_name>通町筋</station_name>
		<lon>130.709817</lon>
		<lat>32.803364</lat>
	</station>
	<station>
		<station_cd>9992314</station_cd>
		<station_g_cd>9992212</station_g_cd>
		<station_name>水道町</station_name>
		<lon>130.712564</lon>
		<lat>32.80239</lat>
	</station>
	<station>
		<station_cd>9992315</station_cd>
		<station_g_cd>9992213</station_g_cd>
		<station_name>九品寺交差点</station_name>
		<lon>130.7178</lon>
		<lat>32.799576</lat>
	</station>
	<station>
		<station_cd>9992316</station_cd>
		<station_g_cd>9992214</station_g_cd>
		<station_name>交通局前</station_name>
		<lon>130.719945</lon>
		<lat>32.797664</lat>
	</station>
	<station>
		<station_cd>9992317</station_cd>
		<station_g_cd>9992215</station_g_cd>
		<station_name>味噌天神前</station_name>
		<lon>130.723722</lon>
		<lat>32.795644</lat>
	</station>
	<station>
		<station_cd>9992318</station_cd>
		<station_g_cd>1192304</station_g_cd>
		<station_name>新水前寺駅前</station_name>
		<lon>130.727069</lon>
		<lat>32.793516</lat>
	</station>
	<station>
		<station_cd>9992319</station_cd>
		<station_g_cd>9992217</station_g_cd>
		<station_name>国府</station_name>
		<lon>130.729172</lon>
		<lat>32.792217</lat>
	</station>
	<station>
		<station_cd>9992320</station_cd>
		<station_g_cd>9992218</station_g_cd>
		<station_name>水前寺公園</station_name>
		<lon>130.732455</lon>
		<lat>32.789908</lat>
	</station>
	<station>
		<station_cd>9992321</station_cd>
		<station_g_cd>9992219</station_g_cd>
		<station_name>市立体育館前</station_name>
		<lon>130.734708</lon>
		<lat>32.788429</lat>
	</station>
	<station>
		<station_cd>9992322</station_cd>
		<station_g_cd>9992220</station_g_cd>
		<station_name>商業高校前</station_name>
		<lon>130.739107</lon>
		<lat>32.785398</lat>
	</station>
	<station>
		<station_cd>9992323</station_cd>
		<station_g_cd>9992221</station_g_cd>
		<station_name>八丁馬場</station_name>
		<lon>130.741746</lon>
		<lat>32.783739</lat>
	</station>
	<station>
		<station_cd>9992324</station_cd>
		<station_g_cd>9992222</station_g_cd>
		<station_name>神水交差点</station_name>
		<lon>130.74518</lon>
		<lat>32.783649</lat>
	</station>
	<station>
		<station_cd>9992325</station_cd>
		<station_g_cd>9992223</station_g_cd>
		<station_name>健軍校前</station_name>
		<lon>130.750952</lon>
		<lat>32.781917</lat>
	</station>
	<station>
		<station_cd>9992326</station_cd>
		<station_g_cd>9992224</station_g_cd>
		<station_name>動植物園入口</station_name>
		<lon>130.754707</lon>
		<lat>32.78051</lat>
	</station>
	<station>
		<station_cd>9992327</station_cd>
		<station_g_cd>9992225</station_g_cd>
		<station_name>健軍交番前</station_name>
		<lon>130.757668</lon>
		<lat>32.779463</lat>
	</station>
	<station>
		<station_cd>9992328</station_cd>
		<station_g_cd>9992226</station_g_cd>
		<station_name>健軍町</station_name>
		<lon>130.761209</lon>
		<lat>32.778381</lat>
	</station>
</ekidata>
