
if(typeof(xml)=='undefined') xml = {};
xml.data = {"line_cd":11116,"line_name":"JR石北本線","line_lon":143.36294609598,"line_lat":43.961387698578,"line_zoom":8,"station_l":[{"station_cd":1111601,"station_g_cd":1110342,"station_name":"旭川","lon":142.357803,"lat":43.763492},{"station_cd":1111602,"station_g_cd":1111502,"station_name":"旭川四条","lon":142.375815,"lat":43.764056},{"station_cd":1111603,"station_g_cd":1111503,"station_name":"新旭川","lon":142.384789,"lat":43.780174},{"station_cd":1111604,"station_g_cd":1111604,"station_name":"南永山","lon":142.40853,"lat":43.78055},{"station_cd":1111605,"station_g_cd":1111605,"station_name":"東旭川","lon":142.441544,"lat":43.776571},{"station_cd":1111606,"station_g_cd":1111606,"station_name":"北日ノ出","lon":142.466127,"lat":43.781813},{"station_cd":1111607,"station_g_cd":1111607,"station_name":"桜岡","lon":142.486968,"lat":43.801812},{"station_cd":1111608,"station_g_cd":1111608,"station_name":"当麻","lon":142.516987,"lat":43.825477},{"station_cd":1111609,"station_g_cd":1111609,"station_name":"将軍山","lon":142.521559,"lat":43.857455},{"station_cd":1111610,"station_g_cd":1111610,"station_name":"伊香牛","lon":142.525227,"lat":43.876025},{"station_cd":1111611,"station_g_cd":1111611,"station_name":"愛別","lon":142.582176,"lat":43.898635},{"station_cd":1111612,"station_g_cd":1111612,"station_name":"中愛別","lon":142.655424,"lat":43.896216},{"station_cd":1111613,"station_g_cd":1111613,"station_name":"愛山","lon":142.680699,"lat":43.866442},{"station_cd":1111614,"station_g_cd":1111614,"station_name":"安足間","lon":142.693868,"lat":43.852011},{"station_cd":1111615,"station_g_cd":1111615,"station_name":"東雲","lon":142.716544,"lat":43.843693},{"station_cd":1111616,"station_g_cd":1111616,"station_name":"上川","lon":142.766895,"lat":43.848508},{"station_cd":1111618,"station_g_cd":1111618,"station_name":"白滝","lon":143.180795,"lat":43.884435},{"station_cd":1111621,"station_g_cd":1111621,"station_name":"丸瀬布","lon":143.335817,"lat":44.006354},{"station_cd":1111622,"station_g_cd":1111622,"station_name":"瀬戸瀬","lon":143.420937,"lat":44.008753},{"station_cd":1111623,"station_g_cd":1111623,"station_name":"遠軽","lon":143.520667,"lat":44.060278},{"station_cd":1111624,"station_g_cd":1111624,"station_name":"安国","lon":143.535762,"lat":43.993322},{"station_cd":1111625,"station_g_cd":1111625,"station_name":"生野","lon":143.532945,"lat":43.959928},{"station_cd":1111626,"station_g_cd":1111626,"station_name":"生田原","lon":143.534627,"lat":43.923674},{"station_cd":1111628,"station_g_cd":1111628,"station_name":"西留辺蘂","lon":143.603257,"lat":43.785345},{"station_cd":1111629,"station_g_cd":1111629,"station_name":"留辺蘂","lon":143.621394,"lat":43.785534},{"station_cd":1111630,"station_g_cd":1111630,"station_name":"相内","lon":143.756449,"lat":43.795948},{"station_cd":1111631,"station_g_cd":1111631,"station_name":"東相内","lon":143.809499,"lat":43.805466},{"station_cd":1111632,"station_g_cd":1111632,"station_name":"西北見","lon":143.841586,"lat":43.803114},{"station_cd":1111633,"station_g_cd":1111633,"station_name":"北見","lon":143.898167,"lat":43.805504},{"station_cd":1111634,"station_g_cd":1111634,"station_name":"柏陽","lon":143.916737,"lat":43.824911},{"station_cd":1111635,"station_g_cd":1111635,"station_name":"愛し野","lon":143.932962,"lat":43.841426},{"station_cd":1111636,"station_g_cd":1111636,"station_name":"端野","lon":143.942336,"lat":43.851172},{"station_cd":1111637,"station_g_cd":1111637,"station_name":"緋牛内","lon":143.999887,"lat":43.880431},{"station_cd":1111638,"station_g_cd":1111638,"station_name":"美幌","lon":144.10563,"lat":43.836967},{"station_cd":1111639,"station_g_cd":1111639,"station_name":"西女満別","lon":144.148372,"lat":43.880057},{"station_cd":1111640,"station_g_cd":1111640,"station_name":"女満別","lon":144.170665,"lat":43.915886},{"station_cd":1111641,"station_g_cd":1111641,"station_name":"呼人","lon":144.218945,"lat":43.963695},{"station_cd":1111642,"station_g_cd":1111642,"station_name":"網走","lon":144.254156,"lat":44.019873}]}
if(typeof(xml.onload)=='function') xml.onload(xml.data);
