<?xml version="1.0" encoding="UTF-8"?>
<ekidata version="ekidata.jp line api 1.0">
	<line>
		<line_cd>11110</line_cd>
		<line_name>JR石勝線</line_name>
		<line_lon>142.12081034323</line_lon>
		<line_lat>42.977609672951</line_lat>
		<line_zoom>9</line_zoom>
	</line>
	<station>
		<station_cd>1111001</station_cd>
		<station_g_cd>1110906</station_g_cd>
		<station_name>南千歳</station_name>
		<lon>141.675388</lon>
		<lat>42.80804</lat>
	</station>
	<station>
		<station_cd>1111002</station_cd>
		<station_g_cd>1110506</station_g_cd>
		<station_name>追分</station_name>
		<lon>141.810678</lon>
		<lat>42.873316</lat>
	</station>
	<station>
		<station_cd>1111004</station_cd>
		<station_g_cd>1111004</station_g_cd>
		<station_name>川端</station_name>
		<lon>141.894791</lon>
		<lat>42.914721</lat>
	</station>
	<station>
		<station_cd>1111005</station_cd>
		<station_g_cd>1111005</station_g_cd>
		<station_name>滝ノ上</station_name>
		<lon>141.97628</lon>
		<lat>42.910244</lat>
	</station>
	<station>
		<station_cd>1111007</station_cd>
		<station_g_cd>1111007</station_g_cd>
		<station_name>新夕張</station_name>
		<lon>142.03657</lon>
		<lat>42.936611</lat>
	</station>
	<station>
		<station_cd>1111013</station_cd>
		<station_g_cd>1111013</station_g_cd>
		<station_name>占冠</station_name>
		<lon>142.400078</lon>
		<lat>42.993088</lat>
	</station>
	<station>
		<station_cd>1111014</station_cd>
		<station_g_cd>1111014</station_g_cd>
		<station_name>トマム</station_name>
		<lon>142.610937</lon>
		<lat>43.055913</lat>
	</station>
	<station>
		<station_cd>1111015</station_cd>
		<station_g_cd>1110618</station_g_cd>
		<station_name>新得</station_name>
		<lon>142.832432</lon>
		<lat>43.082501</lat>
	</station>
</ekidata>
