<?xml version="1.0" encoding="UTF-8"?>
<ekidata version="ekidata.jp line api 1.0">
	<line>
		<line_cd>11308</line_cd>
		<line_name>JR横須賀線</line_name>
		<line_lon>139.64761859128</line_lon>
		<line_lat>35.48340539219</line_lat>
		<line_zoom>10</line_zoom>
	</line>
	<station>
		<station_cd>1130801</station_cd>
		<station_g_cd>1130101</station_g_cd>
		<station_name>東京</station_name>
		<lon>139.766103</lon>
		<lat>35.681391</lat>
	</station>
	<station>
		<station_cd>1130802</station_cd>
		<station_g_cd>1130102</station_g_cd>
		<station_name>新橋</station_name>
		<lon>139.758587</lon>
		<lat>35.666195</lat>
	</station>
	<station>
		<station_cd>1130803</station_cd>
		<station_g_cd>1130103</station_g_cd>
		<station_name>品川</station_name>
		<lon>139.738999</lon>
		<lat>35.62876</lat>
	</station>
	<station>
		<station_cd>1130804</station_cd>
		<station_g_cd>1130804</station_g_cd>
		<station_name>西大井</station_name>
		<lon>139.721729</lon>
		<lat>35.601616</lat>
	</station>
	<station>
		<station_cd>1130819</station_cd>
		<station_g_cd>1130307</station_g_cd>
		<station_name>武蔵小杉</station_name>
		<lon>139.663278</lon>
		<lat>35.575965</lat>
	</station>
	<station>
		<station_cd>1130805</station_cd>
		<station_g_cd>1130805</station_g_cd>
		<station_name>新川崎</station_name>
		<lon>139.671481</lon>
		<lat>35.551784</lat>
	</station>
	<station>
		<station_cd>1130806</station_cd>
		<station_g_cd>1130105</station_g_cd>
		<station_name>横浜</station_name>
		<lon>139.622704</lon>
		<lat>35.466195</lat>
	</station>
	<station>
		<station_cd>1130807</station_cd>
		<station_g_cd>1130807</station_g_cd>
		<station_name>保土ケ谷</station_name>
		<lon>139.599671</lon>
		<lat>35.446746</lat>
	</station>
	<station>
		<station_cd>1130808</station_cd>
		<station_g_cd>1130808</station_g_cd>
		<station_name>東戸塚</station_name>
		<lon>139.556794</lon>
		<lat>35.430353</lat>
	</station>
	<station>
		<station_cd>1130809</station_cd>
		<station_g_cd>1130106</station_g_cd>
		<station_name>戸塚</station_name>
		<lon>139.534282</lon>
		<lat>35.400432</lat>
	</station>
	<station>
		<station_cd>1130810</station_cd>
		<station_g_cd>1130107</station_g_cd>
		<station_name>大船</station_name>
		<lon>139.531127</lon>
		<lat>35.353466</lat>
	</station>
	<station>
		<station_cd>1130811</station_cd>
		<station_g_cd>1130811</station_g_cd>
		<station_name>北鎌倉</station_name>
		<lon>139.545134</lon>
		<lat>35.337198</lat>
	</station>
	<station>
		<station_cd>1130812</station_cd>
		<station_g_cd>1130812</station_g_cd>
		<station_name>鎌倉</station_name>
		<lon>139.550428</lon>
		<lat>35.318793</lat>
	</station>
	<station>
		<station_cd>1130813</station_cd>
		<station_g_cd>1130813</station_g_cd>
		<station_name>逗子</station_name>
		<lon>139.578292</lon>
		<lat>35.297392</lat>
	</station>
	<station>
		<station_cd>1130814</station_cd>
		<station_g_cd>1130814</station_g_cd>
		<station_name>東逗子</station_name>
		<lon>139.601768</lon>
		<lat>35.298781</lat>
	</station>
	<station>
		<station_cd>1130815</station_cd>
		<station_g_cd>1130815</station_g_cd>
		<station_name>田浦</station_name>
		<lon>139.637726</lon>
		<lat>35.29271</lat>
	</station>
	<station>
		<station_cd>1130816</station_cd>
		<station_g_cd>1130816</station_g_cd>
		<station_name>横須賀</station_name>
		<lon>139.655855</lon>
		<lat>35.284022</lat>
	</station>
	<station>
		<station_cd>1130817</station_cd>
		<station_g_cd>1130817</station_g_cd>
		<station_name>衣笠</station_name>
		<lon>139.661193</lon>
		<lat>35.257091</lat>
	</station>
	<station>
		<station_cd>1130818</station_cd>
		<station_g_cd>1130818</station_g_cd>
		<station_name>久里浜</station_name>
		<lon>139.700862</lon>
		<lat>35.233107</lat>
	</station>
</ekidata>
