
if(typeof(xml)=='undefined') xml = {};
xml.data = {"line_cd":11304,"line_name":"JR鶴見線","line_lon":139.69734220226,"line_lat":35.503227015417,"line_zoom":13,"station_l":[{"station_cd":1130401,"station_g_cd":1130401,"station_name":"鶴見","lon":139.67614,"lat":35.508387},{"station_cd":1130402,"station_g_cd":1130402,"station_name":"国道","lon":139.675599,"lat":35.50083},{"station_cd":1130403,"station_g_cd":1130403,"station_name":"鶴見小野","lon":139.681226,"lat":35.497005},{"station_cd":1130404,"station_g_cd":1130404,"station_name":"弁天橋","lon":139.689451,"lat":35.495758},{"station_cd":1130405,"station_g_cd":1130405,"station_name":"浅野","lon":139.695739,"lat":35.497555},{"station_cd":1130406,"station_g_cd":1130406,"station_name":"新芝浦","lon":139.7001,"lat":35.491914},{"station_cd":1130407,"station_g_cd":1130407,"station_name":"海芝浦","lon":139.700603,"lat":35.486073},{"station_cd":1130408,"station_g_cd":1130408,"station_name":"安善","lon":139.700663,"lat":35.499668},{"station_cd":1130409,"station_g_cd":1130409,"station_name":"大川","lon":139.711038,"lat":35.495646},{"station_cd":1130410,"station_g_cd":1130410,"station_name":"武蔵白石","lon":139.706513,"lat":35.501912},{"station_cd":1130411,"station_g_cd":1130328,"station_name":"浜川崎","lon":139.713575,"lat":35.509863},{"station_cd":1130412,"station_g_cd":1130412,"station_name":"昭和","lon":139.723897,"lat":35.506836},{"station_cd":1130413,"station_g_cd":1130413,"station_name":"扇町","lon":139.722147,"lat":35.501452}]}
if(typeof(xml.onload)=='function') xml.onload(xml.data);
