<?xml version="1.0" encoding="UTF-8"?>
<ekidata version="ekidata.jp line api 1.0">
	<line>
		<line_cd>11313</line_cd>
		<line_name>JR中央・総武線</line_name>
		<line_lon>139.83715522681</line_lon>
		<line_lat>35.701641362335</line_lat>
		<line_zoom>10</line_zoom>
	</line>
	<station>
		<station_cd>1131301</station_cd>
		<station_g_cd>1131105</station_g_cd>
		<station_name>三鷹</station_name>
		<lon>139.560325</lon>
		<lat>35.702683</lat>
	</station>
	<station>
		<station_cd>1131302</station_cd>
		<station_g_cd>1131104</station_g_cd>
		<station_name>吉祥寺</station_name>
		<lon>139.579765</lon>
		<lat>35.703119</lat>
	</station>
	<station>
		<station_cd>1131303</station_cd>
		<station_g_cd>1131218</station_g_cd>
		<station_name>西荻窪</station_name>
		<lon>139.599361</lon>
		<lat>35.703842</lat>
	</station>
	<station>
		<station_cd>1131304</station_cd>
		<station_g_cd>1131217</station_g_cd>
		<station_name>荻窪</station_name>
		<lon>139.620109</lon>
		<lat>35.704523</lat>
	</station>
	<station>
		<station_cd>1131305</station_cd>
		<station_g_cd>1131216</station_g_cd>
		<station_name>阿佐ケ谷</station_name>
		<lon>139.635868</lon>
		<lat>35.704818</lat>
	</station>
	<station>
		<station_cd>1131306</station_cd>
		<station_g_cd>1131215</station_g_cd>
		<station_name>高円寺</station_name>
		<lon>139.649664</lon>
		<lat>35.705326</lat>
	</station>
	<station>
		<station_cd>1131307</station_cd>
		<station_g_cd>1131214</station_g_cd>
		<station_name>中野</station_name>
		<lon>139.665835</lon>
		<lat>35.705765</lat>
	</station>
	<station>
		<station_cd>1131308</station_cd>
		<station_g_cd>1131308</station_g_cd>
		<station_name>東中野</station_name>
		<lon>139.684436</lon>
		<lat>35.706529</lat>
	</station>
	<station>
		<station_cd>1131309</station_cd>
		<station_g_cd>1131309</station_g_cd>
		<station_name>大久保</station_name>
		<lon>139.69732</lon>
		<lat>35.700784</lat>
	</station>
	<station>
		<station_cd>1131310</station_cd>
		<station_g_cd>1130208</station_g_cd>
		<station_name>新宿</station_name>
		<lon>139.700464</lon>
		<lat>35.689729</lat>
	</station>
	<station>
		<station_cd>1131311</station_cd>
		<station_g_cd>1130207</station_g_cd>
		<station_name>代々木</station_name>
		<lon>139.702042</lon>
		<lat>35.683061</lat>
	</station>
	<station>
		<station_cd>1131312</station_cd>
		<station_g_cd>1131312</station_g_cd>
		<station_name>千駄ケ谷</station_name>
		<lon>139.711644</lon>
		<lat>35.681231</lat>
	</station>
	<station>
		<station_cd>1131313</station_cd>
		<station_g_cd>1131313</station_g_cd>
		<station_name>信濃町</station_name>
		<lon>139.720729</lon>
		<lat>35.680031</lat>
	</station>
	<station>
		<station_cd>1131314</station_cd>
		<station_g_cd>1131102</station_g_cd>
		<station_name>四ツ谷</station_name>
		<lon>139.730644</lon>
		<lat>35.686041</lat>
	</station>
	<station>
		<station_cd>1131315</station_cd>
		<station_g_cd>1131315</station_g_cd>
		<station_name>市ケ谷</station_name>
		<lon>139.735583</lon>
		<lat>35.691</lat>
	</station>
	<station>
		<station_cd>1131316</station_cd>
		<station_g_cd>1131316</station_g_cd>
		<station_name>飯田橋</station_name>
		<lon>139.745143</lon>
		<lat>35.701835</lat>
	</station>
	<station>
		<station_cd>1131317</station_cd>
		<station_g_cd>1131317</station_g_cd>
		<station_name>水道橋</station_name>
		<lon>139.754312</lon>
		<lat>35.702039</lat>
	</station>
	<station>
		<station_cd>1131318</station_cd>
		<station_g_cd>1131203</station_g_cd>
		<station_name>御茶ノ水</station_name>
		<lon>139.764955</lon>
		<lat>35.699605</lat>
	</station>
	<station>
		<station_cd>1131319</station_cd>
		<station_g_cd>1130222</station_g_cd>
		<station_name>秋葉原</station_name>
		<lon>139.773288</lon>
		<lat>35.698619</lat>
	</station>
	<station>
		<station_cd>1131320</station_cd>
		<station_g_cd>1131320</station_g_cd>
		<station_name>浅草橋</station_name>
		<lon>139.784427</lon>
		<lat>35.697403</lat>
	</station>
	<station>
		<station_cd>1131321</station_cd>
		<station_g_cd>1131321</station_g_cd>
		<station_name>両国</station_name>
		<lon>139.793334</lon>
		<lat>35.69579</lat>
	</station>
	<station>
		<station_cd>1131322</station_cd>
		<station_g_cd>1131322</station_g_cd>
		<station_name>錦糸町</station_name>
		<lon>139.814136</lon>
		<lat>35.696802</lat>
	</station>
	<station>
		<station_cd>1131323</station_cd>
		<station_g_cd>1131323</station_g_cd>
		<station_name>亀戸</station_name>
		<lon>139.826262</lon>
		<lat>35.697345</lat>
	</station>
	<station>
		<station_cd>1131324</station_cd>
		<station_g_cd>1131324</station_g_cd>
		<station_name>平井</station_name>
		<lon>139.842181</lon>
		<lat>35.70643</lat>
	</station>
	<station>
		<station_cd>1131325</station_cd>
		<station_g_cd>1131325</station_g_cd>
		<station_name>新小岩</station_name>
		<lon>139.857777</lon>
		<lat>35.716903</lat>
	</station>
	<station>
		<station_cd>1131326</station_cd>
		<station_g_cd>1131326</station_g_cd>
		<station_name>小岩</station_name>
		<lon>139.881755</lon>
		<lat>35.733207</lat>
	</station>
	<station>
		<station_cd>1131327</station_cd>
		<station_g_cd>1131327</station_g_cd>
		<station_name>市川</station_name>
		<lon>139.908142</lon>
		<lat>35.728903</lat>
	</station>
	<station>
		<station_cd>1131328</station_cd>
		<station_g_cd>1131328</station_g_cd>
		<station_name>本八幡</station_name>
		<lon>139.92741</lon>
		<lat>35.720898</lat>
	</station>
	<station>
		<station_cd>1131329</station_cd>
		<station_g_cd>1131329</station_g_cd>
		<station_name>下総中山</station_name>
		<lon>139.943092</lon>
		<lat>35.714276</lat>
	</station>
	<station>
		<station_cd>1131330</station_cd>
		<station_g_cd>1130524</station_g_cd>
		<station_name>西船橋</station_name>
		<lon>139.959536</lon>
		<lat>35.707283</lat>
	</station>
	<station>
		<station_cd>1131331</station_cd>
		<station_g_cd>1131331</station_g_cd>
		<station_name>船橋</station_name>
		<lon>139.984707</lon>
		<lat>35.701865</lat>
	</station>
	<station>
		<station_cd>1131332</station_cd>
		<station_g_cd>1131332</station_g_cd>
		<station_name>東船橋</station_name>
		<lon>140.00393</lon>
		<lat>35.699811</lat>
	</station>
	<station>
		<station_cd>1131333</station_cd>
		<station_g_cd>1131333</station_g_cd>
		<station_name>津田沼</station_name>
		<lon>140.020179</lon>
		<lat>35.691367</lat>
	</station>
	<station>
		<station_cd>1131334</station_cd>
		<station_g_cd>1131334</station_g_cd>
		<station_name>幕張本郷</station_name>
		<lon>140.042241</lon>
		<lat>35.672664</lat>
	</station>
	<station>
		<station_cd>1131335</station_cd>
		<station_g_cd>1131335</station_g_cd>
		<station_name>幕張</station_name>
		<lon>140.057899</lon>
		<lat>35.6594</lat>
	</station>
	<station>
		<station_cd>1131336</station_cd>
		<station_g_cd>1131336</station_g_cd>
		<station_name>新検見川</station_name>
		<lon>140.073025</lon>
		<lat>35.65169</lat>
	</station>
	<station>
		<station_cd>1131337</station_cd>
		<station_g_cd>1131337</station_g_cd>
		<station_name>稲毛</station_name>
		<lon>140.09256</lon>
		<lat>35.637264</lat>
	</station>
	<station>
		<station_cd>1131338</station_cd>
		<station_g_cd>1131338</station_g_cd>
		<station_name>西千葉</station_name>
		<lon>140.103337</lon>
		<lat>35.622639</lat>
	</station>
	<station>
		<station_cd>1131339</station_cd>
		<station_g_cd>1131339</station_g_cd>
		<station_name>千葉</station_name>
		<lon>140.112837</lon>
		<lat>35.613425</lat>
	</station>
</ekidata>
