
if(typeof(xml)=='undefined') xml = {};
xml.data = {"line_cd":11312,"line_name":"JR中央線(快速)","line_lon":139.53798847266,"line_lat":35.700170421149,"line_zoom":10,"station_l":[{"station_cd":1131201,"station_g_cd":1130101,"station_name":"東京","lon":139.766103,"lat":35.681391},{"station_cd":1131202,"station_g_cd":1130223,"station_name":"神田","lon":139.770641,"lat":35.691173},{"station_cd":1131203,"station_g_cd":1131203,"station_name":"御茶ノ水","lon":139.764955,"lat":35.699605},{"station_cd":1131207,"station_g_cd":1131102,"station_name":"四ツ谷","lon":139.730644,"lat":35.686041},{"station_cd":1131211,"station_g_cd":1130208,"station_name":"新宿","lon":139.700464,"lat":35.689729},{"station_cd":1131214,"station_g_cd":1131214,"station_name":"中野","lon":139.665835,"lat":35.705765},{"station_cd":1131215,"station_g_cd":1131215,"station_name":"高円寺","lon":139.649664,"lat":35.705326},{"station_cd":1131216,"station_g_cd":1131216,"station_name":"阿佐ケ谷","lon":139.635868,"lat":35.704818},{"station_cd":1131217,"station_g_cd":1131217,"station_name":"荻窪","lon":139.620109,"lat":35.704523},{"station_cd":1131218,"station_g_cd":1131218,"station_name":"西荻窪","lon":139.599361,"lat":35.703842},{"station_cd":1131219,"station_g_cd":1131104,"station_name":"吉祥寺","lon":139.579765,"lat":35.703119},{"station_cd":1131220,"station_g_cd":1131105,"station_name":"三鷹","lon":139.560325,"lat":35.702683},{"station_cd":1131221,"station_g_cd":1131221,"station_name":"武蔵境","lon":139.543402,"lat":35.702083},{"station_cd":1131222,"station_g_cd":1131222,"station_name":"東小金井","lon":139.524837,"lat":35.701643},{"station_cd":1131223,"station_g_cd":1131223,"station_name":"武蔵小金井","lon":139.506483,"lat":35.701337},{"station_cd":1131224,"station_g_cd":1131106,"station_name":"国分寺","lon":139.480841,"lat":35.700123},{"station_cd":1131225,"station_g_cd":1130503,"station_name":"西国分寺","lon":139.465994,"lat":35.699744},{"station_cd":1131226,"station_g_cd":1131226,"station_name":"国立","lon":139.44634,"lat":35.69923},{"station_cd":1131227,"station_g_cd":1130325,"station_name":"立川","lon":139.413704,"lat":35.698202},{"station_cd":1131228,"station_g_cd":1131108,"station_name":"日野","lon":139.39393,"lat":35.679244},{"station_cd":1131229,"station_g_cd":1131109,"station_name":"豊田","lon":139.381495,"lat":35.659502},{"station_cd":1131230,"station_g_cd":1130620,"station_name":"八王子","lon":139.338998,"lat":35.655555},{"station_cd":1131231,"station_g_cd":1131111,"station_name":"西八王子","lon":139.31264,"lat":35.656621},{"station_cd":1131232,"station_g_cd":1131112,"station_name":"高尾","lon":139.282288,"lat":35.642026}]}
if(typeof(xml.onload)=='function') xml.onload(xml.data);
