
if(typeof(xml)=='undefined') xml = {};
xml.data = {"line_cd":11320,"line_name":"JR常磐線(上野～取手)","line_lon":139.92381250144,"line_lat":35.819719327369,"line_zoom":11,"station_l":[{"station_cd":1132001,"station_g_cd":1130220,"station_name":"上野","lon":139.777043,"lat":35.71379},{"station_cd":1132002,"station_g_cd":1130218,"station_name":"日暮里","lon":139.771287,"lat":35.727908},{"station_cd":1132003,"station_g_cd":1132003,"station_name":"三河島","lon":139.777131,"lat":35.733383},{"station_cd":1132004,"station_g_cd":1132004,"station_name":"南千住","lon":139.7994,"lat":35.734033},{"station_cd":1132005,"station_g_cd":1132005,"station_name":"北千住","lon":139.804872,"lat":35.749677},{"station_cd":1132006,"station_g_cd":1132006,"station_name":"綾瀬","lon":139.825019,"lat":35.762222},{"station_cd":1132007,"station_g_cd":1132007,"station_name":"亀有","lon":139.847573,"lat":35.766527},{"station_cd":1132008,"station_g_cd":1132008,"station_name":"金町","lon":139.870482,"lat":35.769582},{"station_cd":1132009,"station_g_cd":1132009,"station_name":"松戸","lon":139.900779,"lat":35.784472},{"station_cd":1132010,"station_g_cd":1132010,"station_name":"北松戸","lon":139.911528,"lat":35.800459},{"station_cd":1132011,"station_g_cd":1132011,"station_name":"馬橋","lon":139.917305,"lat":35.811682},{"station_cd":1132012,"station_g_cd":1130519,"station_name":"新松戸","lon":139.921076,"lat":35.825467},{"station_cd":1132013,"station_g_cd":1132013,"station_name":"北小金","lon":139.931303,"lat":35.833436},{"station_cd":1132014,"station_g_cd":1132014,"station_name":"南柏","lon":139.954111,"lat":35.844655},{"station_cd":1132015,"station_g_cd":1132015,"station_name":"柏","lon":139.971148,"lat":35.862316},{"station_cd":1132016,"station_g_cd":1132016,"station_name":"北柏","lon":139.988035,"lat":35.875623},{"station_cd":1132017,"station_g_cd":1132017,"station_name":"我孫子","lon":140.010466,"lat":35.87279},{"station_cd":1132018,"station_g_cd":1132018,"station_name":"天王台","lon":140.04121,"lat":35.872558},{"station_cd":1132019,"station_g_cd":1122901,"station_name":"取手","lon":140.063004,"lat":35.89553}]}
if(typeof(xml.onload)=='function') xml.onload(xml.data);
