
if(typeof(xml)=='undefined') xml = {};
xml.data = {"line_cd":11326,"line_name":"JR京葉線","line_lon":139.93611002908,"line_lat":35.643649620089,"line_zoom":11,"station_l":[{"station_cd":1132601,"station_g_cd":1130101,"station_name":"東京","lon":139.766103,"lat":35.681391},{"station_cd":1132602,"station_g_cd":1132602,"station_name":"八丁堀","lon":139.777705,"lat":35.674617},{"station_cd":1132603,"station_g_cd":1132603,"station_name":"越中島","lon":139.792713,"lat":35.667946},{"station_cd":1132604,"station_g_cd":1132604,"station_name":"潮見","lon":139.817341,"lat":35.658702},{"station_cd":1132605,"station_g_cd":1132605,"station_name":"新木場","lon":139.827402,"lat":35.646172},{"station_cd":1132606,"station_g_cd":1132606,"station_name":"葛西臨海公園","lon":139.861529,"lat":35.644392},{"station_cd":1132607,"station_g_cd":1132607,"station_name":"舞浜","lon":139.883714,"lat":35.636115},{"station_cd":1132608,"station_g_cd":1132608,"station_name":"新浦安","lon":139.912553,"lat":35.649526},{"station_cd":1132609,"station_g_cd":1132609,"station_name":"市川塩浜","lon":139.923684,"lat":35.666554},{"station_cd":1132610,"station_g_cd":1130524,"station_name":"西船橋","lon":139.959536,"lat":35.707283},{"station_cd":1132611,"station_g_cd":1132611,"station_name":"二俣新町","lon":139.959525,"lat":35.691273},{"station_cd":1132612,"station_g_cd":1132612,"station_name":"南船橋","lon":139.995773,"lat":35.681804},{"station_cd":1132613,"station_g_cd":1132613,"station_name":"新習志野","lon":140.012825,"lat":35.667342},{"station_cd":1132614,"station_g_cd":1132614,"station_name":"海浜幕張","lon":140.041917,"lat":35.648373},{"station_cd":1132615,"station_g_cd":1132615,"station_name":"検見川浜","lon":140.058888,"lat":35.637291},{"station_cd":1132616,"station_g_cd":1132616,"station_name":"稲毛海岸","lon":140.074034,"lat":35.629501},{"station_cd":1132617,"station_g_cd":1132617,"station_name":"千葉みなと","lon":140.10341,"lat":35.606172},{"station_cd":1132618,"station_g_cd":1132403,"station_name":"蘇我","lon":140.130767,"lat":35.582065}]}
if(typeof(xml.onload)=='function') xml.onload(xml.data);
