<?xml version="1.0" encoding="UTF-8"?>
<ekidata version="ekidata.jp line api 1.0">
	<line>
		<line_cd>11320</line_cd>
		<line_name>JR常磐線(上野～取手)</line_name>
		<line_lon>139.92381250144</line_lon>
		<line_lat>35.819719327369</line_lat>
		<line_zoom>11</line_zoom>
	</line>
	<station>
		<station_cd>1132001</station_cd>
		<station_g_cd>1130220</station_g_cd>
		<station_name>上野</station_name>
		<lon>139.777043</lon>
		<lat>35.71379</lat>
	</station>
	<station>
		<station_cd>1132002</station_cd>
		<station_g_cd>1130218</station_g_cd>
		<station_name>日暮里</station_name>
		<lon>139.771287</lon>
		<lat>35.727908</lat>
	</station>
	<station>
		<station_cd>1132003</station_cd>
		<station_g_cd>1132003</station_g_cd>
		<station_name>三河島</station_name>
		<lon>139.777131</lon>
		<lat>35.733383</lat>
	</station>
	<station>
		<station_cd>1132004</station_cd>
		<station_g_cd>1132004</station_g_cd>
		<station_name>南千住</station_name>
		<lon>139.7994</lon>
		<lat>35.734033</lat>
	</station>
	<station>
		<station_cd>1132005</station_cd>
		<station_g_cd>1132005</station_g_cd>
		<station_name>北千住</station_name>
		<lon>139.804872</lon>
		<lat>35.749677</lat>
	</station>
	<station>
		<station_cd>1132006</station_cd>
		<station_g_cd>1132006</station_g_cd>
		<station_name>綾瀬</station_name>
		<lon>139.825019</lon>
		<lat>35.762222</lat>
	</station>
	<station>
		<station_cd>1132007</station_cd>
		<station_g_cd>1132007</station_g_cd>
		<station_name>亀有</station_name>
		<lon>139.847573</lon>
		<lat>35.766527</lat>
	</station>
	<station>
		<station_cd>1132008</station_cd>
		<station_g_cd>1132008</station_g_cd>
		<station_name>金町</station_name>
		<lon>139.870482</lon>
		<lat>35.769582</lat>
	</station>
	<station>
		<station_cd>1132009</station_cd>
		<station_g_cd>1132009</station_g_cd>
		<station_name>松戸</station_name>
		<lon>139.900779</lon>
		<lat>35.784472</lat>
	</station>
	<station>
		<station_cd>1132010</station_cd>
		<station_g_cd>1132010</station_g_cd>
		<station_name>北松戸</station_name>
		<lon>139.911528</lon>
		<lat>35.800459</lat>
	</station>
	<station>
		<station_cd>1132011</station_cd>
		<station_g_cd>1132011</station_g_cd>
		<station_name>馬橋</station_name>
		<lon>139.917305</lon>
		<lat>35.811682</lat>
	</station>
	<station>
		<station_cd>1132012</station_cd>
		<station_g_cd>1130519</station_g_cd>
		<station_name>新松戸</station_name>
		<lon>139.921076</lon>
		<lat>35.825467</lat>
	</station>
	<station>
		<station_cd>1132013</station_cd>
		<station_g_cd>1132013</station_g_cd>
		<station_name>北小金</station_name>
		<lon>139.931303</lon>
		<lat>35.833436</lat>
	</station>
	<station>
		<station_cd>1132014</station_cd>
		<station_g_cd>1132014</station_g_cd>
		<station_name>南柏</station_name>
		<lon>139.954111</lon>
		<lat>35.844655</lat>
	</station>
	<station>
		<station_cd>1132015</station_cd>
		<station_g_cd>1132015</station_g_cd>
		<station_name>柏</station_name>
		<lon>139.971148</lon>
		<lat>35.862316</lat>
	</station>
	<station>
		<station_cd>1132016</station_cd>
		<station_g_cd>1132016</station_g_cd>
		<station_name>北柏</station_name>
		<lon>139.988035</lon>
		<lat>35.875623</lat>
	</station>
	<station>
		<station_cd>1132017</station_cd>
		<station_g_cd>1132017</station_g_cd>
		<station_name>我孫子</station_name>
		<lon>140.010466</lon>
		<lat>35.87279</lat>
	</station>
	<station>
		<station_cd>1132018</station_cd>
		<station_g_cd>1132018</station_g_cd>
		<station_name>天王台</station_name>
		<lon>140.04121</lon>
		<lat>35.872558</lat>
	</station>
	<station>
		<station_cd>1132019</station_cd>
		<station_g_cd>1122901</station_g_cd>
		<station_name>取手</station_name>
		<lon>140.063004</lon>
		<lat>35.89553</lat>
	</station>
</ekidata>
