<?xml version="1.0" encoding="UTF-8"?>
<ekidata version="ekidata.jp line api 1.0">
	<line>
		<line_cd>11334</line_cd>
		<line_name>JR烏山線</line_name>
		<line_lon>140.06497854492</line_lon>
		<line_lat>36.65874003351</line_lat>
		<line_zoom>12</line_zoom>
	</line>
	<station>
		<station_cd>1133401</station_cd>
		<station_g_cd>1131925</station_g_cd>
		<station_name>宝積寺</station_name>
		<lon>139.979487</lon>
		<lat>36.631703</lat>
	</station>
	<station>
		<station_cd>1133402</station_cd>
		<station_g_cd>1133402</station_g_cd>
		<station_name>下野花岡</station_name>
		<lon>140.008606</lon>
		<lat>36.649965</lat>
	</station>
	<station>
		<station_cd>1133403</station_cd>
		<station_g_cd>1133403</station_g_cd>
		<station_name>仁井田</station_name>
		<lon>140.029573</lon>
		<lat>36.657271</lat>
	</station>
	<station>
		<station_cd>1133404</station_cd>
		<station_g_cd>1133404</station_g_cd>
		<station_name>鴻野山</station_name>
		<lon>140.051656</lon>
		<lat>36.666495</lat>
	</station>
	<station>
		<station_cd>1133405</station_cd>
		<station_g_cd>1133405</station_g_cd>
		<station_name>大金</station_name>
		<lon>140.095656</lon>
		<lat>36.656275</lat>
	</station>
	<station>
		<station_cd>1133406</station_cd>
		<station_g_cd>1133406</station_g_cd>
		<station_name>小塙</station_name>
		<lon>140.11656</lon>
		<lat>36.643095</lat>
	</station>
	<station>
		<station_cd>1133407</station_cd>
		<station_g_cd>1133407</station_g_cd>
		<station_name>滝</station_name>
		<lon>140.138152</lon>
		<lat>36.648558</lat>
	</station>
	<station>
		<station_cd>1133408</station_cd>
		<station_g_cd>1133408</station_g_cd>
		<station_name>烏山</station_name>
		<lon>140.15507</lon>
		<lat>36.650455</lat>
	</station>
</ekidata>
