
if(typeof(xml)=='undefined') xml = {};
xml.data = {"line_cd":11409,"line_name":"北アルプス線","line_lon":137.87350871689,"line_lat":36.676127873254,"line_zoom":9,"station_l":[{"station_cd":1140901,"station_g_cd":1140901,"station_name":"松本","lon":137.96445,"lat":36.230393},{"station_cd":1140902,"station_g_cd":1140902,"station_name":"北松本","lon":137.960983,"lat":36.236971},{"station_cd":1140903,"station_g_cd":1140903,"station_name":"島内","lon":137.944817,"lat":36.246991},{"station_cd":1140904,"station_g_cd":1140904,"station_name":"島高松","lon":137.931576,"lat":36.246322},{"station_cd":1140905,"station_g_cd":1140905,"station_name":"梓橋","lon":137.918027,"lat":36.250162},{"station_cd":1140906,"station_g_cd":1140906,"station_name":"一日市場","lon":137.904136,"lat":36.2596},{"station_cd":1140907,"station_g_cd":1140907,"station_name":"中萱","lon":137.903353,"lat":36.273434},{"station_cd":1140908,"station_g_cd":1140908,"station_name":"南豊科","lon":137.903457,"lat":36.291124},{"station_cd":1140909,"station_g_cd":1140909,"station_name":"豊科","lon":137.900896,"lat":36.299957},{"station_cd":1140910,"station_g_cd":1140910,"station_name":"柏矢町","lon":137.888349,"lat":36.322529},{"station_cd":1140911,"station_g_cd":1140911,"station_name":"穂高","lon":137.881869,"lat":36.33906},{"station_cd":1140912,"station_g_cd":1140912,"station_name":"有明","lon":137.878236,"lat":36.359949},{"station_cd":1140913,"station_g_cd":1140913,"station_name":"安曇追分","lon":137.872736,"lat":36.371795},{"station_cd":1140914,"station_g_cd":1140914,"station_name":"細野","lon":137.865722,"lat":36.397107},{"station_cd":1140915,"station_g_cd":1140915,"station_name":"北細野","lon":137.862725,"lat":36.406439},{"station_cd":1140916,"station_g_cd":1140916,"station_name":"信濃松川","lon":137.858631,"lat":36.424456},{"station_cd":1140917,"station_g_cd":1140917,"station_name":"安曇沓掛","lon":137.854784,"lat":36.447795},{"station_cd":1140918,"station_g_cd":1140918,"station_name":"信濃常盤","lon":137.847148,"lat":36.467403},{"station_cd":1140919,"station_g_cd":1140919,"station_name":"南大町","lon":137.856269,"lat":36.491536},{"station_cd":1140920,"station_g_cd":1140920,"station_name":"信濃大町","lon":137.861674,"lat":36.50031},{"station_cd":1140921,"station_g_cd":1140921,"station_name":"北大町","lon":137.857913,"lat":36.517558},{"station_cd":1140922,"station_g_cd":1140922,"station_name":"信濃木崎","lon":137.846189,"lat":36.535643},{"station_cd":1140923,"station_g_cd":1140923,"station_name":"稲尾","lon":137.842575,"lat":36.554058},{"station_cd":1140924,"station_g_cd":1140924,"station_name":"海ノ口","lon":137.841824,"lat":36.565652},{"station_cd":1140925,"station_g_cd":1140925,"station_name":"簗場","lon":137.844724,"lat":36.594666},{"station_cd":1140927,"station_g_cd":1140927,"station_name":"南神城","lon":137.841551,"lat":36.637105},{"station_cd":1140928,"station_g_cd":1140928,"station_name":"神城","lon":137.846586,"lat":36.658287},{"station_cd":1140929,"station_g_cd":1140929,"station_name":"飯森","lon":137.85006,"lat":36.670563},{"station_cd":1140930,"station_g_cd":1140930,"station_name":"白馬","lon":137.863819,"lat":36.695922},{"station_cd":1140931,"station_g_cd":1140931,"station_name":"信濃森上","lon":137.871991,"lat":36.711132},{"station_cd":1140932,"station_g_cd":1140932,"station_name":"白馬大池","lon":137.885531,"lat":36.739918},{"station_cd":1140933,"station_g_cd":1140933,"station_name":"千国","lon":137.900895,"lat":36.763249},{"station_cd":1140934,"station_g_cd":1140934,"station_name":"南小谷","lon":137.908372,"lat":36.774604},{"station_cd":1140935,"station_g_cd":1140935,"station_name":"中土","lon":137.907879,"lat":36.80558},{"station_cd":1140936,"station_g_cd":1140936,"station_name":"北小谷","lon":137.906451,"lat":36.842567},{"station_cd":1140937,"station_g_cd":1140937,"station_name":"平岩","lon":137.86561,"lat":36.88688},{"station_cd":1140938,"station_g_cd":1140938,"station_name":"小滝","lon":137.85945,"lat":36.938155},{"station_cd":1140939,"station_g_cd":1140939,"station_name":"根知","lon":137.86711,"lat":36.966683},{"station_cd":1140940,"station_g_cd":1140940,"station_name":"頸城大野","lon":137.872447,"lat":37.006124},{"station_cd":1140941,"station_g_cd":1140941,"station_name":"姫川","lon":137.860914,"lat":37.020339},{"station_cd":1140942,"station_g_cd":1140516,"station_name":"糸魚川","lon":137.861311,"lat":37.043631}]}
if(typeof(xml.onload)=='function') xml.onload(xml.data);
