
if(typeof(xml)=='undefined') xml = {};
xml.data = {"line_cd":11505,"line_name":"JR御殿場線","line_lon":139.03314251229,"line_lat":35.222460768209,"line_zoom":11,"station_l":[{"station_cd":1150501,"station_g_cd":1130114,"station_name":"国府津","lon":139.212932,"lat":35.280832},{"station_cd":1150502,"station_g_cd":1150502,"station_name":"下曽我","lon":139.183395,"lat":35.303554},{"station_cd":1150503,"station_g_cd":1150503,"station_name":"上大井","lon":139.163508,"lat":35.321883},{"station_cd":1150504,"station_g_cd":1150504,"station_name":"相模金子","lon":139.150753,"lat":35.33364},{"station_cd":1150505,"station_g_cd":1150505,"station_name":"松田","lon":139.137417,"lat":35.346843},{"station_cd":1150506,"station_g_cd":1150506,"station_name":"東山北","lon":139.10765,"lat":35.357637},{"station_cd":1150507,"station_g_cd":1150507,"station_name":"山北","lon":139.080212,"lat":35.360808},{"station_cd":1150508,"station_g_cd":1150508,"station_name":"谷峨","lon":139.038234,"lat":35.366561},{"station_cd":1150509,"station_g_cd":1150509,"station_name":"駿河小山","lon":138.997689,"lat":35.359113},{"station_cd":1150510,"station_g_cd":1150510,"station_name":"足柄","lon":138.981687,"lat":35.332233},{"station_cd":1150511,"station_g_cd":1150511,"station_name":"御殿場","lon":138.93424,"lat":35.299933},{"station_cd":1150512,"station_g_cd":1150512,"station_name":"南御殿場","lon":138.925789,"lat":35.277269},{"station_cd":1150513,"station_g_cd":1150513,"station_name":"富士岡","lon":138.920504,"lat":35.257299},{"station_cd":1150514,"station_g_cd":1150514,"station_name":"岩波","lon":138.919296,"lat":35.21498},{"station_cd":1150515,"station_g_cd":1150515,"station_name":"裾野","lon":138.909293,"lat":35.171372},{"station_cd":1150516,"station_g_cd":1150516,"station_name":"長泉なめり","lon":138.899364,"lat":35.147633},{"station_cd":1150517,"station_g_cd":1150517,"station_name":"下土狩","lon":138.895126,"lat":35.128379},{"station_cd":1150518,"station_g_cd":1150518,"station_name":"大岡","lon":138.881988,"lat":35.116158},{"station_cd":1150519,"station_g_cd":1150104,"station_name":"沼津","lon":138.860104,"lat":35.103011}]}
if(typeof(xml.onload)=='function') xml.onload(xml.data);
