
if(typeof(xml)=='undefined') xml = {};
xml.data = {"line_cd":11512,"line_name":"JR参宮線","line_lon":136.69878007156,"line_lat":34.495826004111,"line_zoom":11,"station_l":[{"station_cd":1151201,"station_g_cd":1151010,"station_name":"多気","lon":136.572777,"lat":34.516318},{"station_cd":1151202,"station_g_cd":1151202,"station_name":"外城田","lon":136.596997,"lat":34.497641},{"station_cd":1151203,"station_g_cd":1151203,"station_name":"田丸","lon":136.63402,"lat":34.488543},{"station_cd":1151204,"station_g_cd":1151204,"station_name":"宮川","lon":136.672506,"lat":34.503252},{"station_cd":1151205,"station_g_cd":1151205,"station_name":"山田上口","lon":136.694246,"lat":34.49581},{"station_cd":1151206,"station_g_cd":1151206,"station_name":"伊勢市","lon":136.709661,"lat":34.49126},{"station_cd":1151207,"station_g_cd":1151207,"station_name":"五十鈴ケ丘","lon":136.739797,"lat":34.495884},{"station_cd":1151208,"station_g_cd":1151208,"station_name":"二見浦","lon":136.77713,"lat":34.503753},{"station_cd":1151209,"station_g_cd":1151209,"station_name":"松下","lon":136.799134,"lat":34.496201},{"station_cd":1151211,"station_g_cd":1151211,"station_name":"鳥羽","lon":136.84279,"lat":34.486516}]}
if(typeof(xml.onload)=='function') xml.onload(xml.data);
