<?xml version="1.0" encoding="UTF-8"?>
<ekidata version="ekidata.jp line api 1.0">
	<line>
		<line_cd>11623</line_cd>
		<line_name>大阪環状線</line_name>
		<line_lon>135.50218918655</line_lon>
		<line_lat>34.681541431156</line_lat>
		<line_zoom>13</line_zoom>
	</line>
	<station>
		<station_cd>1162301</station_cd>
		<station_g_cd>1160719</station_g_cd>
		<station_name>天王寺</station_name>
		<lon>135.514124</lon>
		<lat>34.647243</lat>
	</station>
	<station>
		<station_cd>1162302</station_cd>
		<station_g_cd>1160720</station_g_cd>
		<station_name>新今宮</station_name>
		<lon>135.501076</lon>
		<lat>34.650149</lat>
	</station>
	<station>
		<station_cd>1162303</station_cd>
		<station_g_cd>1160721</station_g_cd>
		<station_name>今宮</station_name>
		<lon>135.492975</lon>
		<lat>34.654156</lat>
	</station>
	<station>
		<station_cd>1162304</station_cd>
		<station_g_cd>1162304</station_g_cd>
		<station_name>芦原橋</station_name>
		<lon>135.48924</lon>
		<lat>34.658608</lat>
	</station>
	<station>
		<station_cd>1162305</station_cd>
		<station_g_cd>1162305</station_g_cd>
		<station_name>大正</station_name>
		<lon>135.479932</lon>
		<lat>34.665582</lat>
	</station>
	<station>
		<station_cd>1162306</station_cd>
		<station_g_cd>1162306</station_g_cd>
		<station_name>弁天町</station_name>
		<lon>135.462348</lon>
		<lat>34.669403</lat>
	</station>
	<station>
		<station_cd>1162307</station_cd>
		<station_g_cd>1162307</station_g_cd>
		<station_name>西九条</station_name>
		<lon>135.466779</lon>
		<lat>34.68269</lat>
	</station>
	<station>
		<station_cd>1162308</station_cd>
		<station_g_cd>1162308</station_g_cd>
		<station_name>野田</station_name>
		<lon>135.474837</lon>
		<lat>34.689069</lat>
	</station>
	<station>
		<station_cd>1162309</station_cd>
		<station_g_cd>1162309</station_g_cd>
		<station_name>福島</station_name>
		<lon>135.486563</lon>
		<lat>34.697167</lat>
	</station>
	<station>
		<station_cd>1162310</station_cd>
		<station_g_cd>1160214</station_g_cd>
		<station_name>大阪</station_name>
		<lon>135.495188</lon>
		<lat>34.702398</lat>
	</station>
	<station>
		<station_cd>1162311</station_cd>
		<station_g_cd>1162311</station_g_cd>
		<station_name>天満</station_name>
		<lon>135.512233</lon>
		<lat>34.704923</lat>
	</station>
	<station>
		<station_cd>1162312</station_cd>
		<station_g_cd>1162312</station_g_cd>
		<station_name>桜ノ宮</station_name>
		<lon>135.520944</lon>
		<lat>34.704976</lat>
	</station>
	<station>
		<station_cd>1162313</station_cd>
		<station_g_cd>1161724</station_g_cd>
		<station_name>京橋</station_name>
		<lon>135.534253</lon>
		<lat>34.696047</lat>
	</station>
	<station>
		<station_cd>1162314</station_cd>
		<station_g_cd>1162314</station_g_cd>
		<station_name>大阪城公園</station_name>
		<lon>135.534482</lon>
		<lat>34.68858</lat>
	</station>
	<station>
		<station_cd>1162315</station_cd>
		<station_g_cd>1162315</station_g_cd>
		<station_name>森ノ宮</station_name>
		<lon>135.533996</lon>
		<lat>34.680412</lat>
	</station>
	<station>
		<station_cd>1162316</station_cd>
		<station_g_cd>1162316</station_g_cd>
		<station_name>玉造</station_name>
		<lon>135.532901</lon>
		<lat>34.673559</lat>
	</station>
	<station>
		<station_cd>1162317</station_cd>
		<station_g_cd>1162317</station_g_cd>
		<station_name>鶴橋</station_name>
		<lon>135.530133</lon>
		<lat>34.665264</lat>
	</station>
	<station>
		<station_cd>1162318</station_cd>
		<station_g_cd>1162318</station_g_cd>
		<station_name>桃谷</station_name>
		<lon>135.527908</lon>
		<lat>34.658453</lat>
	</station>
	<station>
		<station_cd>1162319</station_cd>
		<station_g_cd>1162319</station_g_cd>
		<station_name>寺田町</station_name>
		<lon>135.523437</lon>
		<lat>34.647957</lat>
	</station>
</ekidata>
