
if(typeof(xml)=='undefined') xml = {};
xml.data = {"line_cd":11641,"line_name":"おおさか東線","line_lon":135.57427154499,"line_lat":34.656967906507,"line_zoom":13,"station_l":[{"station_cd":1164109,"station_g_cd":1160213,"station_name":"新大阪","lon":135.500109,"lat":34.73348},{"station_cd":1164110,"station_g_cd":1164110,"station_name":"南吹田","lon":135.51125,"lat":34.749444},{"station_cd":1164111,"station_g_cd":3400322,"station_name":"JR淡路","lon":135.519861,"lat":34.740694},{"station_cd":1164112,"station_g_cd":1164112,"station_name":"城北公園通","lon":135.530694,"lat":34.723472},{"station_cd":1164113,"station_g_cd":3300136,"station_name":"JR野江","lon":135.541389,"lat":34.706944},{"station_cd":1164114,"station_g_cd":1161723,"station_name":"鴫野","lon":135.544995,"lat":34.692769},{"station_cd":1164101,"station_g_cd":1161722,"station_name":"放出","lon":135.563296,"lat":34.688103},{"station_cd":1164102,"station_g_cd":1164102,"station_name":"高井田中央","lon":135.572362,"lat":34.678764},{"station_cd":1164103,"station_g_cd":1164103,"station_name":"ＪＲ河内永和","lon":135.572255,"lat":34.664717},{"station_cd":1164104,"station_g_cd":1164104,"station_name":"ＪＲ俊徳道","lon":135.572421,"lat":34.658372},{"station_cd":1164105,"station_g_cd":1164105,"station_name":"ＪＲ長瀬","lon":135.570168,"lat":34.649516},{"station_cd":1164108,"station_g_cd":1164108,"station_name":"衣摺加美北","lon":135.567028,"lat":34.638333},{"station_cd":1164106,"station_g_cd":1160716,"station_name":"新加美","lon":135.568588,"lat":34.626861},{"station_cd":1164107,"station_g_cd":1160715,"station_name":"久宝寺","lon":135.583988,"lat":34.622558}]}
if(typeof(xml.onload)=='function') xml.onload(xml.data);
