<?xml version="1.0" encoding="UTF-8"?>
<ekidata version="ekidata.jp line api 1.0">
	<line>
		<line_cd>11804</line_cd>
		<line_name>JR牟岐線</line_name>
		<line_lon>134.50842286055</line_lon>
		<line_lat>33.839964753817</line_lat>
		<line_zoom>10</line_zoom>
	</line>
	<station>
		<station_cd>1180401</station_cd>
		<station_g_cd>1180229</station_g_cd>
		<station_name>徳島</station_name>
		<lon>134.551391</lon>
		<lat>34.074572</lat>
	</station>
	<station>
		<station_cd>1180402</station_cd>
		<station_g_cd>1180402</station_g_cd>
		<station_name>阿波富田</station_name>
		<lon>134.555658</lon>
		<lat>34.064051</lat>
	</station>
	<station>
		<station_cd>1180403</station_cd>
		<station_g_cd>1180403</station_g_cd>
		<station_name>二軒屋</station_name>
		<lon>134.546847</lon>
		<lat>34.054952</lat>
	</station>
	<station>
		<station_cd>1180404</station_cd>
		<station_g_cd>1180404</station_g_cd>
		<station_name>文化の森</station_name>
		<lon>134.543312</lon>
		<lat>34.044298</lat>
	</station>
	<station>
		<station_cd>1180405</station_cd>
		<station_g_cd>1180405</station_g_cd>
		<station_name>地蔵橋</station_name>
		<lon>134.54727</lon>
		<lat>34.026444</lat>
	</station>
	<station>
		<station_cd>1180406</station_cd>
		<station_g_cd>1180406</station_g_cd>
		<station_name>中田</station_name>
		<lon>134.569543</lon>
		<lat>34.010319</lat>
	</station>
	<station>
		<station_cd>1180407</station_cd>
		<station_g_cd>1180407</station_g_cd>
		<station_name>南小松島</station_name>
		<lon>134.586994</lon>
		<lat>34.005634</lat>
	</station>
	<station>
		<station_cd>1180408</station_cd>
		<station_g_cd>1180408</station_g_cd>
		<station_name>阿波赤石</station_name>
		<lon>134.60583</lon>
		<lat>33.981729</lat>
	</station>
	<station>
		<station_cd>1180409</station_cd>
		<station_g_cd>1180409</station_g_cd>
		<station_name>立江</station_name>
		<lon>134.608785</lon>
		<lat>33.970336</lat>
	</station>
	<station>
		<station_cd>1180410</station_cd>
		<station_g_cd>1180410</station_g_cd>
		<station_name>羽ノ浦</station_name>
		<lon>134.626183</lon>
		<lat>33.957293</lat>
	</station>
	<station>
		<station_cd>1180411</station_cd>
		<station_g_cd>1180411</station_g_cd>
		<station_name>西原</station_name>
		<lon>134.644906</lon>
		<lat>33.9483</lat>
	</station>
	<station>
		<station_cd>1180412</station_cd>
		<station_g_cd>1180412</station_g_cd>
		<station_name>阿波中島</station_name>
		<lon>134.664834</lon>
		<lat>33.941223</lat>
	</station>
	<station>
		<station_cd>1180413</station_cd>
		<station_g_cd>1180413</station_g_cd>
		<station_name>阿南</station_name>
		<lon>134.66229</lon>
		<lat>33.919129</lat>
	</station>
	<station>
		<station_cd>1180414</station_cd>
		<station_g_cd>1180414</station_g_cd>
		<station_name>見能林</station_name>
		<lon>134.667015</lon>
		<lat>33.902984</lat>
	</station>
	<station>
		<station_cd>1180415</station_cd>
		<station_g_cd>1180415</station_g_cd>
		<station_name>阿波橘</station_name>
		<lon>134.651281</lon>
		<lat>33.888472</lat>
	</station>
	<station>
		<station_cd>1180416</station_cd>
		<station_g_cd>1180416</station_g_cd>
		<station_name>桑野</station_name>
		<lon>134.613287</lon>
		<lat>33.87466</lat>
	</station>
	<station>
		<station_cd>1180417</station_cd>
		<station_g_cd>1180417</station_g_cd>
		<station_name>新野</station_name>
		<lon>134.600283</lon>
		<lat>33.846813</lat>
	</station>
	<station>
		<station_cd>1180418</station_cd>
		<station_g_cd>1180418</station_g_cd>
		<station_name>阿波福井</station_name>
		<lon>134.605272</lon>
		<lat>33.824074</lat>
	</station>
	<station>
		<station_cd>1180419</station_cd>
		<station_g_cd>1180419</station_g_cd>
		<station_name>由岐</station_name>
		<lon>134.591857</lon>
		<lat>33.776032</lat>
	</station>
	<station>
		<station_cd>1180420</station_cd>
		<station_g_cd>1180420</station_g_cd>
		<station_name>田井ノ浜</station_name>
		<lon>134.584127</lon>
		<lat>33.772863</lat>
	</station>
	<station>
		<station_cd>1180421</station_cd>
		<station_g_cd>1180421</station_g_cd>
		<station_name>木岐</station_name>
		<lon>134.569473</lon>
		<lat>33.766616</lat>
	</station>
	<station>
		<station_cd>1180422</station_cd>
		<station_g_cd>1180422</station_g_cd>
		<station_name>北河内</station_name>
		<lon>134.53528</lon>
		<lat>33.743286</lat>
	</station>
	<station>
		<station_cd>1180423</station_cd>
		<station_g_cd>1180423</station_g_cd>
		<station_name>日和佐</station_name>
		<lon>134.530603</lon>
		<lat>33.728954</lat>
	</station>
	<station>
		<station_cd>1180424</station_cd>
		<station_g_cd>1180424</station_g_cd>
		<station_name>山河内</station_name>
		<lon>134.485273</lon>
		<lat>33.715139</lat>
	</station>
	<station>
		<station_cd>1180425</station_cd>
		<station_g_cd>1180425</station_g_cd>
		<station_name>辺川</station_name>
		<lon>134.434874</lon>
		<lat>33.694711</lat>
	</station>
	<station>
		<station_cd>1180426</station_cd>
		<station_g_cd>1180426</station_g_cd>
		<station_name>牟岐</station_name>
		<lon>134.418192</lon>
		<lat>33.672192</lat>
	</station>
	<station>
		<station_cd>1180427</station_cd>
		<station_g_cd>1180427</station_g_cd>
		<station_name>鯖瀬</station_name>
		<lon>134.385308</lon>
		<lat>33.646398</lat>
	</station>
	<station>
		<station_cd>1180428</station_cd>
		<station_g_cd>1180428</station_g_cd>
		<station_name>浅川</station_name>
		<lon>134.358677</lon>
		<lat>33.626665</lat>
	</station>
	<station>
		<station_cd>1180429</station_cd>
		<station_g_cd>1180429</station_g_cd>
		<station_name>阿波海南</station_name>
		<lon>134.350805</lon>
		<lat>33.606379</lat>
	</station>
	<station>
		<station_cd>1180430</station_cd>
		<station_g_cd>1180430</station_g_cd>
		<station_name>海部</station_name>
		<lon>134.351999</lon>
		<lat>33.593453</lat>
	</station>
</ekidata>
