
if(typeof(xml)=='undefined') xml = {};
xml.data = {"line_cd":11926,"line_name":"JR肥薩線(吉松～隼人)","line_lon":130.70674646172,"line_lat":31.890984289008,"line_zoom":11,"station_l":[{"station_cd":1192601,"station_g_cd":1192519,"station_name":"吉松","lon":130.738104,"lat":32.012026},{"station_cd":1192602,"station_g_cd":1192602,"station_name":"栗野","lon":130.723663,"lat":31.950575},{"station_cd":1192603,"station_g_cd":1192603,"station_name":"大隅横川","lon":130.702825,"lat":31.906487},{"station_cd":1192604,"station_g_cd":1192604,"station_name":"植村","lon":130.724065,"lat":31.890175},{"station_cd":1192605,"station_g_cd":1192605,"station_name":"霧島温泉","lon":130.734329,"lat":31.86815},{"station_cd":1192606,"station_g_cd":1192606,"station_name":"嘉例川","lon":130.723021,"lat":31.826939},{"station_cd":1192607,"station_g_cd":1192607,"station_name":"中福良","lon":130.733174,"lat":31.813818},{"station_cd":1192608,"station_g_cd":1192608,"station_name":"表木山","lon":130.745324,"lat":31.796176},{"station_cd":1192609,"station_g_cd":1192609,"station_name":"日当山","lon":130.749836,"lat":31.763402},{"station_cd":1192610,"station_g_cd":1190748,"station_name":"隼人","lon":130.740316,"lat":31.743893}]}
if(typeof(xml.onload)=='function') xml.onload(xml.data);
