
if(typeof(xml)=='undefined') xml = {};
xml.data = {"line_cd":22008,"line_name":"西武拝島線","line_lon":139.41313556738,"line_lat":35.732864704761,"line_zoom":12,"station_l":[{"station_cd":2200801,"station_g_cd":2200719,"station_name":"小平","lon":139.488491,"lat":35.736963},{"station_cd":2200802,"station_g_cd":2200802,"station_name":"萩山","lon":139.476903,"lat":35.740759},{"station_cd":2200803,"station_g_cd":2200803,"station_name":"小川","lon":139.463493,"lat":35.737573},{"station_cd":2200804,"station_g_cd":2200804,"station_name":"東大和市","lon":139.434249,"lat":35.732829},{"station_cd":2200805,"station_g_cd":2200805,"station_name":"玉川上水","lon":139.418435,"lat":35.731751},{"station_cd":2200806,"station_g_cd":2200806,"station_name":"武蔵砂川","lon":139.392319,"lat":35.728876},{"station_cd":2200807,"station_g_cd":2200807,"station_name":"西武立川","lon":139.370124,"lat":35.7262},{"station_cd":2200808,"station_g_cd":1131506,"station_name":"拝島","lon":139.343468,"lat":35.721278}]}
if(typeof(xml.onload)=='function') xml.onload(xml.data);
