<?xml version="1.0" encoding="UTF-8"?>
<ekidata version="ekidata.jp line api 1.0">
	<line>
		<line_cd>22007</line_cd>
		<line_name>西武新宿線</line_name>
		<line_lon>139.53086487352</line_lon>
		<line_lat>35.776946871075</line_lat>
		<line_zoom>11</line_zoom>
	</line>
	<station>
		<station_cd>2200701</station_cd>
		<station_g_cd>2200701</station_g_cd>
		<station_name>西武新宿</station_name>
		<lon>139.7</lon>
		<lat>35.696254</lat>
	</station>
	<station>
		<station_cd>2200702</station_cd>
		<station_g_cd>1130210</station_g_cd>
		<station_name>高田馬場</station_name>
		<lon>139.703715</lon>
		<lat>35.712677</lat>
	</station>
	<station>
		<station_cd>2200703</station_cd>
		<station_g_cd>2200703</station_g_cd>
		<station_name>下落合</station_name>
		<lon>139.695391</lon>
		<lat>35.715846</lat>
	</station>
	<station>
		<station_cd>2200704</station_cd>
		<station_g_cd>2200704</station_g_cd>
		<station_name>中井</station_name>
		<lon>139.686967</lon>
		<lat>35.715106</lat>
	</station>
	<station>
		<station_cd>2200705</station_cd>
		<station_g_cd>2200705</station_g_cd>
		<station_name>新井薬師前</station_name>
		<lon>139.672582</lon>
		<lat>35.715778</lat>
	</station>
	<station>
		<station_cd>2200706</station_cd>
		<station_g_cd>2200706</station_g_cd>
		<station_name>沼袋</station_name>
		<lon>139.663841</lon>
		<lat>35.719458</lat>
	</station>
	<station>
		<station_cd>2200707</station_cd>
		<station_g_cd>2200707</station_g_cd>
		<station_name>野方</station_name>
		<lon>139.652733</lon>
		<lat>35.719658</lat>
	</station>
	<station>
		<station_cd>2200708</station_cd>
		<station_g_cd>2200708</station_g_cd>
		<station_name>都立家政</station_name>
		<lon>139.644839</lon>
		<lat>35.722313</lat>
	</station>
	<station>
		<station_cd>2200709</station_cd>
		<station_g_cd>2200709</station_g_cd>
		<station_name>鷺ノ宮</station_name>
		<lon>139.63892</lon>
		<lat>35.722605</lat>
	</station>
	<station>
		<station_cd>2200710</station_cd>
		<station_g_cd>2200710</station_g_cd>
		<station_name>下井草</station_name>
		<lon>139.624688</lon>
		<lat>35.723852</lat>
	</station>
	<station>
		<station_cd>2200711</station_cd>
		<station_g_cd>2200711</station_g_cd>
		<station_name>井荻</station_name>
		<lon>139.615303</lon>
		<lat>35.72469</lat>
	</station>
	<station>
		<station_cd>2200712</station_cd>
		<station_g_cd>2200712</station_g_cd>
		<station_name>上井草</station_name>
		<lon>139.602937</lon>
		<lat>35.725326</lat>
	</station>
	<station>
		<station_cd>2200713</station_cd>
		<station_g_cd>2200713</station_g_cd>
		<station_name>上石神井</station_name>
		<lon>139.592266</lon>
		<lat>35.726189</lat>
	</station>
	<station>
		<station_cd>2200714</station_cd>
		<station_g_cd>2200714</station_g_cd>
		<station_name>武蔵関</station_name>
		<lon>139.576417</lon>
		<lat>35.7276</lat>
	</station>
	<station>
		<station_cd>2200715</station_cd>
		<station_g_cd>2200715</station_g_cd>
		<station_name>東伏見</station_name>
		<lon>139.563529</lon>
		<lat>35.728761</lat>
	</station>
	<station>
		<station_cd>2200716</station_cd>
		<station_g_cd>2200716</station_g_cd>
		<station_name>西武柳沢</station_name>
		<lon>139.552477</lon>
		<lat>35.728621</lat>
	</station>
	<station>
		<station_cd>2200717</station_cd>
		<station_g_cd>2200717</station_g_cd>
		<station_name>田無</station_name>
		<lon>139.539259</lon>
		<lat>35.727307</lat>
	</station>
	<station>
		<station_cd>2200718</station_cd>
		<station_g_cd>2200718</station_g_cd>
		<station_name>花小金井</station_name>
		<lon>139.513228</lon>
		<lat>35.726129</lat>
	</station>
	<station>
		<station_cd>2200719</station_cd>
		<station_g_cd>2200719</station_g_cd>
		<station_name>小平</station_name>
		<lon>139.488491</lon>
		<lat>35.736963</lat>
	</station>
	<station>
		<station_cd>2200720</station_cd>
		<station_g_cd>2200720</station_g_cd>
		<station_name>久米川</station_name>
		<lon>139.472653</lon>
		<lat>35.749575</lat>
	</station>
	<station>
		<station_cd>2200721</station_cd>
		<station_g_cd>2200721</station_g_cd>
		<station_name>東村山</station_name>
		<lon>139.465839</lon>
		<lat>35.76006</lat>
	</station>
	<station>
		<station_cd>2200722</station_cd>
		<station_g_cd>2200131</station_g_cd>
		<station_name>所沢</station_name>
		<lon>139.473324</lon>
		<lat>35.786627</lat>
	</station>
	<station>
		<station_cd>2200723</station_cd>
		<station_g_cd>2200723</station_g_cd>
		<station_name>航空公園</station_name>
		<lon>139.465641</lon>
		<lat>35.798272</lat>
	</station>
	<station>
		<station_cd>2200724</station_cd>
		<station_g_cd>2200724</station_g_cd>
		<station_name>新所沢</station_name>
		<lon>139.457069</lon>
		<lat>35.805854</lat>
	</station>
	<station>
		<station_cd>2200725</station_cd>
		<station_g_cd>2200725</station_g_cd>
		<station_name>入曽</station_name>
		<lon>139.427304</lon>
		<lat>35.832481</lat>
	</station>
	<station>
		<station_cd>2200726</station_cd>
		<station_g_cd>2200726</station_g_cd>
		<station_name>狭山市</station_name>
		<lon>139.413015</lon>
		<lat>35.856936</lat>
	</station>
	<station>
		<station_cd>2200727</station_cd>
		<station_g_cd>2200727</station_g_cd>
		<station_name>新狭山</station_name>
		<lon>139.433499</lon>
		<lat>35.873993</lat>
	</station>
	<station>
		<station_cd>2200728</station_cd>
		<station_g_cd>2200728</station_g_cd>
		<station_name>南大塚</station_name>
		<lon>139.454189</lon>
		<lat>35.889663</lat>
	</station>
	<station>
		<station_cd>2200729</station_cd>
		<station_g_cd>2200729</station_g_cd>
		<station_name>本川越</station_name>
		<lon>139.481125</lon>
		<lat>35.913524</lat>
	</station>
</ekidata>
