<?xml version="1.0" encoding="UTF-8"?>
<ekidata version="ekidata.jp line api 1.0">
	<line>
		<line_cd>23005</line_cd>
		<line_name>京成千原線</line_name>
		<line_lon>140.14014244173</line_lon>
		<line_lat>35.578852314308</line_lat>
		<line_zoom>12</line_zoom>
	</line>
	<station>
		<station_cd>2300501</station_cd>
		<station_g_cd>2300410</station_g_cd>
		<station_name>千葉中央</station_name>
		<lon>140.117809</lon>
		<lat>35.607354</lat>
	</station>
	<station>
		<station_cd>2300502</station_cd>
		<station_g_cd>2300502</station_g_cd>
		<station_name>千葉寺</station_name>
		<lon>140.132236</lon>
		<lat>35.590311</lat>
	</station>
	<station>
		<station_cd>2300503</station_cd>
		<station_g_cd>2300503</station_g_cd>
		<station_name>大森台</station_name>
		<lon>140.149398</lon>
		<lat>35.584126</lat>
	</station>
	<station>
		<station_cd>2300504</station_cd>
		<station_g_cd>2300504</station_g_cd>
		<station_name>学園前</station_name>
		<lon>140.158416</lon>
		<lat>35.560364</lat>
	</station>
	<station>
		<station_cd>2300505</station_cd>
		<station_g_cd>2300505</station_g_cd>
		<station_name>おゆみ野</station_name>
		<lon>140.166264</lon>
		<lat>35.550029</lat>
	</station>
	<station>
		<station_cd>2300506</station_cd>
		<station_g_cd>2300506</station_g_cd>
		<station_name>ちはら台</station_name>
		<lon>140.17029</lon>
		<lat>35.534017</lat>
	</station>
</ekidata>
