
if(typeof(xml)=='undefined') xml = {};
xml.data = {"line_cd":26004,"line_name":"東急大井町線","line_lon":139.6753762487,"line_lat":35.607027243076,"line_zoom":12,"station_l":[{"station_cd":2600401,"station_g_cd":1133228,"station_name":"大井町","lon":139.735025,"lat":35.607535},{"station_cd":2600402,"station_g_cd":2600402,"station_name":"下神明","lon":139.726256,"lat":35.608704},{"station_cd":2600403,"station_g_cd":2600403,"station_name":"戸越公園","lon":139.718159,"lat":35.608856},{"station_cd":2600404,"station_g_cd":2600404,"station_name":"中延","lon":139.712526,"lat":35.60571},{"station_cd":2600405,"station_g_cd":2600405,"station_name":"荏原町","lon":139.707571,"lat":35.60382},{"station_cd":2600406,"station_g_cd":2600406,"station_name":"旗の台","lon":139.702286,"lat":35.604923},{"station_cd":2600407,"station_g_cd":2600407,"station_name":"北千束","lon":139.693303,"lat":35.606311},{"station_cd":2600408,"station_g_cd":2600206,"station_name":"大岡山","lon":139.685909,"lat":35.607456},{"station_cd":2600409,"station_g_cd":2600409,"station_name":"緑が丘","lon":139.679482,"lat":35.60638},{"station_cd":2600410,"station_g_cd":2600107,"station_name":"自由が丘","lon":139.668664,"lat":35.607224},{"station_cd":2600411,"station_g_cd":2600411,"station_name":"九品仏","lon":139.660992,"lat":35.60538},{"station_cd":2600412,"station_g_cd":2600412,"station_name":"尾山台","lon":139.653862,"lat":35.606971},{"station_cd":2600413,"station_g_cd":2600413,"station_name":"等々力","lon":139.647938,"lat":35.608369},{"station_cd":2600414,"station_g_cd":2600414,"station_name":"上野毛","lon":139.638917,"lat":35.611957},{"station_cd":2600415,"station_g_cd":2600307,"station_name":"二子玉川","lon":139.626685,"lat":35.611788},{"station_cd":2600416,"station_g_cd":2600308,"station_name":"二子新地","lon":139.622338,"lat":35.606994},{"station_cd":2600417,"station_g_cd":2600309,"station_name":"高津","lon":139.616934,"lat":35.603248},{"station_cd":2600418,"station_g_cd":1130310,"station_name":"溝の口","lon":139.610487,"lat":35.59984}]}
if(typeof(xml.onload)=='function') xml.onload(xml.data);
