
if(typeof(xml)=='undefined') xml = {};
xml.data = {"line_cd":26002,"line_name":"東急目黒線","line_lon":139.67835129425,"line_lat":35.603755429181,"line_zoom":13,"station_l":[{"station_cd":2600201,"station_g_cd":1130203,"station_name":"目黒","lon":139.7155,"lat":35.633272},{"station_cd":2600202,"station_g_cd":2600202,"station_name":"不動前","lon":139.71469,"lat":35.626526},{"station_cd":2600203,"station_g_cd":2600203,"station_name":"武蔵小山","lon":139.704524,"lat":35.620538},{"station_cd":2600204,"station_g_cd":2600204,"station_name":"西小山","lon":139.698694,"lat":35.615455},{"station_cd":2600205,"station_g_cd":2600205,"station_name":"洗足","lon":139.694367,"lat":35.61043},{"station_cd":2600206,"station_g_cd":2600206,"station_name":"大岡山","lon":139.685909,"lat":35.607456},{"station_cd":2600207,"station_g_cd":2600207,"station_name":"奥沢","lon":139.672355,"lat":35.603947},{"station_cd":2600208,"station_g_cd":2600108,"station_name":"田園調布","lon":139.667356,"lat":35.596815},{"station_cd":2600209,"station_g_cd":2600109,"station_name":"多摩川","lon":139.668723,"lat":35.589591},{"station_cd":2600210,"station_g_cd":2600110,"station_name":"新丸子","lon":139.661964,"lat":35.58049},{"station_cd":2600211,"station_g_cd":1130307,"station_name":"武蔵小杉","lon":139.659652,"lat":35.575752},{"station_cd":2600212,"station_g_cd":2600112,"station_name":"元住吉","lon":139.654668,"lat":35.565698},{"station_cd":2600213,"station_g_cd":2600113,"station_name":"日吉","lon":139.646944,"lat":35.5539}]}
if(typeof(xml.onload)=='function') xml.onload(xml.data);
