<?xml version="1.0" encoding="UTF-8"?>
<ekidata version="ekidata.jp line api 1.0">
	<line>
		<line_cd>28008</line_cd>
		<line_name>東京メトロ半蔵門線</line_name>
		<line_lon>139.76522714816</line_lon>
		<line_lat>35.68813210626</line_lat>
		<line_zoom>12</line_zoom>
	</line>
	<station>
		<station_cd>2800801</station_cd>
		<station_g_cd>1130205</station_g_cd>
		<station_name>渋谷</station_name>
		<lon>139.701</lon>
		<lat>35.659066</lat>
	</station>
	<station>
		<station_cd>2800802</station_cd>
		<station_g_cd>2800118</station_g_cd>
		<station_name>表参道</station_name>
		<lon>139.712314</lon>
		<lat>35.665247</lat>
	</station>
	<station>
		<station_cd>2800803</station_cd>
		<station_g_cd>2800116</station_g_cd>
		<station_name>青山一丁目</station_name>
		<lon>139.724159</lon>
		<lat>35.672765</lat>
	</station>
	<station>
		<station_cd>2800804</station_cd>
		<station_g_cd>2800115</station_g_cd>
		<station_name>永田町</station_name>
		<lon>139.740258</lon>
		<lat>35.678757</lat>
	</station>
	<station>
		<station_cd>2800805</station_cd>
		<station_g_cd>2800805</station_g_cd>
		<station_name>半蔵門</station_name>
		<lon>139.74163</lon>
		<lat>35.685703</lat>
	</station>
	<station>
		<station_cd>2800806</station_cd>
		<station_g_cd>2800407</station_g_cd>
		<station_name>九段下</station_name>
		<lon>139.751948</lon>
		<lat>35.695589</lat>
	</station>
	<station>
		<station_cd>2800807</station_cd>
		<station_g_cd>2800807</station_g_cd>
		<station_name>神保町</station_name>
		<lon>139.757606</lon>
		<lat>35.695966</lat>
	</station>
	<station>
		<station_cd>2800808</station_cd>
		<station_g_cd>2800208</station_g_cd>
		<station_name>大手町</station_name>
		<lon>139.764107</lon>
		<lat>35.68686</lat>
	</station>
	<station>
		<station_cd>2800809</station_cd>
		<station_g_cd>1131402</station_g_cd>
		<station_name>三越前</station_name>
		<lon>139.773147</lon>
		<lat>35.684908</lat>
	</station>
	<station>
		<station_cd>2800810</station_cd>
		<station_g_cd>2800810</station_g_cd>
		<station_name>水天宮前</station_name>
		<lon>139.785377</lon>
		<lat>35.682683</lat>
	</station>
	<station>
		<station_cd>2800811</station_cd>
		<station_g_cd>2800811</station_g_cd>
		<station_name>清澄白河</station_name>
		<lon>139.798851</lon>
		<lat>35.682105</lat>
	</station>
	<station>
		<station_cd>2800814</station_cd>
		<station_g_cd>2800814</station_g_cd>
		<station_name>住吉</station_name>
		<lon>139.815681</lon>
		<lat>35.689073</lat>
	</station>
	<station>
		<station_cd>2800812</station_cd>
		<station_g_cd>1131322</station_g_cd>
		<station_name>錦糸町</station_name>
		<lon>139.814941</lon>
		<lat>35.697578</lat>
	</station>
	<station>
		<station_cd>2800813</station_cd>
		<station_g_cd>2100203</station_g_cd>
		<station_name>押上〈スカイツリー前〉</station_name>
		<lon>139.812935</lon>
		<lat>35.710702</lat>
	</station>
</ekidata>
