
if(typeof(xml)=='undefined') xml = {};
xml.data = {"line_cd":30005,"line_name":"名鉄三河線","line_lon":137.03974462462,"line_lat":35.02789179794,"line_zoom":11,"station_l":[{"station_cd":3000501,"station_g_cd":3000501,"station_name":"碧南","lon":136.985613,"lat":34.874041},{"station_cd":3000502,"station_g_cd":3000502,"station_name":"碧南中央","lon":136.989476,"lat":34.887395},{"station_cd":3000503,"station_g_cd":3000503,"station_name":"新川町","lon":136.990312,"lat":34.896619},{"station_cd":3000504,"station_g_cd":3000504,"station_name":"北新川","lon":136.992475,"lat":34.906018},{"station_cd":3000505,"station_g_cd":3000505,"station_name":"高浜港","lon":136.989391,"lat":34.921536},{"station_cd":3000506,"station_g_cd":3000506,"station_name":"三河高浜","lon":136.989954,"lat":34.930796},{"station_cd":3000507,"station_g_cd":3000507,"station_name":"吉浜","lon":136.98919,"lat":34.946327},{"station_cd":3000508,"station_g_cd":3000508,"station_name":"小垣江","lon":136.995455,"lat":34.9639},{"station_cd":3000509,"station_g_cd":3000509,"station_name":"刈谷市","lon":136.993844,"lat":34.984803},{"station_cd":3000510,"station_g_cd":1150224,"station_name":"刈谷","lon":137.008642,"lat":34.990884},{"station_cd":3000511,"station_g_cd":3000511,"station_name":"重原","lon":137.023727,"lat":34.994824},{"station_cd":3000512,"station_g_cd":3000119,"station_name":"知立","lon":137.039628,"lat":35.006198},{"station_cd":3000513,"station_g_cd":3000513,"station_name":"三河知立","lon":137.045311,"lat":35.004002},{"station_cd":3000514,"station_g_cd":3000514,"station_name":"三河八橋","lon":137.077147,"lat":35.010913},{"station_cd":3000515,"station_g_cd":3000515,"station_name":"若林","lon":137.095851,"lat":35.026284},{"station_cd":3000516,"station_g_cd":3000516,"station_name":"竹村","lon":137.11476,"lat":35.040067},{"station_cd":3000517,"station_g_cd":3000517,"station_name":"土橋","lon":137.129572,"lat":35.058179},{"station_cd":3000518,"station_g_cd":3000518,"station_name":"上挙母","lon":137.154453,"lat":35.071854},{"station_cd":3000519,"station_g_cd":3000519,"station_name":"豊田市","lon":137.156227,"lat":35.087305},{"station_cd":3000520,"station_g_cd":3000520,"station_name":"梅坪","lon":137.162206,"lat":35.099654},{"station_cd":3000521,"station_g_cd":3000521,"station_name":"越戸","lon":137.180178,"lat":35.10769},{"station_cd":3000522,"station_g_cd":3000522,"station_name":"平戸橋","lon":137.184725,"lat":35.114628},{"station_cd":3000523,"station_g_cd":3000523,"station_name":"猿投","lon":137.178739,"lat":35.122613}]}
if(typeof(xml.onload)=='function') xml.onload(xml.data);
