<?xml version="1.0" encoding="UTF-8"?>
<ekidata version="ekidata.jp line api 1.0">
	<line>
		<line_cd>30005</line_cd>
		<line_name>名鉄三河線</line_name>
		<line_lon>137.03974462462</line_lon>
		<line_lat>35.02789179794</line_lat>
		<line_zoom>11</line_zoom>
	</line>
	<station>
		<station_cd>3000501</station_cd>
		<station_g_cd>3000501</station_g_cd>
		<station_name>碧南</station_name>
		<lon>136.985613</lon>
		<lat>34.874041</lat>
	</station>
	<station>
		<station_cd>3000502</station_cd>
		<station_g_cd>3000502</station_g_cd>
		<station_name>碧南中央</station_name>
		<lon>136.989476</lon>
		<lat>34.887395</lat>
	</station>
	<station>
		<station_cd>3000503</station_cd>
		<station_g_cd>3000503</station_g_cd>
		<station_name>新川町</station_name>
		<lon>136.990312</lon>
		<lat>34.896619</lat>
	</station>
	<station>
		<station_cd>3000504</station_cd>
		<station_g_cd>3000504</station_g_cd>
		<station_name>北新川</station_name>
		<lon>136.992475</lon>
		<lat>34.906018</lat>
	</station>
	<station>
		<station_cd>3000505</station_cd>
		<station_g_cd>3000505</station_g_cd>
		<station_name>高浜港</station_name>
		<lon>136.989391</lon>
		<lat>34.921536</lat>
	</station>
	<station>
		<station_cd>3000506</station_cd>
		<station_g_cd>3000506</station_g_cd>
		<station_name>三河高浜</station_name>
		<lon>136.989954</lon>
		<lat>34.930796</lat>
	</station>
	<station>
		<station_cd>3000507</station_cd>
		<station_g_cd>3000507</station_g_cd>
		<station_name>吉浜</station_name>
		<lon>136.98919</lon>
		<lat>34.946327</lat>
	</station>
	<station>
		<station_cd>3000508</station_cd>
		<station_g_cd>3000508</station_g_cd>
		<station_name>小垣江</station_name>
		<lon>136.995455</lon>
		<lat>34.9639</lat>
	</station>
	<station>
		<station_cd>3000509</station_cd>
		<station_g_cd>3000509</station_g_cd>
		<station_name>刈谷市</station_name>
		<lon>136.993844</lon>
		<lat>34.984803</lat>
	</station>
	<station>
		<station_cd>3000510</station_cd>
		<station_g_cd>1150224</station_g_cd>
		<station_name>刈谷</station_name>
		<lon>137.008642</lon>
		<lat>34.990884</lat>
	</station>
	<station>
		<station_cd>3000511</station_cd>
		<station_g_cd>3000511</station_g_cd>
		<station_name>重原</station_name>
		<lon>137.023727</lon>
		<lat>34.994824</lat>
	</station>
	<station>
		<station_cd>3000512</station_cd>
		<station_g_cd>3000119</station_g_cd>
		<station_name>知立</station_name>
		<lon>137.039628</lon>
		<lat>35.006198</lat>
	</station>
	<station>
		<station_cd>3000513</station_cd>
		<station_g_cd>3000513</station_g_cd>
		<station_name>三河知立</station_name>
		<lon>137.045311</lon>
		<lat>35.004002</lat>
	</station>
	<station>
		<station_cd>3000514</station_cd>
		<station_g_cd>3000514</station_g_cd>
		<station_name>三河八橋</station_name>
		<lon>137.077147</lon>
		<lat>35.010913</lat>
	</station>
	<station>
		<station_cd>3000515</station_cd>
		<station_g_cd>3000515</station_g_cd>
		<station_name>若林</station_name>
		<lon>137.095851</lon>
		<lat>35.026284</lat>
	</station>
	<station>
		<station_cd>3000516</station_cd>
		<station_g_cd>3000516</station_g_cd>
		<station_name>竹村</station_name>
		<lon>137.11476</lon>
		<lat>35.040067</lat>
	</station>
	<station>
		<station_cd>3000517</station_cd>
		<station_g_cd>3000517</station_g_cd>
		<station_name>土橋</station_name>
		<lon>137.129572</lon>
		<lat>35.058179</lat>
	</station>
	<station>
		<station_cd>3000518</station_cd>
		<station_g_cd>3000518</station_g_cd>
		<station_name>上挙母</station_name>
		<lon>137.154453</lon>
		<lat>35.071854</lat>
	</station>
	<station>
		<station_cd>3000519</station_cd>
		<station_g_cd>3000519</station_g_cd>
		<station_name>豊田市</station_name>
		<lon>137.156227</lon>
		<lat>35.087305</lat>
	</station>
	<station>
		<station_cd>3000520</station_cd>
		<station_g_cd>3000520</station_g_cd>
		<station_name>梅坪</station_name>
		<lon>137.162206</lon>
		<lat>35.099654</lat>
	</station>
	<station>
		<station_cd>3000521</station_cd>
		<station_g_cd>3000521</station_g_cd>
		<station_name>越戸</station_name>
		<lon>137.180178</lon>
		<lat>35.10769</lat>
	</station>
	<station>
		<station_cd>3000522</station_cd>
		<station_g_cd>3000522</station_g_cd>
		<station_name>平戸橋</station_name>
		<lon>137.184725</lon>
		<lat>35.114628</lat>
	</station>
	<station>
		<station_cd>3000523</station_cd>
		<station_g_cd>3000523</station_g_cd>
		<station_name>猿投</station_name>
		<lon>137.178739</lon>
		<lat>35.122613</lat>
	</station>
</ekidata>
