<?xml version="1.0" encoding="UTF-8"?>
<ekidata version="ekidata.jp line api 1.0">
	<line>
		<line_cd>31025</line_cd>
		<line_name>近鉄京都線</line_name>
		<line_lon>135.78559927916</line_lon>
		<line_lat>34.853989329295</line_lat>
		<line_zoom>11</line_zoom>
	</line>
	<station>
		<station_cd>3102501</station_cd>
		<station_g_cd>1160120</station_g_cd>
		<station_name>京都</station_name>
		<lon>135.756442</lon>
		<lat>34.984726</lat>
	</station>
	<station>
		<station_cd>3102502</station_cd>
		<station_g_cd>3102502</station_g_cd>
		<station_name>東寺</station_name>
		<lon>135.752553</lon>
		<lat>34.979967</lat>
	</station>
	<station>
		<station_cd>3102503</station_cd>
		<station_g_cd>3102503</station_g_cd>
		<station_name>十条</station_name>
		<lon>135.752413</lon>
		<lat>34.97398</lat>
	</station>
	<station>
		<station_cd>3102504</station_cd>
		<station_g_cd>3102504</station_g_cd>
		<station_name>上鳥羽口</station_name>
		<lon>135.752625</lon>
		<lat>34.965135</lat>
	</station>
	<station>
		<station_cd>3102505</station_cd>
		<station_g_cd>3102505</station_g_cd>
		<station_name>竹田</station_name>
		<lon>135.756091</lon>
		<lat>34.956825</lat>
	</station>
	<station>
		<station_cd>3102506</station_cd>
		<station_g_cd>3102506</station_g_cd>
		<station_name>伏見</station_name>
		<lon>135.761479</lon>
		<lat>34.946054</lat>
	</station>
	<station>
		<station_cd>3102507</station_cd>
		<station_g_cd>3102507</station_g_cd>
		<station_name>近鉄丹波橋</station_name>
		<lon>135.766262</lon>
		<lat>34.938299</lat>
	</station>
	<station>
		<station_cd>3102508</station_cd>
		<station_g_cd>3102508</station_g_cd>
		<station_name>桃山御陵前</station_name>
		<lon>135.765537</lon>
		<lat>34.933349</lat>
	</station>
	<station>
		<station_cd>3102509</station_cd>
		<station_g_cd>3102509</station_g_cd>
		<station_name>向島</station_name>
		<lon>135.769681</lon>
		<lat>34.914924</lat>
	</station>
	<station>
		<station_cd>3102510</station_cd>
		<station_g_cd>3102510</station_g_cd>
		<station_name>小倉</station_name>
		<lon>135.781914</lon>
		<lat>34.89304</lat>
	</station>
	<station>
		<station_cd>3102511</station_cd>
		<station_g_cd>3102511</station_g_cd>
		<station_name>伊勢田</station_name>
		<lon>135.77899</lon>
		<lat>34.882208</lat>
	</station>
	<station>
		<station_cd>3102512</station_cd>
		<station_g_cd>3102512</station_g_cd>
		<station_name>大久保</station_name>
		<lon>135.777024</lon>
		<lat>34.874351</lat>
	</station>
	<station>
		<station_cd>3102513</station_cd>
		<station_g_cd>3102513</station_g_cd>
		<station_name>久津川</station_name>
		<lon>135.774847</lon>
		<lat>34.864943</lat>
	</station>
	<station>
		<station_cd>3102514</station_cd>
		<station_g_cd>3102514</station_g_cd>
		<station_name>寺田</station_name>
		<lon>135.772011</lon>
		<lat>34.853275</lat>
	</station>
	<station>
		<station_cd>3102515</station_cd>
		<station_g_cd>3102515</station_g_cd>
		<station_name>富野荘</station_name>
		<lon>135.772922</lon>
		<lat>34.840201</lat>
	</station>
	<station>
		<station_cd>3102516</station_cd>
		<station_g_cd>3102516</station_g_cd>
		<station_name>新田辺</station_name>
		<lon>135.772805</lon>
		<lat>34.820492</lat>
	</station>
	<station>
		<station_cd>3102517</station_cd>
		<station_g_cd>3102517</station_g_cd>
		<station_name>興戸</station_name>
		<lon>135.778638</lon>
		<lat>34.808293</lat>
	</station>
	<station>
		<station_cd>3102518</station_cd>
		<station_g_cd>1161705</station_g_cd>
		<station_name>三山木</station_name>
		<lon>135.785905</lon>
		<lat>34.798435</lat>
	</station>
	<station>
		<station_cd>3102519</station_cd>
		<station_g_cd>3102519</station_g_cd>
		<station_name>近鉄宮津</station_name>
		<lon>135.787391</lon>
		<lat>34.791453</lat>
	</station>
	<station>
		<station_cd>3102520</station_cd>
		<station_g_cd>1161704</station_g_cd>
		<station_name>狛田</station_name>
		<lon>135.789568</lon>
		<lat>34.78047</lat>
	</station>
	<station>
		<station_cd>3102521</station_cd>
		<station_g_cd>1161703</station_g_cd>
		<station_name>新祝園</station_name>
		<lon>135.792657</lon>
		<lat>34.759953</lat>
	</station>
	<station>
		<station_cd>3102522</station_cd>
		<station_g_cd>3102522</station_g_cd>
		<station_name>木津川台</station_name>
		<lon>135.795996</lon>
		<lat>34.746641</lat>
	</station>
	<station>
		<station_cd>3102523</station_cd>
		<station_g_cd>3102523</station_g_cd>
		<station_name>山田川</station_name>
		<lon>135.793794</lon>
		<lat>34.737678</lat>
	</station>
	<station>
		<station_cd>3102524</station_cd>
		<station_g_cd>3102524</station_g_cd>
		<station_name>高の原</station_name>
		<lon>135.791839</lon>
		<lat>34.723494</lat>
	</station>
	<station>
		<station_cd>3102525</station_cd>
		<station_g_cd>3102525</station_g_cd>
		<station_name>平城</station_name>
		<lon>135.784524</lon>
		<lat>34.701496</lat>
	</station>
	<station>
		<station_cd>3102526</station_cd>
		<station_g_cd>3100201</station_g_cd>
		<station_name>大和西大寺</station_name>
		<lon>135.783169</lon>
		<lat>34.69358</lat>
	</station>
	<station>
		<station_cd>3102527</station_cd>
		<station_g_cd>3102018</station_g_cd>
		<station_name>新大宮</station_name>
		<lon>135.810744</lon>
		<lat>34.685434</lat>
	</station>
	<station>
		<station_cd>3102528</station_cd>
		<station_g_cd>3102019</station_g_cd>
		<station_name>近鉄奈良</station_name>
		<lon>135.827472</lon>
		<lat>34.684323</lat>
	</station>
</ekidata>
