
if(typeof(xml)=='undefined') xml = {};
xml.data = {"line_cd":31020,"line_name":"近鉄奈良線","line_lon":135.69037883275,"line_lat":34.687692680053,"line_zoom":11,"station_l":[{"station_cd":3102001,"station_g_cd":3100106,"station_name":"布施","lon":135.563516,"lat":34.664092},{"station_cd":3102002,"station_g_cd":1164103,"station_name":"河内永和","lon":135.573179,"lat":34.664276},{"station_cd":3102003,"station_g_cd":3102003,"station_name":"河内小阪","lon":135.5815,"lat":34.66394},{"station_cd":3102004,"station_g_cd":3102004,"station_name":"八戸ノ里","lon":135.589475,"lat":34.663721},{"station_cd":3102005,"station_g_cd":3102005,"station_name":"若江岩田","lon":135.608315,"lat":34.66311},{"station_cd":3102006,"station_g_cd":3102006,"station_name":"河内花園","lon":135.618347,"lat":34.662713},{"station_cd":3102007,"station_g_cd":3102007,"station_name":"東花園","lon":135.626808,"lat":34.662388},{"station_cd":3102008,"station_g_cd":3102008,"station_name":"瓢箪山","lon":135.639143,"lat":34.66196},{"station_cd":3102009,"station_g_cd":3102009,"station_name":"枚岡","lon":135.648067,"lat":34.669579},{"station_cd":3102010,"station_g_cd":3102010,"station_name":"額田","lon":135.651086,"lat":34.675181},{"station_cd":3102011,"station_g_cd":3102011,"station_name":"石切","lon":135.654996,"lat":34.684739},{"station_cd":3102012,"station_g_cd":3101601,"station_name":"生駒","lon":135.698006,"lat":34.693082},{"station_cd":3102013,"station_g_cd":3102013,"station_name":"東生駒","lon":135.710488,"lat":34.691729},{"station_cd":3102014,"station_g_cd":3102014,"station_name":"富雄","lon":135.734825,"lat":34.694229},{"station_cd":3102015,"station_g_cd":3102015,"station_name":"学園前","lon":135.749713,"lat":34.697018},{"station_cd":3102016,"station_g_cd":3102016,"station_name":"菖蒲池","lon":135.761331,"lat":34.69796},{"station_cd":3102017,"station_g_cd":3100201,"station_name":"大和西大寺","lon":135.783169,"lat":34.69358},{"station_cd":3102018,"station_g_cd":3102018,"station_name":"新大宮","lon":135.810744,"lat":34.685434},{"station_cd":3102019,"station_g_cd":3102019,"station_name":"近鉄奈良","lon":135.827472,"lat":34.684323}]}
if(typeof(xml.onload)=='function') xml.onload(xml.data);
