<?xml version="1.0" encoding="UTF-8"?>
<ekidata version="ekidata.jp line api 1.0">
	<line>
		<line_cd>32006</line_cd>
		<line_name>南海多奈川線</line_name>
		<line_lon>135.14480431348</line_lon>
		<line_lat>34.318367862234</line_lat>
		<line_zoom>14</line_zoom>
	</line>
	<station>
		<station_cd>3200601</station_cd>
		<station_g_cd>3200137</station_g_cd>
		<station_name>みさき公園</station_name>
		<lon>135.160977</lon>
		<lat>34.323986</lat>
	</station>
	<station>
		<station_cd>3200602</station_cd>
		<station_g_cd>3200602</station_g_cd>
		<station_name>深日町</station_name>
		<lon>135.148002</lon>
		<lat>34.31823</lat>
	</station>
	<station>
		<station_cd>3200603</station_cd>
		<station_g_cd>3200603</station_g_cd>
		<station_name>深日港</station_name>
		<lon>135.141297</lon>
		<lat>34.317386</lat>
	</station>
	<station>
		<station_cd>3200604</station_cd>
		<station_g_cd>3200604</station_g_cd>
		<station_name>多奈川</station_name>
		<lon>135.137181</lon>
		<lat>34.316705</lat>
	</station>
</ekidata>
