
if(typeof(xml)=='undefined') xml = {};
xml.data = {"line_cd":32007,"line_name":"南海高野線","line_lon":135.54327309524,"line_lat":34.465338529447,"line_zoom":9,"station_l":[{"station_cd":3200701,"station_g_cd":3200101,"station_name":"難波","lon":135.501949,"lat":34.66357},{"station_cd":3200702,"station_g_cd":3200702,"station_name":"今宮戎","lon":135.50153,"lat":34.655137},{"station_cd":3200703,"station_g_cd":1160720,"station_name":"新今宮","lon":135.500302,"lat":34.650429},{"station_cd":3200704,"station_g_cd":3200704,"station_name":"萩ノ茶屋","lon":135.498986,"lat":34.64561},{"station_cd":3200705,"station_g_cd":3200103,"station_name":"天下茶屋","lon":135.496673,"lat":34.636847},{"station_cd":3200706,"station_g_cd":3200104,"station_name":"岸里玉出","lon":135.494388,"lat":34.628291},{"station_cd":3200707,"station_g_cd":3200707,"station_name":"帝塚山","lon":135.498406,"lat":34.622332},{"station_cd":3200708,"station_g_cd":3200708,"station_name":"住吉東","lon":135.497587,"lat":34.6133},{"station_cd":3200709,"station_g_cd":3200709,"station_name":"沢ノ町","lon":135.496957,"lat":34.606284},{"station_cd":3200710,"station_g_cd":3200710,"station_name":"我孫子前","lon":135.496888,"lat":34.600188},{"station_cd":3200711,"station_g_cd":3200711,"station_name":"浅香山","lon":135.491025,"lat":34.589319},{"station_cd":3200712,"station_g_cd":3200712,"station_name":"堺東","lon":135.485062,"lat":34.575878},{"station_cd":3200713,"station_g_cd":1162610,"station_name":"三国ヶ丘","lon":135.492668,"lat":34.565259},{"station_cd":3200714,"station_g_cd":3200714,"station_name":"百舌鳥八幡","lon":135.498751,"lat":34.560577},{"station_cd":3200715,"station_g_cd":3200715,"station_name":"中百舌鳥","lon":135.504454,"lat":34.556232},{"station_cd":3200716,"station_g_cd":3200716,"station_name":"白鷺","lon":135.513148,"lat":34.550235},{"station_cd":3200717,"station_g_cd":3200717,"station_name":"初芝","lon":135.526491,"lat":34.542322},{"station_cd":3200718,"station_g_cd":3200718,"station_name":"萩原天神","lon":135.535094,"lat":34.537125},{"station_cd":3200719,"station_g_cd":3200719,"station_name":"北野田","lon":135.543177,"lat":34.522949},{"station_cd":3200720,"station_g_cd":3200720,"station_name":"狭山","lon":135.548137,"lat":34.516725},{"station_cd":3200721,"station_g_cd":3200721,"station_name":"大阪狭山市","lon":135.557234,"lat":34.504643},{"station_cd":3200722,"station_g_cd":3200722,"station_name":"金剛","lon":135.559306,"lat":34.495324},{"station_cd":3200723,"station_g_cd":3200723,"station_name":"滝谷","lon":135.5622,"lat":34.479582},{"station_cd":3200724,"station_g_cd":3200724,"station_name":"千代田","lon":135.566311,"lat":34.468894},{"station_cd":3200725,"station_g_cd":3102208,"station_name":"河内長野","lon":135.573075,"lat":34.450994},{"station_cd":3200726,"station_g_cd":3200726,"station_name":"三日市町","lon":135.57134,"lat":34.43672},{"station_cd":3200727,"station_g_cd":3200727,"station_name":"美加の台","lon":135.577172,"lat":34.424697},{"station_cd":3200728,"station_g_cd":3200728,"station_name":"千早口","lon":135.590199,"lat":34.411493},{"station_cd":3200729,"station_g_cd":3200729,"station_name":"天見","lon":135.595504,"lat":34.397558},{"station_cd":3200730,"station_g_cd":3200730,"station_name":"紀見峠","lon":135.599904,"lat":34.366288},{"station_cd":3200731,"station_g_cd":3200731,"station_name":"林間田園都市","lon":135.603207,"lat":34.355292},{"station_cd":3200732,"station_g_cd":3200732,"station_name":"御幸辻","lon":135.602085,"lat":34.338016},{"station_cd":3200733,"station_g_cd":1163617,"station_name":"橋本","lon":135.614703,"lat":34.318496},{"station_cd":3200734,"station_g_cd":3200734,"station_name":"紀伊清水","lon":135.60478,"lat":34.307495},{"station_cd":3200735,"station_g_cd":3200735,"station_name":"学文路","lon":135.579882,"lat":34.296582},{"station_cd":3200736,"station_g_cd":3200736,"station_name":"九度山","lon":135.564487,"lat":34.287775},{"station_cd":3200737,"station_g_cd":3200737,"station_name":"高野下","lon":135.566359,"lat":34.271635},{"station_cd":3200738,"station_g_cd":3200738,"station_name":"下古沢","lon":135.553207,"lat":34.266497},{"station_cd":3200739,"station_g_cd":3200739,"station_name":"上古沢","lon":135.548025,"lat":34.257362},{"station_cd":3200740,"station_g_cd":3200740,"station_name":"紀伊細川","lon":135.553705,"lat":34.235723},{"station_cd":3200741,"station_g_cd":3200741,"station_name":"紀伊神谷","lon":135.571034,"lat":34.242852},{"station_cd":3200742,"station_g_cd":3200742,"station_name":"極楽橋","lon":135.582078,"lat":34.23435}]}
if(typeof(xml.onload)=='function') xml.onload(xml.data);
