
if(typeof(xml)=='undefined') xml = {};
xml.data = {"line_cd":32009,"line_name":"南海汐見橋線","line_lon":135.48640268782,"line_lat":34.648351593735,"line_zoom":13,"station_l":[{"station_cd":3200901,"station_g_cd":3200901,"station_name":"汐見橋","lon":135.486165,"lat":34.667638},{"station_cd":3200902,"station_g_cd":3200902,"station_name":"芦原町","lon":135.486462,"lat":34.660516},{"station_cd":3200903,"station_g_cd":3200903,"station_name":"木津川","lon":135.483093,"lat":34.654703},{"station_cd":3200904,"station_g_cd":3200904,"station_name":"津守","lon":135.483349,"lat":34.647004},{"station_cd":3200905,"station_g_cd":3200905,"station_name":"西天下茶屋","lon":135.489079,"lat":34.638736},{"station_cd":3200906,"station_g_cd":3200104,"station_name":"岸里玉出","lon":135.494388,"lat":34.628291}]}
if(typeof(xml.onload)=='function') xml.onload(xml.data);
