<?xml version="1.0" encoding="UTF-8"?>
<ekidata version="ekidata.jp line api 1.0">
	<line>
		<line_cd>35002</line_cd>
		<line_name>阪神なんば線</line_name>
		<line_lon>135.45421802017</line_lon>
		<line_lat>34.694375856271</line_lat>
		<line_zoom>13</line_zoom>
	</line>
	<station>
		<station_cd>3500211</station_cd>
		<station_g_cd>3100101</station_g_cd>
		<station_name>大阪難波</station_name>
		<lon>135.499144</lon>
		<lat>34.667113</lat>
	</station>
	<station>
		<station_cd>3500210</station_cd>
		<station_g_cd>3200901</station_g_cd>
		<station_name>桜川</station_name>
		<lon>135.486612</lon>
		<lat>34.668559</lat>
	</station>
	<station>
		<station_cd>3500209</station_cd>
		<station_g_cd>3500209</station_g_cd>
		<station_name>ドーム前</station_name>
		<lon>135.478313</lon>
		<lat>34.670266</lat>
	</station>
	<station>
		<station_cd>3500208</station_cd>
		<station_g_cd>3500208</station_g_cd>
		<station_name>九条</station_name>
		<lon>135.474483</lon>
		<lat>34.673412</lat>
	</station>
	<station>
		<station_cd>3500201</station_cd>
		<station_g_cd>1162307</station_g_cd>
		<station_name>西九条</station_name>
		<lon>135.465653</lon>
		<lat>34.682889</lat>
	</station>
	<station>
		<station_cd>3500202</station_cd>
		<station_g_cd>3500202</station_g_cd>
		<station_name>千鳥橋</station_name>
		<lon>135.457817</lon>
		<lat>34.68546</lat>
	</station>
	<station>
		<station_cd>3500203</station_cd>
		<station_g_cd>3500203</station_g_cd>
		<station_name>伝法</station_name>
		<lon>135.451559</lon>
		<lat>34.689256</lat>
	</station>
	<station>
		<station_cd>3500204</station_cd>
		<station_g_cd>3500204</station_g_cd>
		<station_name>福</station_name>
		<lon>135.442692</lon>
		<lat>34.699791</lat>
	</station>
	<station>
		<station_cd>3500205</station_cd>
		<station_g_cd>3500205</station_g_cd>
		<station_name>出来島</station_name>
		<lon>135.436921</lon>
		<lat>34.707173</lat>
	</station>
	<station>
		<station_cd>3500206</station_cd>
		<station_g_cd>3500108</station_g_cd>
		<station_name>大物</station_name>
		<lon>135.425549</lon>
		<lat>34.716583</lat>
	</station>
	<station>
		<station_cd>3500207</station_cd>
		<station_g_cd>3500109</station_g_cd>
		<station_name>尼崎</station_name>
		<lon>135.417309</lon>
		<lat>34.718634</lat>
	</station>
</ekidata>
