
if(typeof(xml)=='undefined') xml = {};
xml.data = {"line_cd":99105,"line_name":"函館市電２系統","line_lon":140.74738524247,"line_lat":41.780540656947,"line_zoom":13,"station_l":[{"station_cd":9910501,"station_g_cd":9910501,"station_name":"湯の川","lon":140.789902,"lat":41.781073},{"station_cd":9910502,"station_g_cd":9910502,"station_name":"湯の川温泉","lon":140.784881,"lat":41.780129},{"station_cd":9910503,"station_g_cd":9910503,"station_name":"函館アリーナ前","lon":140.782006,"lat":41.782065},{"station_cd":9910504,"station_g_cd":9910504,"station_name":"駒場車庫前","lon":140.779216,"lat":41.783265},{"station_cd":9910505,"station_g_cd":9910505,"station_name":"競馬場前","lon":140.775268,"lat":41.784657},{"station_cd":9910506,"station_g_cd":9910506,"station_name":"深堀町","lon":140.769947,"lat":41.787153},{"station_cd":9910507,"station_g_cd":9910507,"station_name":"柏木町","lon":140.765226,"lat":41.787937},{"station_cd":9910508,"station_g_cd":9910508,"station_name":"杉並町","lon":140.759304,"lat":41.788689},{"station_cd":9910509,"station_g_cd":9910509,"station_name":"五稜郭公園前","lon":140.75175,"lat":41.789313},{"station_cd":9910510,"station_g_cd":9910510,"station_name":"中央病院前","lon":140.751021,"lat":41.787121},{"station_cd":9910511,"station_g_cd":9910511,"station_name":"千代台","lon":140.748532,"lat":41.784257},{"station_cd":9910512,"station_g_cd":9910512,"station_name":"堀川町","lon":140.74394,"lat":41.780433},{"station_cd":9910513,"station_g_cd":9910513,"station_name":"昭和橋","lon":140.740893,"lat":41.778017},{"station_cd":9910514,"station_g_cd":9910514,"station_name":"千歳町","lon":140.738575,"lat":41.776161},{"station_cd":9910515,"station_g_cd":9910515,"station_name":"新川町","lon":140.736601,"lat":41.77464},{"station_cd":9910516,"station_g_cd":9910516,"station_name":"松風町","lon":140.733039,"lat":41.771296},{"station_cd":9910517,"station_g_cd":1110101,"station_name":"函館駅前","lon":140.727997,"lat":41.77264},{"station_cd":9910518,"station_g_cd":9910518,"station_name":"市役所前","lon":140.72495,"lat":41.768943},{"station_cd":9910519,"station_g_cd":9910519,"station_name":"魚市場通","lon":140.721731,"lat":41.765838},{"station_cd":9910520,"station_g_cd":9910520,"station_name":"十字街","lon":140.718513,"lat":41.763998},{"station_cd":9910521,"station_g_cd":9910521,"station_name":"宝来町","lon":140.7198,"lat":41.761085},{"station_cd":9910522,"station_g_cd":9910522,"station_name":"青柳町","lon":140.718255,"lat":41.756235},{"station_cd":9910523,"station_g_cd":9910523,"station_name":"谷地頭","lon":140.71641,"lat":41.753273}]}
if(typeof(xml.onload)=='function') xml.onload(xml.data);
