<?xml version="1.0" encoding="UTF-8"?>
<ekidata version="ekidata.jp line api 1.0">
	<line>
		<line_cd>99105</line_cd>
		<line_name>函館市電２系統</line_name>
		<line_lon>140.74738524247</line_lon>
		<line_lat>41.780540656947</line_lat>
		<line_zoom>13</line_zoom>
	</line>
	<station>
		<station_cd>9910501</station_cd>
		<station_g_cd>9910501</station_g_cd>
		<station_name>湯の川</station_name>
		<lon>140.789902</lon>
		<lat>41.781073</lat>
	</station>
	<station>
		<station_cd>9910502</station_cd>
		<station_g_cd>9910502</station_g_cd>
		<station_name>湯の川温泉</station_name>
		<lon>140.784881</lon>
		<lat>41.780129</lat>
	</station>
	<station>
		<station_cd>9910503</station_cd>
		<station_g_cd>9910503</station_g_cd>
		<station_name>函館アリーナ前</station_name>
		<lon>140.782006</lon>
		<lat>41.782065</lat>
	</station>
	<station>
		<station_cd>9910504</station_cd>
		<station_g_cd>9910504</station_g_cd>
		<station_name>駒場車庫前</station_name>
		<lon>140.779216</lon>
		<lat>41.783265</lat>
	</station>
	<station>
		<station_cd>9910505</station_cd>
		<station_g_cd>9910505</station_g_cd>
		<station_name>競馬場前</station_name>
		<lon>140.775268</lon>
		<lat>41.784657</lat>
	</station>
	<station>
		<station_cd>9910506</station_cd>
		<station_g_cd>9910506</station_g_cd>
		<station_name>深堀町</station_name>
		<lon>140.769947</lon>
		<lat>41.787153</lat>
	</station>
	<station>
		<station_cd>9910507</station_cd>
		<station_g_cd>9910507</station_g_cd>
		<station_name>柏木町</station_name>
		<lon>140.765226</lon>
		<lat>41.787937</lat>
	</station>
	<station>
		<station_cd>9910508</station_cd>
		<station_g_cd>9910508</station_g_cd>
		<station_name>杉並町</station_name>
		<lon>140.759304</lon>
		<lat>41.788689</lat>
	</station>
	<station>
		<station_cd>9910509</station_cd>
		<station_g_cd>9910509</station_g_cd>
		<station_name>五稜郭公園前</station_name>
		<lon>140.75175</lon>
		<lat>41.789313</lat>
	</station>
	<station>
		<station_cd>9910510</station_cd>
		<station_g_cd>9910510</station_g_cd>
		<station_name>中央病院前</station_name>
		<lon>140.751021</lon>
		<lat>41.787121</lat>
	</station>
	<station>
		<station_cd>9910511</station_cd>
		<station_g_cd>9910511</station_g_cd>
		<station_name>千代台</station_name>
		<lon>140.748532</lon>
		<lat>41.784257</lat>
	</station>
	<station>
		<station_cd>9910512</station_cd>
		<station_g_cd>9910512</station_g_cd>
		<station_name>堀川町</station_name>
		<lon>140.74394</lon>
		<lat>41.780433</lat>
	</station>
	<station>
		<station_cd>9910513</station_cd>
		<station_g_cd>9910513</station_g_cd>
		<station_name>昭和橋</station_name>
		<lon>140.740893</lon>
		<lat>41.778017</lat>
	</station>
	<station>
		<station_cd>9910514</station_cd>
		<station_g_cd>9910514</station_g_cd>
		<station_name>千歳町</station_name>
		<lon>140.738575</lon>
		<lat>41.776161</lat>
	</station>
	<station>
		<station_cd>9910515</station_cd>
		<station_g_cd>9910515</station_g_cd>
		<station_name>新川町</station_name>
		<lon>140.736601</lon>
		<lat>41.77464</lat>
	</station>
	<station>
		<station_cd>9910516</station_cd>
		<station_g_cd>9910516</station_g_cd>
		<station_name>松風町</station_name>
		<lon>140.733039</lon>
		<lat>41.771296</lat>
	</station>
	<station>
		<station_cd>9910517</station_cd>
		<station_g_cd>1110101</station_g_cd>
		<station_name>函館駅前</station_name>
		<lon>140.727997</lon>
		<lat>41.77264</lat>
	</station>
	<station>
		<station_cd>9910518</station_cd>
		<station_g_cd>9910518</station_g_cd>
		<station_name>市役所前</station_name>
		<lon>140.72495</lon>
		<lat>41.768943</lat>
	</station>
	<station>
		<station_cd>9910519</station_cd>
		<station_g_cd>9910519</station_g_cd>
		<station_name>魚市場通</station_name>
		<lon>140.721731</lon>
		<lat>41.765838</lat>
	</station>
	<station>
		<station_cd>9910520</station_cd>
		<station_g_cd>9910520</station_g_cd>
		<station_name>十字街</station_name>
		<lon>140.718513</lon>
		<lat>41.763998</lat>
	</station>
	<station>
		<station_cd>9910521</station_cd>
		<station_g_cd>9910521</station_g_cd>
		<station_name>宝来町</station_name>
		<lon>140.7198</lon>
		<lat>41.761085</lat>
	</station>
	<station>
		<station_cd>9910522</station_cd>
		<station_g_cd>9910522</station_g_cd>
		<station_name>青柳町</station_name>
		<lon>140.718255</lon>
		<lat>41.756235</lat>
	</station>
	<station>
		<station_cd>9910523</station_cd>
		<station_g_cd>9910523</station_g_cd>
		<station_name>谷地頭</station_name>
		<lon>140.71641</lon>
		<lat>41.753273</lat>
	</station>
</ekidata>
