
if(typeof(xml)=='undefined') xml = {};
xml.data = {"line_cd":99320,"line_name":"江ノ島電鉄線","line_lon":139.51240710479,"line_lat":35.326088202628,"line_zoom":13,"station_l":[{"station_cd":9932001,"station_g_cd":1130108,"station_name":"藤沢","lon":139.487293,"lat":35.337227},{"station_cd":9932002,"station_g_cd":9932002,"station_name":"石上","lon":139.485572,"lat":35.332482},{"station_cd":9932003,"station_g_cd":9932003,"station_name":"柳小路","lon":139.485189,"lat":35.327352},{"station_cd":9932004,"station_g_cd":9932004,"station_name":"鵠沼","lon":139.482637,"lat":35.321447},{"station_cd":9932005,"station_g_cd":9932005,"station_name":"湘南海岸公園","lon":139.4833,"lat":35.315203},{"station_cd":9932006,"station_g_cd":9932006,"station_name":"江ノ島","lon":139.487581,"lat":35.311003},{"station_cd":9932007,"station_g_cd":9932007,"station_name":"腰越","lon":139.493286,"lat":35.308287},{"station_cd":9932008,"station_g_cd":9932008,"station_name":"鎌倉高校前","lon":139.500535,"lat":35.306698},{"station_cd":9932009,"station_g_cd":9932009,"station_name":"七里ヶ浜","lon":139.510101,"lat":35.306243},{"station_cd":9932010,"station_g_cd":9932010,"station_name":"稲村ヶ崎","lon":139.522322,"lat":35.30426},{"station_cd":9932011,"station_g_cd":9932011,"station_name":"極楽寺","lon":139.528721,"lat":35.309318},{"station_cd":9932012,"station_g_cd":9932012,"station_name":"長谷","lon":139.536168,"lat":35.311265},{"station_cd":9932013,"station_g_cd":9932013,"station_name":"由比ヶ浜","lon":139.54157,"lat":35.312857},{"station_cd":9932014,"station_g_cd":9932014,"station_name":"和田塚","lon":139.545362,"lat":35.31372},{"station_cd":9932015,"station_g_cd":1130812,"station_name":"鎌倉","lon":139.550121,"lat":35.318491}]}
if(typeof(xml.onload)=='function') xml.onload(xml.data);
