
if(typeof(xml)=='undefined') xml = {};
xml.data = {"line_cd":99418,"line_name":"のと鉄道七尾線","line_lon":136.90441537109,"line_lat":37.124485067777,"line_zoom":11,"station_l":[{"station_cd":9941808,"station_g_cd":1141919,"station_name":"七尾","lon":136.964501,"lat":37.041613},{"station_cd":9941801,"station_g_cd":1141920,"station_name":"和倉温泉","lon":136.925884,"lat":37.074663},{"station_cd":9941802,"station_g_cd":9941802,"station_name":"田鶴浜","lon":136.891193,"lat":37.065719},{"station_cd":9941803,"station_g_cd":9941803,"station_name":"笠師保","lon":136.857587,"lat":37.079288},{"station_cd":9941804,"station_g_cd":9941804,"station_name":"能登中島","lon":136.853339,"lat":37.109174},{"station_cd":9941805,"station_g_cd":9941805,"station_name":"西岸","lon":136.87443,"lat":37.147604},{"station_cd":9941806,"station_g_cd":9941806,"station_name":"能登鹿島","lon":136.897879,"lat":37.179723},{"station_cd":9941807,"station_g_cd":9941807,"station_name":"穴水","lon":136.904592,"lat":37.228015}]}
if(typeof(xml.onload)=='function') xml.onload(xml.data);
