
if(typeof(xml)=='undefined') xml = {};
xml.data = {"line_cd":99416,"line_name":"北陸鉄道石川線","line_lon":136.62763019846,"line_lat":36.507489305599,"line_zoom":12,"station_l":[{"station_cd":9941601,"station_g_cd":9941601,"station_name":"野町","lon":136.644309,"lat":36.553779},{"station_cd":9941602,"station_g_cd":9941602,"station_name":"西泉","lon":136.633524,"lat":36.553445},{"station_cd":9941603,"station_g_cd":1141542,"station_name":"新西金沢","lon":136.622688,"lat":36.553067},{"station_cd":9941604,"station_g_cd":9941604,"station_name":"押野","lon":136.622114,"lat":36.541805},{"station_cd":9941605,"station_g_cd":9941605,"station_name":"野々市","lon":136.620891,"lat":36.536459},{"station_cd":9941606,"station_g_cd":9941606,"station_name":"野々市工大前","lon":136.621767,"lat":36.532336},{"station_cd":9941607,"station_g_cd":9941607,"station_name":"馬替","lon":136.620576,"lat":36.522935},{"station_cd":9941608,"station_g_cd":9941608,"station_name":"額住宅前","lon":136.618851,"lat":36.518507},{"station_cd":9941609,"station_g_cd":9941609,"station_name":"乙丸","lon":136.617681,"lat":36.511853},{"station_cd":9941610,"station_g_cd":9941610,"station_name":"四十万","lon":136.615684,"lat":36.498879},{"station_cd":9941619,"station_g_cd":9941619,"station_name":"陽羽里","lon":136.614869,"lat":36.493628},{"station_cd":9941611,"station_g_cd":9941611,"station_name":"曽谷","lon":136.614407,"lat":36.490028},{"station_cd":9941612,"station_g_cd":9941612,"station_name":"道法寺","lon":136.613535,"lat":36.484315},{"station_cd":9941613,"station_g_cd":9941613,"station_name":"井口","lon":136.612307,"lat":36.476282},{"station_cd":9941614,"station_g_cd":9941614,"station_name":"小柳","lon":136.611466,"lat":36.470639},{"station_cd":9941615,"station_g_cd":9941615,"station_name":"日御子","lon":136.615199,"lat":36.46479},{"station_cd":9941616,"station_g_cd":9941616,"station_name":"鶴来","lon":136.623818,"lat":36.452178}]}
if(typeof(xml.onload)=='function') xml.onload(xml.data);
