
if(typeof(xml)=='undefined') xml = {};
xml.data = {"line_cd":99415,"line_name":"富山港線","line_lon":137.23409,"line_lat":36.761212,"line_zoom":13,"station_l":[{"station_cd":9941501,"station_g_cd":1140501,"station_name":"富山駅","lon":137.2128801,"lat":36.70161021},{"station_cd":9941502,"station_g_cd":9941502,"station_name":"インテック本社前","lon":137.216685,"lat":36.703556},{"station_cd":9941503,"station_g_cd":9941503,"station_name":"奥田中学校前","lon":137.223637,"lat":36.703522},{"station_cd":9941504,"station_g_cd":9941504,"station_name":"下奥井","lon":137.224478,"lat":36.711311},{"station_cd":9941505,"station_g_cd":9941505,"station_name":"粟島（大阪屋ショップ前）","lon":137.224796,"lat":36.719391},{"station_cd":9941506,"station_g_cd":9941506,"station_name":"越中中島","lon":137.224844,"lat":36.722121},{"station_cd":9941507,"station_g_cd":9941507,"station_name":"城川原","lon":137.226082,"lat":36.731103},{"station_cd":9941508,"station_g_cd":9941508,"station_name":"犬島新町","lon":137.22662,"lat":36.735445},{"station_cd":9941509,"station_g_cd":9941509,"station_name":"蓮町（馬場記念公園前）","lon":137.227463,"lat":36.742663},{"station_cd":9941510,"station_g_cd":9941510,"station_name":"萩浦小学校前","lon":137.228643,"lat":36.748602},{"station_cd":9941511,"station_g_cd":9941511,"station_name":"東岩瀬","lon":137.230479,"lat":36.751935},{"station_cd":9941512,"station_g_cd":9941512,"station_name":"競輪場前","lon":137.233907,"lat":36.757454},{"station_cd":9941513,"station_g_cd":9941513,"station_name":"岩瀬浜","lon":137.23409,"lat":36.761212}]}
if(typeof(xml.onload)=='function') xml.onload(xml.data);
