<?xml version="1.0" encoding="UTF-8"?>
<ekidata version="ekidata.jp line api 1.0">
	<line>
		<line_cd>99503</line_cd>
		<line_name>岳南鉄道線</line_name>
		<line_lon>138.71412137725</line_lon>
		<line_lat>35.15955767005</line_lat>
		<line_zoom>13</line_zoom>
	</line>
	<station>
		<station_cd>9950301</station_cd>
		<station_g_cd>1150108</station_g_cd>
		<station_name>吉原</station_name>
		<lon>138.701839</lon>
		<lat>35.144176</lat>
	</station>
	<station>
		<station_cd>9950302</station_cd>
		<station_g_cd>9950302</station_g_cd>
		<station_name>ジヤトコ前（ジヤトコ１地区前）</station_name>
		<lon>138.690076</lon>
		<lat>35.157775</lat>
	</station>
	<station>
		<station_cd>9950303</station_cd>
		<station_g_cd>9950303</station_g_cd>
		<station_name>吉原本町</station_name>
		<lon>138.689774</lon>
		<lat>35.160821</lat>
	</station>
	<station>
		<station_cd>9950304</station_cd>
		<station_g_cd>9950304</station_g_cd>
		<station_name>本吉原</station_name>
		<lon>138.692716</lon>
		<lat>35.161946</lat>
	</station>
	<station>
		<station_cd>9950305</station_cd>
		<station_g_cd>9950305</station_g_cd>
		<station_name>岳南原田</station_name>
		<lon>138.704517</lon>
		<lat>35.166076</lat>
	</station>
	<station>
		<station_cd>9950306</station_cd>
		<station_g_cd>9950306</station_g_cd>
		<station_name>比奈</station_name>
		<lon>138.713602</lon>
		<lat>35.161485</lat>
	</station>
	<station>
		<station_cd>9950307</station_cd>
		<station_g_cd>9950307</station_g_cd>
		<station_name>岳南富士岡</station_name>
		<lon>138.723356</lon>
		<lat>35.160949</lat>
	</station>
	<station>
		<station_cd>9950308</station_cd>
		<station_g_cd>9950308</station_g_cd>
		<station_name>須津</station_name>
		<lon>138.733944</lon>
		<lat>35.160444</lat>
	</station>
	<station>
		<station_cd>9950309</station_cd>
		<station_g_cd>9950309</station_g_cd>
		<station_name>神谷</station_name>
		<lon>138.74303</lon>
		<lat>35.16103</lat>
	</station>
	<station>
		<station_cd>9950310</station_cd>
		<station_g_cd>9950310</station_g_cd>
		<station_name>岳南江尾</station_name>
		<lon>138.751793</lon>
		<lat>35.155261</lat>
	</station>
</ekidata>
