
if(typeof(xml)=='undefined') xml = {};
xml.data = {"line_cd":99502,"line_name":"伊豆箱根鉄道駿豆線","line_lon":138.9315606353,"line_lat":35.056607988173,"line_zoom":12,"station_l":[{"station_cd":9950201,"station_g_cd":1150103,"station_name":"三島","lon":138.911369,"lat":35.125946},{"station_cd":9950202,"station_g_cd":9950202,"station_name":"三島広小路","lon":138.911202,"lat":35.119272},{"station_cd":9950203,"station_g_cd":9950203,"station_name":"三島田町","lon":138.918421,"lat":35.116205},{"station_cd":9950204,"station_g_cd":9950204,"station_name":"三島二日町","lon":138.926001,"lat":35.111039},{"station_cd":9950205,"station_g_cd":9950205,"station_name":"大場","lon":138.939414,"lat":35.092569},{"station_cd":9950206,"station_g_cd":9950206,"station_name":"伊豆仁田","lon":138.941509,"lat":35.078821},{"station_cd":9950207,"station_g_cd":9950207,"station_name":"原木","lon":138.943695,"lat":35.065653},{"station_cd":9950208,"station_g_cd":9950208,"station_name":"韮山","lon":138.945467,"lat":35.053547},{"station_cd":9950209,"station_g_cd":9950209,"station_name":"伊豆長岡","lon":138.947539,"lat":35.039907},{"station_cd":9950210,"station_g_cd":9950210,"station_name":"田京","lon":138.945767,"lat":35.014551},{"station_cd":9950211,"station_g_cd":9950211,"station_name":"大仁","lon":138.937527,"lat":34.994467},{"station_cd":9950212,"station_g_cd":9950212,"station_name":"牧之郷","lon":138.954317,"lat":34.988677},{"station_cd":9950213,"station_g_cd":9950213,"station_name":"修善寺","lon":138.950545,"lat":34.979091}]}
if(typeof(xml.onload)=='function') xml.onload(xml.data);
