
if(typeof(xml)=='undefined') xml = {};
xml.data = {"line_cd":99511,"line_name":"愛知環状鉄道線","line_lon":137.12218816695,"line_lat":35.121306340265,"line_zoom":10,"station_l":[{"station_cd":9951101,"station_g_cd":1150219,"station_name":"岡崎","lon":137.157243,"lat":34.925417},{"station_cd":9951102,"station_g_cd":9951102,"station_name":"六名","lon":137.152004,"lat":34.941132},{"station_cd":9951103,"station_g_cd":3000114,"station_name":"中岡崎","lon":137.152723,"lat":34.956231},{"station_cd":9951104,"station_g_cd":9951104,"station_name":"北岡崎","lon":137.157736,"lat":34.972301},{"station_cd":9951105,"station_g_cd":9951105,"station_name":"大門","lon":137.154883,"lat":34.982411},{"station_cd":9951106,"station_g_cd":9951106,"station_name":"北野桝塚","lon":137.139457,"lat":34.996289},{"station_cd":9951107,"station_g_cd":9951107,"station_name":"三河上郷","lon":137.132756,"lat":35.012384},{"station_cd":9951108,"station_g_cd":9951108,"station_name":"永覚","lon":137.138983,"lat":35.027361},{"station_cd":9951109,"station_g_cd":9951109,"station_name":"末野原","lon":137.146866,"lat":35.03949},{"station_cd":9951110,"station_g_cd":9951110,"station_name":"三河豊田","lon":137.150934,"lat":35.0554},{"station_cd":9951111,"station_g_cd":9951111,"station_name":"新上挙母","lon":137.151206,"lat":35.071732},{"station_cd":9951112,"station_g_cd":9951112,"station_name":"新豊田","lon":137.153524,"lat":35.088041},{"station_cd":9951113,"station_g_cd":9951113,"station_name":"愛環梅坪","lon":137.160781,"lat":35.105056},{"station_cd":9951114,"station_g_cd":9951114,"station_name":"四郷","lon":137.162635,"lat":35.12211},{"station_cd":9951115,"station_g_cd":9951115,"station_name":"貝津","lon":137.148091,"lat":35.133089},{"station_cd":9951116,"station_g_cd":9951116,"station_name":"保見","lon":137.134363,"lat":35.136665},{"station_cd":9951117,"station_g_cd":9951117,"station_name":"篠原","lon":137.120592,"lat":35.155171},{"station_cd":9951118,"station_g_cd":9951118,"station_name":"八草","lon":137.106945,"lat":35.175404},{"station_cd":9951119,"station_g_cd":9951119,"station_name":"山口","lon":137.102089,"lat":35.197656},{"station_cd":9951120,"station_g_cd":9951120,"station_name":"瀬戸口","lon":137.081866,"lat":35.206679},{"station_cd":9951121,"station_g_cd":3001218,"station_name":"瀬戸市","lon":137.078452,"lat":35.225921},{"station_cd":9951122,"station_g_cd":9951122,"station_name":"中水野","lon":137.071947,"lat":35.250399},{"station_cd":9951123,"station_g_cd":1141110,"station_name":"高蔵寺","lon":137.043766,"lat":35.26434}]}
if(typeof(xml.onload)=='function') xml.onload(xml.data);
