<?xml version="1.0" encoding="UTF-8"?>
<ekidata version="ekidata.jp line api 1.0">
	<line>
		<line_cd>99516</line_cd>
		<line_name>名古屋市営地下鉄鶴舞線</line_name>
		<line_lon>136.93611688203</line_lon>
		<line_lat>35.170990108991</line_lat>
		<line_zoom>12</line_zoom>
	</line>
	<station>
		<station_cd>9951601</station_cd>
		<station_g_cd>3001506</station_g_cd>
		<station_name>上小田井</station_name>
		<lon>136.876941</lon>
		<lat>35.223482</lat>
	</station>
	<station>
		<station_cd>9951602</station_cd>
		<station_g_cd>9951602</station_g_cd>
		<station_name>庄内緑地公園</station_name>
		<lon>136.886963</lon>
		<lat>35.215186</lat>
	</station>
	<station>
		<station_cd>9951603</station_cd>
		<station_g_cd>9951603</station_g_cd>
		<station_name>庄内通</station_name>
		<lon>136.891044</lon>
		<lat>35.204476</lat>
	</station>
	<station>
		<station_cd>9951604</station_cd>
		<station_g_cd>9951604</station_g_cd>
		<station_name>浄心</station_name>
		<lon>136.890819</lon>
		<lat>35.192205</lat>
	</station>
	<station>
		<station_cd>9951605</station_cd>
		<station_g_cd>9951605</station_g_cd>
		<station_name>浅間町</station_name>
		<lon>136.890335</lon>
		<lat>35.18384</lat>
	</station>
	<station>
		<station_cd>9951606</station_cd>
		<station_g_cd>9951606</station_g_cd>
		<station_name>丸の内</station_name>
		<lon>136.896944</lon>
		<lat>35.173458</lat>
	</station>
	<station>
		<station_cd>9951607</station_cd>
		<station_g_cd>9951309</station_g_cd>
		<station_name>伏見</station_name>
		<lon>136.897427</lon>
		<lat>35.169273</lat>
	</station>
	<station>
		<station_cd>9951608</station_cd>
		<station_g_cd>9951608</station_g_cd>
		<station_name>大須観音</station_name>
		<lon>136.898158</lon>
		<lat>35.160729</lat>
	</station>
	<station>
		<station_cd>9951609</station_cd>
		<station_g_cd>9951411</station_g_cd>
		<station_name>上前津</station_name>
		<lon>136.906815</lon>
		<lat>35.157477</lat>
	</station>
	<station>
		<station_cd>9951610</station_cd>
		<station_g_cd>1141103</station_g_cd>
		<station_name>鶴舞</station_name>
		<lon>136.916749</lon>
		<lat>35.15596</lat>
	</station>
	<station>
		<station_cd>9951611</station_cd>
		<station_g_cd>9951611</station_g_cd>
		<station_name>荒畑</station_name>
		<lon>136.92593</lon>
		<lat>35.149654</lat>
	</station>
	<station>
		<station_cd>9951612</station_cd>
		<station_g_cd>9951612</station_g_cd>
		<station_name>御器所</station_name>
		<lon>136.934146</lon>
		<lat>35.149585</lat>
	</station>
	<station>
		<station_cd>9951613</station_cd>
		<station_g_cd>9951613</station_g_cd>
		<station_name>川名</station_name>
		<lon>136.948717</lon>
		<lat>35.148703</lat>
	</station>
	<station>
		<station_cd>9951614</station_cd>
		<station_g_cd>9951614</station_g_cd>
		<station_name>いりなか</station_name>
		<lon>136.955375</lon>
		<lat>35.143234</lat>
	</station>
	<station>
		<station_cd>9951615</station_cd>
		<station_g_cd>9951422</station_g_cd>
		<station_name>八事</station_name>
		<lon>136.964036</lon>
		<lat>35.136946</lat>
	</station>
	<station>
		<station_cd>9951616</station_cd>
		<station_g_cd>9951616</station_g_cd>
		<station_name>塩釜口</station_name>
		<lon>136.977529</lon>
		<lat>35.132433</lat>
	</station>
	<station>
		<station_cd>9951617</station_cd>
		<station_g_cd>9951617</station_g_cd>
		<station_name>植田</station_name>
		<lon>136.987882</lon>
		<lat>35.128649</lat>
	</station>
	<station>
		<station_cd>9951618</station_cd>
		<station_g_cd>9951618</station_g_cd>
		<station_name>原</station_name>
		<lon>136.996714</lon>
		<lat>35.126118</lat>
	</station>
	<station>
		<station_cd>9951619</station_cd>
		<station_g_cd>9951619</station_g_cd>
		<station_name>平針</station_name>
		<lon>137.006904</lon>
		<lat>35.122766</lat>
	</station>
	<station>
		<station_cd>9951620</station_cd>
		<station_g_cd>3000609</station_g_cd>
		<station_name>赤池</station_name>
		<lon>137.017978</lon>
		<lat>35.121097</lat>
	</station>
</ekidata>
