<?xml version="1.0" encoding="UTF-8"?>
<ekidata version="ekidata.jp line api 1.0">
	<line>
		<line_cd>99517</line_cd>
		<line_name>名古屋市営地下鉄桜通線</line_name>
		<line_lon>136.93822438628</line_lon>
		<line_lat>35.140667554001</line_lat>
		<line_zoom>12</line_zoom>
	</line>
	<station>
		<station_cd>9951701</station_cd>
		<station_g_cd>9951701</station_g_cd>
		<station_name>中村区役所</station_name>
		<lon>136.873126</lon>
		<lat>35.167611</lat>
	</station>
	<station>
		<station_cd>9951702</station_cd>
		<station_g_cd>1141101</station_g_cd>
		<station_name>名古屋</station_name>
		<lon>136.882546</lon>
		<lat>35.170761</lat>
	</station>
	<station>
		<station_cd>9951703</station_cd>
		<station_g_cd>9951703</station_g_cd>
		<station_name>国際センター</station_name>
		<lon>136.889375</lon>
		<lat>35.172128</lat>
	</station>
	<station>
		<station_cd>9951704</station_cd>
		<station_g_cd>9951606</station_g_cd>
		<station_name>丸の内</station_name>
		<lon>136.898113</lon>
		<lat>35.173098</lat>
	</station>
	<station>
		<station_cd>9951705</station_cd>
		<station_g_cd>9951408</station_g_cd>
		<station_name>久屋大通</station_name>
		<lon>136.908156</lon>
		<lat>35.173784</lat>
	</station>
	<station>
		<station_cd>9951706</station_cd>
		<station_g_cd>9951706</station_g_cd>
		<station_name>高岳</station_name>
		<lon>136.915656</lon>
		<lat>35.174062</lat>
	</station>
	<station>
		<station_cd>9951707</station_cd>
		<station_g_cd>9951707</station_g_cd>
		<station_name>車道</station_name>
		<lon>136.929543</lon>
		<lat>35.173507</lat>
	</station>
	<station>
		<station_cd>9951708</station_cd>
		<station_g_cd>9951313</station_g_cd>
		<station_name>今池</station_name>
		<lon>136.937331</lon>
		<lat>35.169919</lat>
	</station>
	<station>
		<station_cd>9951709</station_cd>
		<station_g_cd>9951709</station_g_cd>
		<station_name>吹上</station_name>
		<lon>136.935376</lon>
		<lat>35.158787</lat>
	</station>
	<station>
		<station_cd>9951710</station_cd>
		<station_g_cd>9951612</station_g_cd>
		<station_name>御器所</station_name>
		<lon>136.934146</lon>
		<lat>35.149585</lat>
	</station>
	<station>
		<station_cd>9951711</station_cd>
		<station_g_cd>9951711</station_g_cd>
		<station_name>桜山</station_name>
		<lon>136.933316</lon>
		<lat>35.139695</lat>
	</station>
	<station>
		<station_cd>9951712</station_cd>
		<station_g_cd>9951712</station_g_cd>
		<station_name>瑞穂区役所</station_name>
		<lon>136.93443</lon>
		<lat>35.131793</lat>
	</station>
	<station>
		<station_cd>9951713</station_cd>
		<station_g_cd>9951713</station_g_cd>
		<station_name>瑞穂運動場西</station_name>
		<lon>136.935477</lon>
		<lat>35.124949</lat>
	</station>
	<station>
		<station_cd>9951714</station_cd>
		<station_g_cd>9951419</station_g_cd>
		<station_name>新瑞橋</station_name>
		<lon>136.936603</lon>
		<lat>35.117734</lat>
	</station>
	<station>
		<station_cd>9951715</station_cd>
		<station_g_cd>9951715</station_g_cd>
		<station_name>桜本町</station_name>
		<lon>136.936761</lon>
		<lat>35.109001</lat>
	</station>
	<station>
		<station_cd>9951716</station_cd>
		<station_g_cd>9951716</station_g_cd>
		<station_name>鶴里</station_name>
		<lon>136.943433</lon>
		<lat>35.105738</lat>
	</station>
	<station>
		<station_cd>9951717</station_cd>
		<station_g_cd>9951717</station_g_cd>
		<station_name>野並</station_name>
		<lon>136.95549</lon>
		<lat>35.102358</lat>
	</station>
	<station>
		<station_cd>9951718</station_cd>
		<station_g_cd>9951718</station_g_cd>
		<station_name>鳴子北</station_name>
		<lon>136.966209</lon>
		<lat>35.102684</lat>
	</station>
	<station>
		<station_cd>9951719</station_cd>
		<station_g_cd>9951719</station_g_cd>
		<station_name>相生山</station_name>
		<lon>136.976208</lon>
		<lat>35.102545</lat>
	</station>
	<station>
		<station_cd>9951720</station_cd>
		<station_g_cd>9951720</station_g_cd>
		<station_name>神沢</station_name>
		<lon>136.98954</lon>
		<lat>35.098518</lat>
	</station>
	<station>
		<station_cd>9951721</station_cd>
		<station_g_cd>9951721</station_g_cd>
		<station_name>徳重</station_name>
		<lon>136.99815</lon>
		<lat>35.094491</lat>
	</station>
</ekidata>
