<?xml version="1.0" encoding="UTF-8"?>
<ekidata version="ekidata.jp line api 1.0">
	<line>
		<line_cd>99603</line_cd>
		<line_name>近江鉄道八日市線</line_name>
		<line_lon>136.15042189411</line_lon>
		<line_lat>35.110963744067</line_lat>
		<line_zoom>13</line_zoom>
	</line>
	<station>
		<station_cd>9960301</station_cd>
		<station_g_cd>9960112</station_g_cd>
		<station_name>八日市</station_name>
		<lon>136.194582</lon>
		<lat>35.114264</lat>
	</station>
	<station>
		<station_cd>9960302</station_cd>
		<station_g_cd>9960302</station_g_cd>
		<station_name>新八日市</station_name>
		<lon>136.191141</lon>
		<lat>35.110356</lat>
	</station>
	<station>
		<station_cd>9960303</station_cd>
		<station_g_cd>9960303</station_g_cd>
		<station_name>太郎坊宮前</station_name>
		<lon>136.183958</lon>
		<lat>35.108608</lat>
	</station>
	<station>
		<station_cd>9960304</station_cd>
		<station_g_cd>9960304</station_g_cd>
		<station_name>市辺</station_name>
		<lon>136.165641</lon>
		<lat>35.103848</lat>
	</station>
	<station>
		<station_cd>9960305</station_cd>
		<station_g_cd>9960305</station_g_cd>
		<station_name>平田</station_name>
		<lon>136.146612</lon>
		<lat>35.11023</lat>
	</station>
	<station>
		<station_cd>9960306</station_cd>
		<station_g_cd>9960306</station_g_cd>
		<station_name>武佐</station_name>
		<lon>136.130692</lon>
		<lat>35.114894</lat>
	</station>
	<station>
		<station_cd>9960307</station_cd>
		<station_g_cd>1160108</station_g_cd>
		<station_name>近江八幡</station_name>
		<lon>136.102812</lon>
		<lat>35.12241</lat>
	</station>
</ekidata>
