<?xml version="1.0" encoding="UTF-8"?>
<ekidata version="ekidata.jp line api 1.0">
	<line>
		<line_cd>99601</line_cd>
		<line_name>近江鉄道本線</line_name>
		<line_lon>136.21097576145</line_lon>
		<line_lat>35.155042485373</line_lat>
		<line_zoom>10</line_zoom>
	</line>
	<station>
		<station_cd>9960101</station_cd>
		<station_g_cd>1141501</station_g_cd>
		<station_name>米原</station_name>
		<lon>136.291097</lon>
		<lat>35.314578</lat>
	</station>
	<station>
		<station_cd>9960102</station_cd>
		<station_g_cd>9960102</station_g_cd>
		<station_name>フジテック前</station_name>
		<lon>136.285465</lon>
		<lat>35.294672</lat>
	</station>
	<station>
		<station_cd>9960103</station_cd>
		<station_g_cd>9960103</station_g_cd>
		<station_name>鳥居本</station_name>
		<lon>136.283031</lon>
		<lat>35.284788</lat>
	</station>
	<station>
		<station_cd>9960104</station_cd>
		<station_g_cd>1160102</station_g_cd>
		<station_name>彦根</station_name>
		<lon>136.26353</lon>
		<lat>35.271778</lat>
	</station>
	<station>
		<station_cd>9960125</station_cd>
		<station_g_cd>9960125</station_g_cd>
		<station_name>ひこね芹川</station_name>
		<lon>136.260939</lon>
		<lat>35.262195</lat>
	</station>
	<station>
		<station_cd>9960105</station_cd>
		<station_g_cd>9960105</station_g_cd>
		<station_name>彦根口</station_name>
		<lon>136.25826</lon>
		<lat>35.254741</lat>
	</station>
	<station>
		<station_cd>9960106</station_cd>
		<station_g_cd>9960106</station_g_cd>
		<station_name>高宮</station_name>
		<lon>136.260524</lon>
		<lat>35.236266</lat>
	</station>
	<station>
		<station_cd>9960107</station_cd>
		<station_g_cd>9960107</station_g_cd>
		<station_name>尼子</station_name>
		<lon>136.246148</lon>
		<lat>35.213967</lat>
	</station>
	<station>
		<station_cd>9960108</station_cd>
		<station_g_cd>9960108</station_g_cd>
		<station_name>豊郷</station_name>
		<lon>136.230946</lon>
		<lat>35.197863</lat>
	</station>
	<station>
		<station_cd>9960109</station_cd>
		<station_g_cd>9960109</station_g_cd>
		<station_name>愛知川</station_name>
		<lon>136.213378</lon>
		<lat>35.176119</lat>
	</station>
	<station>
		<station_cd>9960110</station_cd>
		<station_g_cd>9960110</station_g_cd>
		<station_name>五箇荘</station_name>
		<lon>136.197146</lon>
		<lat>35.154476</lat>
	</station>
	<station>
		<station_cd>9960111</station_cd>
		<station_g_cd>9960111</station_g_cd>
		<station_name>河辺の森</station_name>
		<lon>136.196218</lon>
		<lat>35.135353</lat>
	</station>
	<station>
		<station_cd>9960112</station_cd>
		<station_g_cd>9960112</station_g_cd>
		<station_name>八日市</station_name>
		<lon>136.194582</lon>
		<lat>35.114264</lat>
	</station>
	<station>
		<station_cd>9960113</station_cd>
		<station_g_cd>9960113</station_g_cd>
		<station_name>長谷野</station_name>
		<lon>136.187561</lon>
		<lat>35.095626</lat>
	</station>
	<station>
		<station_cd>9960114</station_cd>
		<station_g_cd>9960114</station_g_cd>
		<station_name>大学前</station_name>
		<lon>136.184698</lon>
		<lat>35.087733</lat>
	</station>
	<station>
		<station_cd>9960115</station_cd>
		<station_g_cd>9960115</station_g_cd>
		<station_name>京セラ前</station_name>
		<lon>136.180382</lon>
		<lat>35.074748</lat>
	</station>
	<station>
		<station_cd>9960116</station_cd>
		<station_g_cd>9960116</station_g_cd>
		<station_name>桜川</station_name>
		<lon>136.187488</lon>
		<lat>35.065052</lat>
	</station>
	<station>
		<station_cd>9960117</station_cd>
		<station_g_cd>9960117</station_g_cd>
		<station_name>朝日大塚</station_name>
		<lon>136.193568</lon>
		<lat>35.05106</lat>
	</station>
	<station>
		<station_cd>9960118</station_cd>
		<station_g_cd>9960118</station_g_cd>
		<station_name>朝日野</station_name>
		<lon>136.20572</lon>
		<lat>35.03154</lat>
	</station>
	<station>
		<station_cd>9960119</station_cd>
		<station_g_cd>9960119</station_g_cd>
		<station_name>日野</station_name>
		<lon>136.219457</lon>
		<lat>35.012203</lat>
	</station>
	<station>
		<station_cd>9960120</station_cd>
		<station_g_cd>9960120</station_g_cd>
		<station_name>水口松尾</station_name>
		<lon>136.18644</lon>
		<lat>34.980224</lat>
	</station>
	<station>
		<station_cd>9960121</station_cd>
		<station_g_cd>9960121</station_g_cd>
		<station_name>水口</station_name>
		<lon>136.17683</lon>
		<lat>34.974238</lat>
	</station>
	<station>
		<station_cd>9960122</station_cd>
		<station_g_cd>9960122</station_g_cd>
		<station_name>水口石橋</station_name>
		<lon>136.171625</lon>
		<lat>34.970072</lat>
	</station>
	<station>
		<station_cd>9960123</station_cd>
		<station_g_cd>9960123</station_g_cd>
		<station_name>水口城南</station_name>
		<lon>136.165648</lon>
		<lat>34.968181</lat>
	</station>
	<station>
		<station_cd>9960124</station_cd>
		<station_g_cd>1151106</station_g_cd>
		<station_name>貴生川</station_name>
		<lon>136.153876</lon>
		<lat>34.952455</lat>
	</station>
</ekidata>
