<?xml version="1.0" encoding="UTF-8"?>
<ekidata version="ekidata.jp line api 1.0">
	<line>
		<line_cd>99620</line_cd>
		<line_name>大阪メトロ四つ橋線</line_name>
		<line_lon>135.4936511092</line_lon>
		<line_lat>34.657919959217</line_lat>
		<line_zoom>13</line_zoom>
	</line>
	<station>
		<station_cd>9962001</station_cd>
		<station_g_cd>1160214</station_g_cd>
		<station_name>西梅田</station_name>
		<lon>135.495802</lon>
		<lat>34.699642</lat>
	</station>
	<station>
		<station_cd>9962002</station_cd>
		<station_g_cd>3300804</station_g_cd>
		<station_name>肥後橋</station_name>
		<lon>135.496388</lon>
		<lat>34.691355</lat>
	</station>
	<station>
		<station_cd>9962003</station_cd>
		<station_g_cd>9961808</station_g_cd>
		<station_name>本町</station_name>
		<lon>135.498982</lon>
		<lat>34.681936</lat>
	</station>
	<station>
		<station_cd>9962004</station_cd>
		<station_g_cd>9962004</station_g_cd>
		<station_name>四ツ橋</station_name>
		<lon>135.496783</lon>
		<lat>34.674112</lat>
	</station>
	<station>
		<station_cd>9962005</station_cd>
		<station_g_cd>3100101</station_g_cd>
		<station_name>なんば</station_name>
		<lon>135.497539</lon>
		<lat>34.666402</lat>
	</station>
	<station>
		<station_cd>9962006</station_cd>
		<station_g_cd>9961811</station_g_cd>
		<station_name>大国町</station_name>
		<lon>135.4978</lon>
		<lat>34.656075</lat>
	</station>
	<station>
		<station_cd>9962007</station_cd>
		<station_g_cd>9962007</station_g_cd>
		<station_name>花園町</station_name>
		<lon>135.496636</lon>
		<lat>34.644371</lat>
	</station>
	<station>
		<station_cd>9962008</station_cd>
		<station_g_cd>9962008</station_g_cd>
		<station_name>岸里</station_name>
		<lon>135.493859</lon>
		<lat>34.634372</lat>
	</station>
	<station>
		<station_cd>9962009</station_cd>
		<station_g_cd>9962009</station_g_cd>
		<station_name>玉出</station_name>
		<lon>135.490527</lon>
		<lat>34.624096</lat>
	</station>
	<station>
		<station_cd>9962010</station_cd>
		<station_g_cd>9962010</station_g_cd>
		<station_name>北加賀屋</station_name>
		<lon>135.478861</lon>
		<lat>34.621318</lat>
	</station>
	<station>
		<station_cd>9962011</station_cd>
		<station_g_cd>9962011</station_g_cd>
		<station_name>住之江公園</station_name>
		<lon>135.471879</lon>
		<lat>34.609269</lat>
	</station>
</ekidata>
