
if(typeof(xml)=='undefined') xml = {};
xml.data = {"line_cd":99620,"line_name":"大阪メトロ四つ橋線","line_lon":135.4936511092,"line_lat":34.657919959217,"line_zoom":13,"station_l":[{"station_cd":9962001,"station_g_cd":1160214,"station_name":"西梅田","lon":135.495802,"lat":34.699642},{"station_cd":9962002,"station_g_cd":3300804,"station_name":"肥後橋","lon":135.496388,"lat":34.691355},{"station_cd":9962003,"station_g_cd":9961808,"station_name":"本町","lon":135.498982,"lat":34.681936},{"station_cd":9962004,"station_g_cd":9962004,"station_name":"四ツ橋","lon":135.496783,"lat":34.674112},{"station_cd":9962005,"station_g_cd":3100101,"station_name":"なんば","lon":135.497539,"lat":34.666402},{"station_cd":9962006,"station_g_cd":9961811,"station_name":"大国町","lon":135.4978,"lat":34.656075},{"station_cd":9962007,"station_g_cd":9962007,"station_name":"花園町","lon":135.496636,"lat":34.644371},{"station_cd":9962008,"station_g_cd":9962008,"station_name":"岸里","lon":135.493859,"lat":34.634372},{"station_cd":9962009,"station_g_cd":9962009,"station_name":"玉出","lon":135.490527,"lat":34.624096},{"station_cd":9962010,"station_g_cd":9962010,"station_name":"北加賀屋","lon":135.478861,"lat":34.621318},{"station_cd":9962011,"station_g_cd":9962011,"station_name":"住之江公園","lon":135.471879,"lat":34.609269}]}
if(typeof(xml.onload)=='function') xml.onload(xml.data);
