<?xml version="1.0" encoding="UTF-8"?>
<ekidata version="ekidata.jp line api 1.0">
	<line>
		<line_cd>99626</line_cd>
		<line_name>大阪モノレール線</line_name>
		<line_lon>135.52449542857</line_lon>
		<line_lat>34.789061357143</line_lat>
		<line_zoom>12</line_zoom>
	</line>
	<station>
		<station_cd>9962601</station_cd>
		<station_g_cd>9962601</station_g_cd>
		<station_name>大阪空港</station_name>
		<lon>135.441821</lon>
		<lat>34.791598</lat>
	</station>
	<station>
		<station_cd>9962602</station_cd>
		<station_g_cd>3400210</station_g_cd>
		<station_name>蛍池</station_name>
		<lon>135.449229</lon>
		<lat>34.794639</lat>
	</station>
	<station>
		<station_cd>9962603</station_cd>
		<station_g_cd>9962603</station_g_cd>
		<station_name>柴原阪大前</station_name>
		<lon>135.458734</lon>
		<lat>34.800266</lat>
	</station>
	<station>
		<station_cd>9962604</station_cd>
		<station_g_cd>9962604</station_g_cd>
		<station_name>少路</station_name>
		<lon>135.47551</lon>
		<lat>34.804246</lat>
	</station>
	<station>
		<station_cd>9962605</station_cd>
		<station_g_cd>9961401</station_g_cd>
		<station_name>千里中央</station_name>
		<lon>135.495114</lon>
		<lat>34.807479</lat>
	</station>
	<station>
		<station_cd>9962606</station_cd>
		<station_g_cd>3400802</station_g_cd>
		<station_name>山田</station_name>
		<lon>135.515435</lon>
		<lat>34.805664</lat>
	</station>
	<station>
		<station_cd>9962607</station_cd>
		<station_g_cd>9962607</station_g_cd>
		<station_name>万博記念公園</station_name>
		<lon>135.530228</lon>
		<lat>34.806692</lat>
	</station>
	<station>
		<station_cd>9962608</station_cd>
		<station_g_cd>9962608</station_g_cd>
		<station_name>宇野辺</station_name>
		<lon>135.554406</lon>
		<lat>34.808</lat>
	</station>
	<station>
		<station_cd>9962609</station_cd>
		<station_g_cd>3400318</station_g_cd>
		<station_name>南茨木</station_name>
		<lon>135.564777</lon>
		<lat>34.803206</lat>
	</station>
	<station>
		<station_cd>9962610</station_cd>
		<station_g_cd>9962610</station_g_cd>
		<station_name>沢良宜</station_name>
		<lon>135.566166</lon>
		<lat>34.793902</lat>
	</station>
	<station>
		<station_cd>9962611</station_cd>
		<station_g_cd>9962611</station_g_cd>
		<station_name>摂津</station_name>
		<lon>135.561483</lon>
		<lat>34.779842</lat>
	</station>
	<station>
		<station_cd>9962612</station_cd>
		<station_g_cd>9962612</station_g_cd>
		<station_name>南摂津</station_name>
		<lon>135.568572</lon>
		<lat>34.765394</lat>
	</station>
	<station>
		<station_cd>9962613</station_cd>
		<station_g_cd>9961901</station_g_cd>
		<station_name>大日</station_name>
		<lon>135.578928</lon>
		<lat>34.74885</lat>
	</station>
	<station>
		<station_cd>9962614</station_cd>
		<station_g_cd>3300128</station_g_cd>
		<station_name>門真市</station_name>
		<lon>135.582533</lon>
		<lat>34.737081</lat>
	</station>
</ekidata>
