<?xml version="1.0" encoding="UTF-8"?>
<ekidata version="ekidata.jp line api 1.0">
	<line>
		<line_cd>99623</line_cd>
		<line_name>大阪メトロ堺筋線</line_name>
		<line_lon>135.50830001377</line_lon>
		<line_lat>34.677623115531</line_lat>
		<line_zoom>13</line_zoom>
	</line>
	<station>
		<station_cd>9962301</station_cd>
		<station_g_cd>3400811</station_g_cd>
		<station_name>天神橋筋六丁目</station_name>
		<lon>135.510757</lon>
		<lat>34.710265</lat>
	</station>
	<station>
		<station_cd>9962302</station_cd>
		<station_g_cd>1162311</station_g_cd>
		<station_name>扇町</station_name>
		<lon>135.5108</lon>
		<lat>34.703809</lat>
	</station>
	<station>
		<station_cd>9962303</station_cd>
		<station_g_cd>1162503</station_g_cd>
		<station_name>南森町</station_name>
		<lon>135.511078</lon>
		<lat>34.697699</lat>
	</station>
	<station>
		<station_cd>9962304</station_cd>
		<station_g_cd>3300139</station_g_cd>
		<station_name>北浜</station_name>
		<lon>135.506634</lon>
		<lat>34.691588</lat>
	</station>
	<station>
		<station_cd>9962305</station_cd>
		<station_g_cd>9962108</station_g_cd>
		<station_name>堺筋本町</station_name>
		<lon>135.506912</lon>
		<lat>34.681867</lat>
	</station>
	<station>
		<station_cd>9962306</station_cd>
		<station_g_cd>9962306</station_g_cd>
		<station_name>長堀橋</station_name>
		<lon>135.506357</lon>
		<lat>34.674645</lat>
	</station>
	<station>
		<station_cd>9962307</station_cd>
		<station_g_cd>3100102</station_g_cd>
		<station_name>日本橋</station_name>
		<lon>135.506635</lon>
		<lat>34.667146</lat>
	</station>
	<station>
		<station_cd>9962308</station_cd>
		<station_g_cd>9962308</station_g_cd>
		<station_name>恵美須町</station_name>
		<lon>135.505575</lon>
		<lat>34.65508</lat>
	</station>
	<station>
		<station_cd>9962309</station_cd>
		<station_g_cd>1160720</station_g_cd>
		<station_name>動物園前</station_name>
		<lon>135.504413</lon>
		<lat>34.648815</lat>
	</station>
	<station>
		<station_cd>9962310</station_cd>
		<station_g_cd>3200103</station_g_cd>
		<station_name>天下茶屋</station_name>
		<lon>135.496673</lon>
		<lat>34.636847</lat>
	</station>
</ekidata>
