<?xml version="1.0" encoding="UTF-8"?>
<ekidata version="ekidata.jp line api 1.0">
	<line>
		<line_cd>99630</line_cd>
		<line_name>神戸高速東西線</line_name>
		<line_lon>135.17274029102</line_lon>
		<line_lat>34.677956663211</line_lat>
		<line_zoom>13</line_zoom>
	</line>
	<station>
		<station_cd>9963001</station_cd>
		<station_g_cd>1160313</station_g_cd>
		<station_name>三宮</station_name>
		<lon>135.192862</lon>
		<lat>34.693233</lat>
	</station>
	<station>
		<station_cd>9963002</station_cd>
		<station_g_cd>9963002</station_g_cd>
		<station_name>花隈</station_name>
		<lon>135.181524</lon>
		<lat>34.686117</lat>
	</station>
	<station>
		<station_cd>9963003</station_cd>
		<station_g_cd>1160314</station_g_cd>
		<station_name>元町</station_name>
		<lon>135.18725</lon>
		<lat>34.689836</lat>
	</station>
	<station>
		<station_cd>9963004</station_cd>
		<station_g_cd>9963004</station_g_cd>
		<station_name>西元町</station_name>
		<lon>135.17959</lon>
		<lat>34.683897</lat>
	</station>
	<station>
		<station_cd>9963005</station_cd>
		<station_g_cd>9963005</station_g_cd>
		<station_name>高速神戸</station_name>
		<lon>135.174441</lon>
		<lat>34.679362</lat>
	</station>
	<station>
		<station_cd>9963006</station_cd>
		<station_g_cd>9963006</station_g_cd>
		<station_name>新開地</station_name>
		<lon>135.169291</lon>
		<lat>34.675981</lat>
	</station>
	<station>
		<station_cd>9963007</station_cd>
		<station_g_cd>9963007</station_g_cd>
		<station_name>大開</station_name>
		<lon>135.161709</lon>
		<lat>34.671179</lat>
	</station>
	<station>
		<station_cd>9963008</station_cd>
		<station_g_cd>9963008</station_g_cd>
		<station_name>高速長田</station_name>
		<lon>135.151551</lon>
		<lat>34.667254</lat>
	</station>
	<station>
		<station_cd>9963009</station_cd>
		<station_g_cd>9963009</station_g_cd>
		<station_name>西代</station_name>
		<lon>135.144085</lon>
		<lat>34.662374</lat>
	</station>
</ekidata>
