
if(typeof(xml)=='undefined') xml = {};
xml.data = {"line_cd":99632,"line_name":"有馬線","line_lon":135.18505692567,"line_lat":34.752459971457,"line_zoom":12,"station_l":[{"station_cd":9963201,"station_g_cd":9963102,"station_name":"湊川","lon":135.166426,"lat":34.679153},{"station_cd":9963202,"station_g_cd":9963202,"station_name":"長田","lon":135.149592,"lat":34.681605},{"station_cd":9963203,"station_g_cd":9963203,"station_name":"丸山","lon":135.143993,"lat":34.685913},{"station_cd":9963204,"station_g_cd":9963204,"station_name":"鵯越","lon":135.142232,"lat":34.692576},{"station_cd":9963206,"station_g_cd":9963206,"station_name":"鈴蘭台","lon":135.145867,"lat":34.723662},{"station_cd":9963207,"station_g_cd":9963207,"station_name":"北鈴蘭台","lon":135.151917,"lat":34.739549},{"station_cd":9963208,"station_g_cd":9963208,"station_name":"山の街","lon":135.153211,"lat":34.746171},{"station_cd":9963209,"station_g_cd":9963209,"station_name":"箕谷","lon":135.155597,"lat":34.756969},{"station_cd":9963210,"station_g_cd":9963210,"station_name":"谷上","lon":135.17142,"lat":34.761691},{"station_cd":9963211,"station_g_cd":9963211,"station_name":"花山","lon":135.187308,"lat":34.769648},{"station_cd":9963212,"station_g_cd":9963212,"station_name":"大池","lon":135.198693,"lat":34.780978},{"station_cd":9963213,"station_g_cd":9963213,"station_name":"神鉄六甲","lon":135.206036,"lat":34.785205},{"station_cd":9963214,"station_g_cd":9963214,"station_name":"唐櫃台","lon":135.211461,"lat":34.790297},{"station_cd":9963215,"station_g_cd":9963215,"station_name":"有馬口","lon":135.221018,"lat":34.796477},{"station_cd":9963217,"station_g_cd":9963217,"station_name":"有馬温泉","lon":135.245868,"lat":34.799385}]}
if(typeof(xml.onload)=='function') xml.onload(xml.data);
