
if(typeof(xml)=='undefined') xml = {};
xml.data = {"line_cd":99630,"line_name":"神戸高速東西線","line_lon":135.17274029102,"line_lat":34.677956663211,"line_zoom":13,"station_l":[{"station_cd":9963001,"station_g_cd":1160313,"station_name":"三宮","lon":135.192862,"lat":34.693233},{"station_cd":9963002,"station_g_cd":9963002,"station_name":"花隈","lon":135.181524,"lat":34.686117},{"station_cd":9963003,"station_g_cd":1160314,"station_name":"元町","lon":135.18725,"lat":34.689836},{"station_cd":9963004,"station_g_cd":9963004,"station_name":"西元町","lon":135.17959,"lat":34.683897},{"station_cd":9963005,"station_g_cd":9963005,"station_name":"高速神戸","lon":135.174441,"lat":34.679362},{"station_cd":9963006,"station_g_cd":9963006,"station_name":"新開地","lon":135.169291,"lat":34.675981},{"station_cd":9963007,"station_g_cd":9963007,"station_name":"大開","lon":135.161709,"lat":34.671179},{"station_cd":9963008,"station_g_cd":9963008,"station_name":"高速長田","lon":135.151551,"lat":34.667254},{"station_cd":9963009,"station_g_cd":9963009,"station_name":"西代","lon":135.144085,"lat":34.662374}]}
if(typeof(xml.onload)=='function') xml.onload(xml.data);
