
if(typeof(xml)=='undefined') xml = {};
xml.data = {"line_cd":99648,"line_name":"ポートライナー","line_lon":135.21260397884,"line_lat":34.670333538698,"line_zoom":13,"station_l":[{"station_cd":9964801,"station_g_cd":1160313,"station_name":"三宮","lon":135.195306,"lat":34.694563},{"station_cd":9964802,"station_g_cd":9964802,"station_name":"貿易センター","lon":135.199469,"lat":34.689339},{"station_cd":9964803,"station_g_cd":9964803,"station_name":"ポートターミナル","lon":135.202205,"lat":34.681501},{"station_cd":9964804,"station_g_cd":9964804,"station_name":"中公園","lon":135.207483,"lat":34.673124},{"station_cd":9964805,"station_g_cd":9964805,"station_name":"みなとじま","lon":135.210105,"lat":34.668863},{"station_cd":9964806,"station_g_cd":9964806,"station_name":"市民広場","lon":135.212455,"lat":34.664897},{"station_cd":9964807,"station_g_cd":9964807,"station_name":"医療センター","lon":135.216343,"lat":34.658578},{"station_cd":9964808,"station_g_cd":9964808,"station_name":"京コンピュータ前","lon":135.221865,"lat":34.654892},{"station_cd":9964809,"station_g_cd":9964809,"station_name":"神戸空港","lon":135.229042,"lat":34.637194},{"station_cd":9964810,"station_g_cd":9964810,"station_name":"南公園","lon":135.217007,"lat":34.664666},{"station_cd":9964811,"station_g_cd":9964811,"station_name":"中埠頭","lon":135.217096,"lat":34.669266},{"station_cd":9964812,"station_g_cd":9964812,"station_name":"北埠頭","lon":135.214632,"lat":34.673566}]}
if(typeof(xml.onload)=='function') xml.onload(xml.data);
