<?xml version="1.0" encoding="UTF-8"?>
<ekidata version="ekidata.jp line api 1.0">
	<line>
		<line_cd>99707</line_cd>
		<line_name>清輝橋線</line_name>
		<line_lon>133.92400867195</line_lon>
		<line_lat>34.658570803527</line_lat>
		<line_zoom>15</line_zoom>
	</line>
	<station>
		<station_cd>9970701</station_cd>
		<station_g_cd>1160917</station_g_cd>
		<station_name>岡山駅前</station_name>
		<lon>133.9201</lon>
		<lat>34.665458</lat>
	</station>
	<station>
		<station_cd>9970702</station_cd>
		<station_g_cd>9970602</station_g_cd>
		<station_name>西川緑道公園</station_name>
		<lon>133.923018</lon>
		<lat>34.665599</lat>
	</station>
	<station>
		<station_cd>9970703</station_cd>
		<station_g_cd>9970603</station_g_cd>
		<station_name>柳川</station_name>
		<lon>133.925507</lon>
		<lat>34.665635</lat>
	</station>
	<station>
		<station_cd>9970704</station_cd>
		<station_g_cd>9970704</station_g_cd>
		<station_name>郵便局前</station_name>
		<lon>133.92628</lon>
		<lat>34.662634</lat>
	</station>
	<station>
		<station_cd>9970705</station_cd>
		<station_g_cd>9970705</station_g_cd>
		<station_name>田町</station_name>
		<lon>133.926322</lon>
		<lat>34.660658</lat>
	</station>
	<station>
		<station_cd>9970706</station_cd>
		<station_g_cd>9970706</station_g_cd>
		<station_name>新西大寺町筋</station_name>
		<lon>133.92628</lon>
		<lat>34.658504</lat>
	</station>
	<station>
		<station_cd>9970707</station_cd>
		<station_g_cd>9970707</station_g_cd>
		<station_name>大雲寺前</station_name>
		<lon>133.926237</lon>
		<lat>34.656492</lat>
	</station>
	<station>
		<station_cd>9970709</station_cd>
		<station_g_cd>9970709</station_g_cd>
		<station_name>東中央町</station_name>
		<lon>133.926183</lon>
		<lat>34.654445</lat>
	</station>
	<station>
		<station_cd>9970708</station_cd>
		<station_g_cd>9970708</station_g_cd>
		<station_name>清輝橋</station_name>
		<lon>133.925807</lon>
		<lat>34.651691</lat>
	</station>
</ekidata>
