<?xml version="1.0" encoding="UTF-8"?>
<ekidata version="ekidata.jp line api 1.0">
	<line>
		<line_cd>99711</line_cd>
		<line_name>広電２号線(宮島線)</line_name>
		<line_lon>132.38582722415</line_lon>
		<line_lat>34.371507218076</line_lat>
		<line_zoom>12</line_zoom>
	</line>
	<station>
		<station_cd>9971101</station_cd>
		<station_g_cd>1161115</station_g_cd>
		<station_name>広島駅</station_name>
		<lon>132.475403</lon>
		<lat>34.396296</lat>
	</station>
	<station>
		<station_cd>9971102</station_cd>
		<station_g_cd>9971002</station_g_cd>
		<station_name>猿猴橋町</station_name>
		<lon>132.475977</lon>
		<lat>34.395047</lat>
	</station>
	<station>
		<station_cd>9971103</station_cd>
		<station_g_cd>9971003</station_g_cd>
		<station_name>的場町</station_name>
		<lon>132.475076</lon>
		<lat>34.393277</lat>
	</station>
	<station>
		<station_cd>9971104</station_cd>
		<station_g_cd>9971004</station_g_cd>
		<station_name>稲荷町</station_name>
		<lon>132.471728</lon>
		<lat>34.392569</lat>
	</station>
	<station>
		<station_cd>9971105</station_cd>
		<station_g_cd>9971005</station_g_cd>
		<station_name>銀山町</station_name>
		<lon>132.467866</lon>
		<lat>34.393135</lat>
	</station>
	<station>
		<station_cd>9971106</station_cd>
		<station_g_cd>9971006</station_g_cd>
		<station_name>胡町</station_name>
		<lon>132.465076</lon>
		<lat>34.393401</lat>
	</station>
	<station>
		<station_cd>9971107</station_cd>
		<station_g_cd>9971007</station_g_cd>
		<station_name>八丁堀</station_name>
		<lon>132.463403</lon>
		<lat>34.393897</lat>
	</station>
	<station>
		<station_cd>9971108</station_cd>
		<station_g_cd>9971008</station_g_cd>
		<station_name>立町</station_name>
		<lon>132.460871</lon>
		<lat>34.394569</lat>
	</station>
	<station>
		<station_cd>9971109</station_cd>
		<station_g_cd>9971009</station_g_cd>
		<station_name>紙屋町東</station_name>
		<lon>132.458167</lon>
		<lat>34.395101</lat>
	</station>
	<station>
		<station_cd>9971110</station_cd>
		<station_g_cd>9971110</station_g_cd>
		<station_name>紙屋町西</station_name>
		<lon>132.456965</lon>
		<lat>34.395455</lat>
	</station>
	<station>
		<station_cd>9971111</station_cd>
		<station_g_cd>9971111</station_g_cd>
		<station_name>原爆ドーム前</station_name>
		<lon>132.453918</lon>
		<lat>34.396163</lat>
	</station>
	<station>
		<station_cd>9971112</station_cd>
		<station_g_cd>9971112</station_g_cd>
		<station_name>本川町</station_name>
		<lon>132.450485</lon>
		<lat>34.396942</lat>
	</station>
	<station>
		<station_cd>9971113</station_cd>
		<station_g_cd>9971113</station_g_cd>
		<station_name>十日市町</station_name>
		<lon>132.447138</lon>
		<lat>34.397438</lat>
	</station>
	<station>
		<station_cd>9971114</station_cd>
		<station_g_cd>9971114</station_g_cd>
		<station_name>土橋</station_name>
		<lon>132.446322</lon>
		<lat>34.3948</lat>
	</station>
	<station>
		<station_cd>9971115</station_cd>
		<station_g_cd>9971115</station_g_cd>
		<station_name>小網町</station_name>
		<lon>132.44422</lon>
		<lat>34.394543</lat>
	</station>
	<station>
		<station_cd>9971116</station_cd>
		<station_g_cd>9971116</station_g_cd>
		<station_name>天満町</station_name>
		<lon>132.440572</lon>
		<lat>34.395216</lat>
	</station>
	<station>
		<station_cd>9971117</station_cd>
		<station_g_cd>9971117</station_g_cd>
		<station_name>観音町</station_name>
		<lon>132.438405</lon>
		<lat>34.395534</lat>
	</station>
	<station>
		<station_cd>9971118</station_cd>
		<station_g_cd>9971118</station_g_cd>
		<station_name>西観音町</station_name>
		<lon>132.43686</lon>
		<lat>34.393976</lat>
	</station>
	<station>
		<station_cd>9971119</station_cd>
		<station_g_cd>9971119</station_g_cd>
		<station_name>福島町</station_name>
		<lon>132.433898</lon>
		<lat>34.394985</lat>
	</station>
	<station>
		<station_cd>9971120</station_cd>
		<station_g_cd>1161117</station_g_cd>
		<station_name>広電西広島（己斐）</station_name>
		<lon>132.428255</lon>
		<lat>34.397261</lat>
	</station>
	<station>
		<station_cd>9971121</station_cd>
		<station_g_cd>9971121</station_g_cd>
		<station_name>東高須</station_name>
		<lon>132.420224</lon>
		<lat>34.391922</lat>
	</station>
	<station>
		<station_cd>9971122</station_cd>
		<station_g_cd>9971122</station_g_cd>
		<station_name>高須</station_name>
		<lon>132.417055</lon>
		<lat>34.389872</lat>
	</station>
	<station>
		<station_cd>9971123</station_cd>
		<station_g_cd>9971123</station_g_cd>
		<station_name>古江</station_name>
		<lon>132.411383</lon>
		<lat>34.386311</lat>
	</station>
	<station>
		<station_cd>9971124</station_cd>
		<station_g_cd>9971124</station_g_cd>
		<station_name>草津</station_name>
		<lon>132.403915</lon>
		<lat>34.3816</lat>
	</station>
	<station>
		<station_cd>9971125</station_cd>
		<station_g_cd>9971125</station_g_cd>
		<station_name>草津南</station_name>
		<lon>132.398479</lon>
		<lat>34.378092</lat>
	</station>
	<station>
		<station_cd>9971126</station_cd>
		<station_g_cd>1161118</station_g_cd>
		<station_name>商工センター入口</station_name>
		<lon>132.391999</lon>
		<lat>34.375423</lat>
	</station>
	<station>
		<station_cd>9971127</station_cd>
		<station_g_cd>9971127</station_g_cd>
		<station_name>井口</station_name>
		<lon>132.385805</lon>
		<lat>34.371751</lat>
	</station>
	<station>
		<station_cd>9971128</station_cd>
		<station_g_cd>9971128</station_g_cd>
		<station_name>修大協創中高前</station_name>
		<lon>132.374589</lon>
		<lat>34.368218</lat>
	</station>
	<station>
		<station_cd>9971129</station_cd>
		<station_g_cd>1161119</station_g_cd>
		<station_name>広電五日市</station_name>
		<lon>132.367856</lon>
		<lat>34.366393</lat>
	</station>
	<station>
		<station_cd>9971130</station_cd>
		<station_g_cd>9971130</station_g_cd>
		<station_name>佐伯区役所前</station_name>
		<lon>132.361709</lon>
		<lat>34.365443</lat>
	</station>
	<station>
		<station_cd>9971131</station_cd>
		<station_g_cd>9971131</station_g_cd>
		<station_name>楽々園</station_name>
		<lon>132.351988</lon>
		<lat>34.364282</lat>
	</station>
	<station>
		<station_cd>9971132</station_cd>
		<station_g_cd>9971132</station_g_cd>
		<station_name>山陽女学園前</station_name>
		<lon>132.341251</lon>
		<lat>34.361948</lat>
	</station>
	<station>
		<station_cd>9971133</station_cd>
		<station_g_cd>1161120</station_g_cd>
		<station_name>広電廿日市</station_name>
		<lon>132.336179</lon>
		<lat>34.356621</lat>
	</station>
	<station>
		<station_cd>9971134</station_cd>
		<station_g_cd>9971134</station_g_cd>
		<station_name>廿日市市役所前（平良）</station_name>
		<lon>132.329722</lon>
		<lat>34.352816</lat>
	</station>
	<station>
		<station_cd>9971135</station_cd>
		<station_g_cd>1161121</station_g_cd>
		<station_name>宮内</station_name>
		<lon>132.325226</lon>
		<lat>34.347472</lat>
	</station>
	<station>
		<station_cd>9971136</station_cd>
		<station_g_cd>9971136</station_g_cd>
		<station_name>ＪＡ広島病院前</station_name>
		<lon>132.322404</lon>
		<lat>34.343959</lat>
	</station>
	<station>
		<station_cd>9971137</station_cd>
		<station_g_cd>9971137</station_g_cd>
		<station_name>地御前</station_name>
		<lon>132.320049</lon>
		<lat>34.340942</lat>
	</station>
	<station>
		<station_cd>9971138</station_cd>
		<station_g_cd>9971138</station_g_cd>
		<station_name>阿品東</station_name>
		<lon>132.318579</lon>
		<lat>34.326488</lat>
	</station>
	<station>
		<station_cd>9971139</station_cd>
		<station_g_cd>1161122</station_g_cd>
		<station_name>広電阿品</station_name>
		<lon>132.31483</lon>
		<lat>34.321933</lat>
	</station>
	<station>
		<station_cd>9971140</station_cd>
		<station_g_cd>9971140</station_g_cd>
		<station_name>宮島ボートレース場</station_name>
		<lon>132.305006</lon>
		<lat>34.314425</lat>
	</station>
	<station>
		<station_cd>9971141</station_cd>
		<station_g_cd>1161123</station_g_cd>
		<station_name>広電宮島口</station_name>
		<lon>132.304256</lon>
		<lat>34.31217</lat>
	</station>
</ekidata>
