<?xml version="1.0" encoding="UTF-8"?>
<ekidata version="ekidata.jp line api 1.0">
	<line>
		<line_cd>99714</line_cd>
		<line_name>広電６号線(江波線)</line_name>
		<line_lon>132.45429202036</line_lon>
		<line_lat>34.388572285071</line_lat>
		<line_zoom>14</line_zoom>
	</line>
	<station>
		<station_cd>9971401</station_cd>
		<station_g_cd>1161115</station_g_cd>
		<station_name>広島駅</station_name>
		<lon>132.475403</lon>
		<lat>34.396296</lat>
	</station>
	<station>
		<station_cd>9971402</station_cd>
		<station_g_cd>9971002</station_g_cd>
		<station_name>猿猴橋町</station_name>
		<lon>132.475977</lon>
		<lat>34.395047</lat>
	</station>
	<station>
		<station_cd>9971403</station_cd>
		<station_g_cd>9971003</station_g_cd>
		<station_name>的場町</station_name>
		<lon>132.475076</lon>
		<lat>34.393277</lat>
	</station>
	<station>
		<station_cd>9971404</station_cd>
		<station_g_cd>9971004</station_g_cd>
		<station_name>稲荷町</station_name>
		<lon>132.471728</lon>
		<lat>34.392569</lat>
	</station>
	<station>
		<station_cd>9971405</station_cd>
		<station_g_cd>9971005</station_g_cd>
		<station_name>銀山町</station_name>
		<lon>132.467866</lon>
		<lat>34.393135</lat>
	</station>
	<station>
		<station_cd>9971406</station_cd>
		<station_g_cd>9971006</station_g_cd>
		<station_name>胡町</station_name>
		<lon>132.465076</lon>
		<lat>34.393401</lat>
	</station>
	<station>
		<station_cd>9971407</station_cd>
		<station_g_cd>9971007</station_g_cd>
		<station_name>八丁堀</station_name>
		<lon>132.463403</lon>
		<lat>34.393897</lat>
	</station>
	<station>
		<station_cd>9971408</station_cd>
		<station_g_cd>9971008</station_g_cd>
		<station_name>立町</station_name>
		<lon>132.460871</lon>
		<lat>34.394569</lat>
	</station>
	<station>
		<station_cd>9971409</station_cd>
		<station_g_cd>9971009</station_g_cd>
		<station_name>紙屋町東</station_name>
		<lon>132.458167</lon>
		<lat>34.395101</lat>
	</station>
	<station>
		<station_cd>9971410</station_cd>
		<station_g_cd>9971110</station_g_cd>
		<station_name>紙屋町西</station_name>
		<lon>132.456965</lon>
		<lat>34.395455</lat>
	</station>
	<station>
		<station_cd>9971411</station_cd>
		<station_g_cd>9971111</station_g_cd>
		<station_name>原爆ドーム前</station_name>
		<lon>132.453918</lon>
		<lat>34.396163</lat>
	</station>
	<station>
		<station_cd>9971412</station_cd>
		<station_g_cd>9971112</station_g_cd>
		<station_name>本川町</station_name>
		<lon>132.450485</lon>
		<lat>34.396942</lat>
	</station>
	<station>
		<station_cd>9971413</station_cd>
		<station_g_cd>9971113</station_g_cd>
		<station_name>十日市町</station_name>
		<lon>132.447138</lon>
		<lat>34.397438</lat>
	</station>
	<station>
		<station_cd>9971414</station_cd>
		<station_g_cd>9971114</station_g_cd>
		<station_name>土橋</station_name>
		<lon>132.446322</lon>
		<lat>34.3948</lat>
	</station>
	<station>
		<station_cd>9971415</station_cd>
		<station_g_cd>9971415</station_g_cd>
		<station_name>舟入町</station_name>
		<lon>132.444928</lon>
		<lat>34.389222</lat>
	</station>
	<station>
		<station_cd>9971416</station_cd>
		<station_g_cd>9971416</station_g_cd>
		<station_name>舟入本町</station_name>
		<lon>132.442632</lon>
		<lat>34.385556</lat>
	</station>
	<station>
		<station_cd>9971417</station_cd>
		<station_g_cd>9971417</station_g_cd>
		<station_name>舟入幸町</station_name>
		<lon>132.441151</lon>
		<lat>34.383139</lat>
	</station>
	<station>
		<station_cd>9971418</station_cd>
		<station_g_cd>9971418</station_g_cd>
		<station_name>舟入川口町</station_name>
		<lon>132.439499</lon>
		<lat>34.380341</lat>
	</station>
	<station>
		<station_cd>9971419</station_cd>
		<station_g_cd>9971419</station_g_cd>
		<station_name>舟入南</station_name>
		<lon>132.437224</lon>
		<lat>34.375099</lat>
	</station>
	<station>
		<station_cd>9971420</station_cd>
		<station_g_cd>9971420</station_g_cd>
		<station_name>江波</station_name>
		<lon>132.436044</lon>
		<lat>34.372496</lat>
	</station>
</ekidata>
