
if(typeof(xml)=='undefined') xml = {};
xml.data = {"line_cd":99810,"line_name":"伊予鉄道市駅線","line_lon":132.77226810678,"line_lat":33.843001741993,"line_zoom":14,"station_l":[{"station_cd":9981001,"station_g_cd":9980501,"station_name":"松山市駅前","lon":132.762587,"lat":33.836148},{"station_cd":9981002,"station_g_cd":9980802,"station_name":"南堀端","lon":132.761664,"lat":33.839213},{"station_cd":9981003,"station_g_cd":9980821,"station_name":"市役所前","lon":132.764819,"lat":33.839926},{"station_cd":9981004,"station_g_cd":9980820,"station_name":"県庁前","lon":132.766364,"lat":33.841067},{"station_cd":9981005,"station_g_cd":9980819,"station_name":"大街道","lon":132.769861,"lat":33.841103},{"station_cd":9981006,"station_g_cd":9980818,"station_name":"勝山町","lon":132.774818,"lat":33.841709},{"station_cd":9981007,"station_g_cd":9980817,"station_name":"警察署前","lon":132.775354,"lat":33.844596},{"station_cd":9981008,"station_g_cd":9980816,"station_name":"上一万","lon":132.775502,"lat":33.846737},{"station_cd":9981009,"station_g_cd":9981009,"station_name":"南町","lon":132.779839,"lat":33.847412},{"station_cd":9981010,"station_g_cd":9981010,"station_name":"道後公園","lon":132.784989,"lat":33.848552},{"station_cd":9981011,"station_g_cd":9981011,"station_name":"道後温泉","lon":132.784817,"lat":33.850477}]}
if(typeof(xml.onload)=='function') xml.onload(xml.data);
