<?xml version="1.0" encoding="UTF-8"?>
<ekidata version="ekidata.jp line api 1.0">
	<line>
		<line_cd>99904</line_cd>
		<line_name>田川線</line_name>
		<line_lon>130.90100372119</line_lon>
		<line_lat>33.666047994427</line_lat>
		<line_zoom>12</line_zoom>
	</line>
	<station>
		<station_cd>9990401</station_cd>
		<station_g_cd>1191413</station_g_cd>
		<station_name>田川伊田</station_name>
		<lon>130.817688</lon>
		<lat>33.642046</lat>
	</station>
	<station>
		<station_cd>9990402</station_cd>
		<station_g_cd>9990402</station_g_cd>
		<station_name>上伊田</station_name>
		<lon>130.83017</lon>
		<lat>33.648079</lat>
	</station>
	<station>
		<station_cd>9990403</station_cd>
		<station_g_cd>9990403</station_g_cd>
		<station_name>勾金</station_name>
		<lon>130.841939</lon>
		<lat>33.651568</lat>
	</station>
	<station>
		<station_cd>9990404</station_cd>
		<station_g_cd>9990404</station_g_cd>
		<station_name>柿下温泉口</station_name>
		<lon>130.854116</lon>
		<lat>33.651593</lat>
	</station>
	<station>
		<station_cd>9990405</station_cd>
		<station_g_cd>9990405</station_g_cd>
		<station_name>内田</station_name>
		<lon>130.864302</lon>
		<lat>33.637367</lat>
	</station>
	<station>
		<station_cd>9990406</station_cd>
		<station_g_cd>9990406</station_g_cd>
		<station_name>赤</station_name>
		<lon>130.871827</lon>
		<lat>33.617703</lat>
	</station>
	<station>
		<station_cd>9990407</station_cd>
		<station_g_cd>9990407</station_g_cd>
		<station_name>油須原</station_name>
		<lon>130.884384</lon>
		<lat>33.612765</lat>
	</station>
	<station>
		<station_cd>9990408</station_cd>
		<station_g_cd>9990408</station_g_cd>
		<station_name>源じいの森</station_name>
		<lon>130.895972</lon>
		<lat>33.616179</lat>
	</station>
	<station>
		<station_cd>9990409</station_cd>
		<station_g_cd>9990409</station_g_cd>
		<station_name>崎山</station_name>
		<lon>130.917903</lon>
		<lat>33.636285</lat>
	</station>
	<station>
		<station_cd>9990410</station_cd>
		<station_g_cd>9990410</station_g_cd>
		<station_name>犀川</station_name>
		<lon>130.939337</lon>
		<lat>33.650689</lat>
	</station>
	<station>
		<station_cd>9990411</station_cd>
		<station_g_cd>9990411</station_g_cd>
		<station_name>東犀川三四郎</station_name>
		<lon>130.948966</lon>
		<lat>33.661385</lat>
	</station>
	<station>
		<station_cd>9990412</station_cd>
		<station_g_cd>9990412</station_g_cd>
		<station_name>新豊津</station_name>
		<lon>130.963987</lon>
		<lat>33.679717</lat>
	</station>
	<station>
		<station_cd>9990413</station_cd>
		<station_g_cd>9990413</station_g_cd>
		<station_name>豊津</station_name>
		<lon>130.962984</lon>
		<lat>33.687505</lat>
	</station>
	<station>
		<station_cd>9990414</station_cd>
		<station_g_cd>9990414</station_g_cd>
		<station_name>今川河童</station_name>
		<lon>130.965517</lon>
		<lat>33.702983</lat>
	</station>
	<station>
		<station_cd>9990415</station_cd>
		<station_g_cd>9990415</station_g_cd>
		<station_name>美夜古泉</station_name>
		<lon>130.969052</lon>
		<lat>33.709108</lat>
	</station>
	<station>
		<station_cd>9990417</station_cd>
		<station_g_cd>9990417</station_g_cd>
		<station_name>令和コスタ行橋</station_name>
		<lon>130.973278</lon>
		<lat>33.716389</lat>
	</station>
	<station>
		<station_cd>9990416</station_cd>
		<station_g_cd>1190613</station_g_cd>
		<station_name>行橋</station_name>
		<lon>130.970313</lon>
		<lat>33.72835</lat>
	</station>
</ekidata>
