
if(typeof(xml)=='undefined') xml = {};
xml.data = {"line_cd":99914,"line_name":"長崎電軌３系統","line_lon":129.87054078572,"line_lat":32.768162520725,"line_zoom":13,"station_l":[{"station_cd":9991401,"station_g_cd":9991401,"station_name":"蛍茶屋","lon":129.894254,"lat":32.751135},{"station_cd":9991402,"station_g_cd":9991402,"station_name":"新中川町","lon":129.890435,"lat":32.752362},{"station_cd":9991403,"station_g_cd":9991403,"station_name":"新大工町","lon":129.886701,"lat":32.75238},{"station_cd":9991404,"station_g_cd":9991404,"station_name":"諏訪神社","lon":129.884083,"lat":32.752596},{"station_cd":9991405,"station_g_cd":9991405,"station_name":"市民会館","lon":129.88065,"lat":32.74942},{"station_cd":9991406,"station_g_cd":9991406,"station_name":"桜町","lon":129.8755,"lat":32.750792},{"station_cd":9991407,"station_g_cd":1190541,"station_name":"長崎駅前","lon":129.871874,"lat":32.75238},{"station_cd":9991408,"station_g_cd":9991317,"station_name":"八千代町","lon":129.870436,"lat":32.754979},{"station_cd":9991409,"station_g_cd":9991316,"station_name":"宝町","lon":129.868913,"lat":32.75783},{"station_cd":9991410,"station_g_cd":9991315,"station_name":"銭座町","lon":129.865801,"lat":32.761475},{"station_cd":9991411,"station_g_cd":9991314,"station_name":"茂里町","lon":129.864557,"lat":32.763965},{"station_cd":9991412,"station_g_cd":1190540,"station_name":"浦上駅前","lon":129.864171,"lat":32.765481},{"station_cd":9991413,"station_g_cd":9991312,"station_name":"大学病院","lon":129.864171,"lat":32.769017},{"station_cd":9991414,"station_g_cd":9991311,"station_name":"原爆資料館","lon":129.863784,"lat":32.770551},{"station_cd":9991415,"station_g_cd":9991310,"station_name":"平和公園","lon":129.862132,"lat":32.773437},{"station_cd":9991416,"station_g_cd":9991309,"station_name":"大橋","lon":129.861467,"lat":32.777713},{"station_cd":9991417,"station_g_cd":9991308,"station_name":"浦上車庫","lon":129.861381,"lat":32.77968},{"station_cd":9991418,"station_g_cd":9991307,"station_name":"岩屋橋","lon":129.862282,"lat":32.781935},{"station_cd":9991419,"station_g_cd":9991306,"station_name":"長崎大学","lon":129.862282,"lat":32.785759},{"station_cd":9991420,"station_g_cd":9991305,"station_name":"若葉町","lon":129.861596,"lat":32.787744},{"station_cd":9991421,"station_g_cd":9991304,"station_name":"千歳町","lon":129.860952,"lat":32.78962},{"station_cd":9991422,"station_g_cd":1190539,"station_name":"昭和町通","lon":129.860694,"lat":32.79063},{"station_cd":9991423,"station_g_cd":9991302,"station_name":"住吉","lon":129.859836,"lat":32.792073},{"station_cd":9991424,"station_g_cd":9991301,"station_name":"赤迫","lon":129.857948,"lat":32.793732}]}
if(typeof(xml.onload)=='function') xml.onload(xml.data);
