<?xml version="1.0" encoding="UTF-8"?>
<ekidata version="ekidata.jp line api 1.0">
	<line>
		<line_cd>99918</line_cd>
		<line_name>熊本電鉄上熊本線</line_name>
		<line_lon>130.70907904761</line_lon>
		<line_lat>32.823570912231</line_lat>
		<line_zoom>14</line_zoom>
	</line>
	<station>
		<station_cd>9991801</station_cd>
		<station_g_cd>1190340</station_g_cd>
		<station_name>上熊本</station_name>
		<lon>130.699797</lon>
		<lat>32.818324</lat>
	</station>
	<station>
		<station_cd>9991802</station_cd>
		<station_g_cd>9991802</station_g_cd>
		<station_name>韓々坂</station_name>
		<lon>130.701917</lon>
		<lat>32.824201</lat>
	</station>
	<station>
		<station_cd>9991803</station_cd>
		<station_g_cd>9991803</station_g_cd>
		<station_name>池田</station_name>
		<lon>130.70748</lon>
		<lat>32.827082</lat>
	</station>
	<station>
		<station_cd>9991804</station_cd>
		<station_g_cd>9991804</station_g_cd>
		<station_name>打越</station_name>
		<lon>130.713796</lon>
		<lat>32.823765</lat>
	</station>
	<station>
		<station_cd>9991805</station_cd>
		<station_g_cd>9991805</station_g_cd>
		<station_name>坪井川公園</station_name>
		<lon>130.718773</lon>
		<lat>32.821427</lat>
	</station>
	<station>
		<station_cd>9991806</station_cd>
		<station_g_cd>9991703</station_g_cd>
		<station_name>北熊本</station_name>
		<lon>130.721981</lon>
		<lat>32.827492</lat>
	</station>
</ekidata>
