<?xml version="1.0" encoding="UTF-8"?>
<ekidata version="ekidata.jp line api 1.0">
	<line>
		<line_cd>99913</line_cd>
		<line_name>長崎電軌１系統</line_name>
		<line_lon>129.86838866057</line_lon>
		<line_lat>32.768729040517</line_lat>
		<line_zoom>13</line_zoom>
	</line>
	<station>
		<station_cd>9991301</station_cd>
		<station_g_cd>9991301</station_g_cd>
		<station_name>赤迫</station_name>
		<lon>129.857948</lon>
		<lat>32.793732</lat>
	</station>
	<station>
		<station_cd>9991302</station_cd>
		<station_g_cd>9991302</station_g_cd>
		<station_name>住吉</station_name>
		<lon>129.859836</lon>
		<lat>32.792073</lat>
	</station>
	<station>
		<station_cd>9991303</station_cd>
		<station_g_cd>1190539</station_g_cd>
		<station_name>昭和町通</station_name>
		<lon>129.860694</lon>
		<lat>32.79063</lat>
	</station>
	<station>
		<station_cd>9991304</station_cd>
		<station_g_cd>9991304</station_g_cd>
		<station_name>千歳町</station_name>
		<lon>129.860952</lon>
		<lat>32.78962</lat>
	</station>
	<station>
		<station_cd>9991305</station_cd>
		<station_g_cd>9991305</station_g_cd>
		<station_name>若葉町</station_name>
		<lon>129.861596</lon>
		<lat>32.787744</lat>
	</station>
	<station>
		<station_cd>9991306</station_cd>
		<station_g_cd>9991306</station_g_cd>
		<station_name>長崎大学</station_name>
		<lon>129.862282</lon>
		<lat>32.785759</lat>
	</station>
	<station>
		<station_cd>9991307</station_cd>
		<station_g_cd>9991307</station_g_cd>
		<station_name>岩屋橋</station_name>
		<lon>129.862282</lon>
		<lat>32.781935</lat>
	</station>
	<station>
		<station_cd>9991308</station_cd>
		<station_g_cd>9991308</station_g_cd>
		<station_name>浦上車庫</station_name>
		<lon>129.861381</lon>
		<lat>32.77968</lat>
	</station>
	<station>
		<station_cd>9991309</station_cd>
		<station_g_cd>9991309</station_g_cd>
		<station_name>大橋</station_name>
		<lon>129.861467</lon>
		<lat>32.777713</lat>
	</station>
	<station>
		<station_cd>9991310</station_cd>
		<station_g_cd>9991310</station_g_cd>
		<station_name>平和公園</station_name>
		<lon>129.862132</lon>
		<lat>32.773437</lat>
	</station>
	<station>
		<station_cd>9991311</station_cd>
		<station_g_cd>9991311</station_g_cd>
		<station_name>原爆資料館</station_name>
		<lon>129.863784</lon>
		<lat>32.770551</lat>
	</station>
	<station>
		<station_cd>9991312</station_cd>
		<station_g_cd>9991312</station_g_cd>
		<station_name>大学病院</station_name>
		<lon>129.864171</lon>
		<lat>32.769017</lat>
	</station>
	<station>
		<station_cd>9991313</station_cd>
		<station_g_cd>1190540</station_g_cd>
		<station_name>浦上駅前</station_name>
		<lon>129.864171</lon>
		<lat>32.765481</lat>
	</station>
	<station>
		<station_cd>9991314</station_cd>
		<station_g_cd>9991314</station_g_cd>
		<station_name>茂里町</station_name>
		<lon>129.864557</lon>
		<lat>32.763965</lat>
	</station>
	<station>
		<station_cd>9991315</station_cd>
		<station_g_cd>9991315</station_g_cd>
		<station_name>銭座町</station_name>
		<lon>129.865801</lon>
		<lat>32.761475</lat>
	</station>
	<station>
		<station_cd>9991316</station_cd>
		<station_g_cd>9991316</station_g_cd>
		<station_name>宝町</station_name>
		<lon>129.868913</lon>
		<lat>32.75783</lat>
	</station>
	<station>
		<station_cd>9991317</station_cd>
		<station_g_cd>9991317</station_g_cd>
		<station_name>八千代町</station_name>
		<lon>129.870436</lon>
		<lat>32.754979</lat>
	</station>
	<station>
		<station_cd>9991318</station_cd>
		<station_g_cd>1190541</station_g_cd>
		<station_name>長崎駅前</station_name>
		<lon>129.871874</lon>
		<lat>32.75238</lat>
	</station>
	<station>
		<station_cd>9991319</station_cd>
		<station_g_cd>9991319</station_g_cd>
		<station_name>五島町</station_name>
		<lon>129.872217</lon>
		<lat>32.749411</lat>
	</station>
	<station>
		<station_cd>9991320</station_cd>
		<station_g_cd>9991320</station_g_cd>
		<station_name>大波止</station_name>
		<lon>129.872046</lon>
		<lat>32.745116</lat>
	</station>
	<station>
		<station_cd>9991321</station_cd>
		<station_g_cd>9991321</station_g_cd>
		<station_name>出島</station_name>
		<lon>129.871681</lon>
		<lat>32.743871</lat>
	</station>
	<station>
		<station_cd>9991322</station_cd>
		<station_g_cd>9991322</station_g_cd>
		<station_name>新地中華街</station_name>
		<lon>129.874942</lon>
		<lat>32.742869</lat>
	</station>
	<station>
		<station_cd>9991323</station_cd>
		<station_g_cd>9991323</station_g_cd>
		<station_name>西浜町</station_name>
		<lon>129.876015</lon>
		<lat>32.743735</lat>
	</station>
	<station>
		<station_cd>9991324</station_cd>
		<station_g_cd>9991324</station_g_cd>
		<station_name>観光通</station_name>
		<lon>129.877775</lon>
		<lat>32.743483</lat>
	</station>
	<station>
		<station_cd>9991325</station_cd>
		<station_g_cd>9991325</station_g_cd>
		<station_name>思案橋</station_name>
		<lon>129.880264</lon>
		<lat>32.742725</lat>
	</station>
	<station>
		<station_cd>9991326</station_cd>
		<station_g_cd>9991326</station_g_cd>
		<station_name>崇福寺</station_name>
		<lon>129.882109</lon>
		<lat>32.741425</lat>
	</station>
</ekidata>
