<?xml version="1.0" encoding="UTF-8"?>
<ekidata version="ekidata.jp line api 1.0">
	<line>
		<line_cd>99925</line_cd>
		<line_name>鹿児島市電１系統</line_name>
		<line_lon>130.54314217985</line_lon>
		<line_lat>31.563710494243</line_lat>
		<line_zoom>13</line_zoom>
	</line>
	<station>
		<station_cd>9992501</station_cd>
		<station_g_cd>1190412</station_g_cd>
		<station_name>鹿児島駅前</station_name>
		<lon>130.562414</lon>
		<lat>31.601264</lat>
	</station>
	<station>
		<station_cd>9992502</station_cd>
		<station_g_cd>9992502</station_g_cd>
		<station_name>桜島桟橋通</station_name>
		<lon>130.560976</lon>
		<lat>31.599976</lat>
	</station>
	<station>
		<station_cd>9992503</station_cd>
		<station_g_cd>9992503</station_g_cd>
		<station_name>水族館口</station_name>
		<lon>130.559539</lon>
		<lat>31.59898</lat>
	</station>
	<station>
		<station_cd>9992504</station_cd>
		<station_g_cd>9992504</station_g_cd>
		<station_name>市役所前</station_name>
		<lon>130.558015</lon>
		<lat>31.597179</lat>
	</station>
	<station>
		<station_cd>9992505</station_cd>
		<station_g_cd>9992505</station_g_cd>
		<station_name>朝日通</station_name>
		<lon>130.557286</lon>
		<lat>31.594374</lat>
	</station>
	<station>
		<station_cd>9992506</station_cd>
		<station_g_cd>9992506</station_g_cd>
		<station_name>いづろ通</station_name>
		<lon>130.557672</lon>
		<lat>31.591824</lat>
	</station>
	<station>
		<station_cd>9992507</station_cd>
		<station_g_cd>9992507</station_g_cd>
		<station_name>天文館通</station_name>
		<lon>130.555075</lon>
		<lat>31.590691</lat>
	</station>
	<station>
		<station_cd>9992508</station_cd>
		<station_g_cd>9992508</station_g_cd>
		<station_name>高見馬場</station_name>
		<lon>130.550977</lon>
		<lat>31.588726</lat>
	</station>
	<station>
		<station_cd>9992509</station_cd>
		<station_g_cd>9992509</station_g_cd>
		<station_name>甲東中学校前</station_name>
		<lon>130.553058</lon>
		<lat>31.585738</lat>
	</station>
	<station>
		<station_cd>9992510</station_cd>
		<station_g_cd>9992510</station_g_cd>
		<station_name>新屋敷</station_name>
		<lon>130.553724</lon>
		<lat>31.583855</lat>
	</station>
	<station>
		<station_cd>9992511</station_cd>
		<station_g_cd>9992511</station_g_cd>
		<station_name>武之橋</station_name>
		<lon>130.554088</lon>
		<lat>31.57976</lat>
	</station>
	<station>
		<station_cd>9992512</station_cd>
		<station_g_cd>9992512</station_g_cd>
		<station_name>二中通</station_name>
		<lon>130.553702</lon>
		<lat>31.57711</lat>
	</station>
	<station>
		<station_cd>9992513</station_cd>
		<station_g_cd>9992513</station_g_cd>
		<station_name>荒田八幡</station_name>
		<lon>130.553015</lon>
		<lat>31.573618</lat>
	</station>
	<station>
		<station_cd>9992514</station_cd>
		<station_g_cd>9992514</station_g_cd>
		<station_name>騎射場</station_name>
		<lon>130.5519</lon>
		<lat>31.569102</lat>
	</station>
	<station>
		<station_cd>9992515</station_cd>
		<station_g_cd>9992515</station_g_cd>
		<station_name>鴨池</station_name>
		<lon>130.549968</lon>
		<lat>31.564129</lat>
	</station>
	<station>
		<station_cd>9992516</station_cd>
		<station_g_cd>9992516</station_g_cd>
		<station_name>郡元</station_name>
		<lon>130.5493878</lon>
		<lat>31.56292504</lat>
	</station>
	<station>
		<station_cd>9992525</station_cd>
		<station_g_cd>9992525</station_g_cd>
		<station_name>郡元南</station_name>
		<lon>130.5488406</lon>
		<lat>31.56216856</lat>
	</station>
	<station>
		<station_cd>9992517</station_cd>
		<station_g_cd>9992517</station_g_cd>
		<station_name>涙橋</station_name>
		<lon>130.546707</lon>
		<lat>31.559266</lat>
	</station>
	<station>
		<station_cd>9992518</station_cd>
		<station_g_cd>1193003</station_g_cd>
		<station_name>南鹿児島駅前</station_name>
		<lon>130.544196</lon>
		<lat>31.555371</lat>
	</station>
	<station>
		<station_cd>9992519</station_cd>
		<station_g_cd>9992519</station_g_cd>
		<station_name>二軒茶屋</station_name>
		<lon>130.541192</lon>
		<lat>31.55005</lat>
	</station>
	<station>
		<station_cd>9992520</station_cd>
		<station_g_cd>9992520</station_g_cd>
		<station_name>宇宿一丁目</station_name>
		<lon>130.539068</lon>
		<lat>31.546439</lat>
	</station>
	<station>
		<station_cd>9992521</station_cd>
		<station_g_cd>1193004</station_g_cd>
		<station_name>脇田</station_name>
		<lon>130.53763</lon>
		<lat>31.54418</lat>
	</station>
	<station>
		<station_cd>9992522</station_cd>
		<station_g_cd>9992522</station_g_cd>
		<station_name>笹貫</station_name>
		<lon>130.534047</lon>
		<lat>31.539636</lat>
	</station>
	<station>
		<station_cd>9992523</station_cd>
		<station_g_cd>9992523</station_g_cd>
		<station_name>上塩屋</station_name>
		<lon>130.528811</lon>
		<lat>31.534762</lat>
	</station>
	<station>
		<station_cd>9992524</station_cd>
		<station_g_cd>9992524</station_g_cd>
		<station_name>谷山</station_name>
		<lon>130.523404</lon>
		<lat>31.530108</lat>
	</station>
</ekidata>
